[{"date":"2020.10.21","time":"23:43:04","latitude":"36.3772","longitude":"34.3783","depth":"8.4","md":"-.-","ml":"1.8","mw":"-.-","location":"AKDENIZ"},{"date":"2020.10.21","time":"23:14:10","latitude":"37.0152","longitude":"30.6730","depth":"74.6","md":"-.-","ml":"3.2","mw":"3.2","location":"ODABASI-KEPEZ (ANTALYA)"},{"date":"2020.10.21","time":"23:00:50","latitude":"38.3760","longitude":"39.4907","depth":"3.1","md":"-.-","ml":"1.7","mw":"-.-","location":"EGRIKAVAK-MADEN (ELAZIG)"},{"date":"2020.10.21","time":"22:48:42","latitude":"40.7463","longitude":"25.2815","depth":"5.0","md":"-.-","ml":"2.4","mw":"-.-","location":"EGE DENIZI"},{"date":"2020.10.21","time":"22:45:58","latitude":"36.5190","longitude":"27.7168","depth":"8.4","md":"-.-","ml":"1.7","mw":"-.-","location":"AKDENIZ"},{"date":"2020.10.21","time":"22:12:04","latitude":"39.1252","longitude":"28.5998","depth":"13.7","md":"-.-","ml":"1.6","mw":"-.-","location":"MAHMUTLAR-DEMIRCI (MANISA)"},{"date":"2020.10.21","time":"21:32:24","latitude":"39.4557","longitude":"43.0747","depth":"5.4","md":"-.-","ml":"1.5","mw":"-.-","location":"KARADOGU-HAMUR (AGRI)"},{"date":"2020.10.21","time":"21:01:55","latitude":"40.7308","longitude":"25.2820","depth":"8.2","md":"-.-","ml":"2.6","mw":"-.-","location":"EGE DENIZI"},{"date":"2020.10.21","time":"20:53:54","latitude":"36.9202","longitude":"27.5102","depth":"8.5","md":"-.-","ml":"1.8","mw":"-.-","location":"GOKOVA KORFEZI (AKDENIZ)"},{"date":"2020.10.21","time":"17:32:43","latitude":"37.1968","longitude":"27.9288","depth":"8.5","md":"-.-","ml":"2.4","mw":"-.-","location":"KAYADERE-MILAS (MUGLA)"},{"date":"2020.10.21","time":"17:14:36","latitude":"37.9177","longitude":"29.2237","depth":"7.8","md":"-.-","ml":"1.6","mw":"-.-","location":"IRLIGANLI-(DENIZLI)"},{"date":"2020.10.21","time":"17:11:38","latitude":"36.9357","longitude":"27.5937","depth":"5.0","md":"-.-","ml":"2.0","mw":"-.-","location":"GOKOVA KORFEZI (AKDENIZ)"},{"date":"2020.10.21","time":"16:54:44","latitude":"38.4908","longitude":"30.7512","depth":"5.0","md":"-.-","ml":"1.3","mw":"-.-","location":"BOZAN-SUHUT (AFYONKARAHISAR)"},{"date":"2020.10.21","time":"16:19:20","latitude":"38.7482","longitude":"27.7328","depth":"14.1","md":"-.-","ml":"1.8","mw":"-.-","location":"LUTFIYE-SARUHANLI (MANISA)"},{"date":"2020.10.21","time":"16:12:43","latitude":"39.3922","longitude":"32.6992","depth":"4.7","md":"-.-","ml":"1.7","mw":"-.-","location":"CALIS-HAYMANA (ANKARA)"},{"date":"2020.10.21","time":"15:15:16","latitude":"37.0250","longitude":"29.3368","depth":"3.2","md":"-.-","ml":"1.4","mw":"-.-","location":"BICAKCI-CAMELI (DENIZLI)"},{"date":"2020.10.21","time":"15:13:47","latitude":"39.1643","longitude":"28.5035","depth":"8.1","md":"-.-","ml":"1.4","mw":"-.-","location":"BULAK-SINDIRGI (BALIKESIR)"},{"date":"2020.10.21","time":"15:04:41","latitude":"40.0873","longitude":"24.4773","depth":"9.8","md":"-.-","ml":"2.7","mw":"-.-","location":"YUNANISTAN"},{"date":"2020.10.21","time":"13:28:48","latitude":"38.1962","longitude":"38.7207","depth":"19.3","md":"-.-","ml":"1.5","mw":"-.-","location":"ALIHAN-PUTURGE (MALATYA)"},{"date":"2020.10.21","time":"13:17:55","latitude":"38.1812","longitude":"38.7195","depth":"15.7","md":"-.-","ml":"1.2","mw":"-.-","location":"KORME-PUTURGE (MALATYA)"},{"date":"2020.10.21","time":"13:00:10","latitude":"39.5483","longitude":"26.0893","depth":"4.6","md":"-.-","ml":"1.8","mw":"-.-","location":"GULPINAR-AYVACIK (CANAKKALE)"},{"date":"2020.10.21","time":"12:52:03","latitude":"36.6430","longitude":"28.2992","depth":"60.6","md":"-.-","ml":"2.8","mw":"-.-","location":"AKDENIZ"},{"date":"2020.10.21","time":"12:00:10","latitude":"37.2420","longitude":"28.2442","depth":"0.0","md":"-.-","ml":"1.3","mw":"-.-","location":"SALIHPASALAR-(MUGLA)"},{"date":"2020.10.21","time":"11:51:27","latitude":"37.2268","longitude":"28.2317","depth":"0.0","md":"-.-","ml":"1.6","mw":"-.-","location":"KAFACA-(MUGLA)"},{"date":"2020.10.21","time":"11:49:34","latitude":"36.2782","longitude":"33.6862","depth":"0.0","md":"-.-","ml":"1.4","mw":"-.-","location":"ISIKLI-SILIFKE (MERSIN)"},{"date":"2020.10.21","time":"11:31:27","latitude":"38.8077","longitude":"43.1133","depth":"5.0","md":"-.-","ml":"3.5","mw":"3.7","location":"KAVUSTUK-ADILCEVAZ (BITLIS)"},{"date":"2020.10.21","time":"11:26:25","latitude":"39.4605","longitude":"40.6038","depth":"70.9","md":"-.-","ml":"1.8","mw":"-.-","location":"KARACA-CAT (ERZURUM)"},{"date":"2020.10.21","time":"11:03:48","latitude":"39.3740","longitude":"28.4372","depth":"12.2","md":"-.-","ml":"1.9","mw":"-.-","location":"OKCULARYERI-BIGADIC (BALIKESIR)"},{"date":"2020.10.21","time":"11:03:14","latitude":"41.5262","longitude":"44.2437","depth":"38.7","md":"-.-","ml":"2.9","mw":"2.7","location":"GURCISTAN"},{"date":"2020.10.21","time":"09:48:43","latitude":"34.1862","longitude":"25.3110","depth":"12.2","md":"-.-","ml":"4.0","mw":"3.9","location":"GIRIT ADASI ACIKLARI (AKDENIZ)"},{"date":"2020.10.21","time":"08:54:38","latitude":"36.8392","longitude":"27.6618","depth":"21.8","md":"-.-","ml":"1.0","mw":"-.-","location":"GOKOVA KORFEZI (AKDENIZ)"},{"date":"2020.10.21","time":"07:52:39","latitude":"35.4483","longitude":"27.4960","depth":"5.0","md":"-.-","ml":"2.0","mw":"-.-","location":"AKDENIZ"},{"date":"2020.10.21","time":"07:43:29","latitude":"38.4678","longitude":"39.1967","depth":"5.5","md":"-.-","ml":"2.0","mw":"-.-","location":"DEDEYOLU-SIVRICE (ELAZIG)"},{"date":"2020.10.21","time":"07:26:32","latitude":"34.2797","longitude":"25.3450","depth":"12.7","md":"-.-","ml":"3.2","mw":"-.-","location":"GIRIT ADASI ACIKLARI (AKDENIZ)"},{"date":"2020.10.21","time":"07:10:49","latitude":"36.9377","longitude":"29.2305","depth":"1.2","md":"-.-","ml":"1.8","mw":"-.-","location":"ELMALI-CAMELI (DENIZLI)"},{"date":"2020.10.21","time":"07:03:03","latitude":"34.7752","longitude":"23.2722","depth":"85.9","md":"-.-","ml":"3.2","mw":"-.-","location":"GIRIT ADASI (AKDENIZ)"},{"date":"2020.10.21","time":"06:56:53","latitude":"40.6362","longitude":"28.9390","depth":"12.4","md":"-.-","ml":"1.4","mw":"-.-","location":"ESENKOY-CINARCIK (YALOVA)"},{"date":"2020.10.21","time":"06:55:19","latitude":"40.5828","longitude":"28.9882","depth":"5.9","md":"-.-","ml":"1.8","mw":"-.-","location":"ESENKOY-CINARCIK (YALOVA)"},{"date":"2020.10.21","time":"06:48:48","latitude":"36.4725","longitude":"28.7132","depth":"7.7","md":"-.-","ml":"1.6","mw":"-.-","location":"AKDENIZ"},{"date":"2020.10.21","time":"06:40:58","latitude":"35.8603","longitude":"28.1463","depth":"5.0","md":"-.-","ml":"1.6","mw":"-.-","location":"AKDENIZ"},{"date":"2020.10.21","time":"06:30:07","latitude":"35.8555","longitude":"28.1432","depth":"7.6","md":"-.-","ml":"1.9","mw":"-.-","location":"AKDENIZ"},{"date":"2020.10.21","time":"06:27:26","latitude":"40.6228","longitude":"28.9332","depth":"13.5","md":"-.-","ml":"1.7","mw":"-.-","location":"ESENKOY-CINARCIK (YALOVA)"},{"date":"2020.10.21","time":"06:04:50","latitude":"34.4195","longitude":"25.2720","depth":"83.0","md":"-.-","ml":"3.7","mw":"-.-","location":"GIRIT ADASI ACIKLARI (AKDENIZ)"},{"date":"2020.10.21","time":"05:55:25","latitude":"40.6063","longitude":"28.9812","depth":"6.3","md":"-.-","ml":"1.9","mw":"-.-","location":"ESENKOY-CINARCIK (YALOVA)"},{"date":"2020.10.21","time":"05:45:33","latitude":"36.4220","longitude":"27.2668","depth":"5.5","md":"-.-","ml":"1.8","mw":"-.-","location":"KOS ADASI (AKDENIZ)"},{"date":"2020.10.21","time":"05:05:52","latitude":"39.8123","longitude":"41.5998","depth":"5.5","md":"-.-","ml":"2.2","mw":"-.-","location":"YUKARIHANBEYI-TEKMAN (ERZURUM)"},{"date":"2020.10.21","time":"02:29:40","latitude":"37.7857","longitude":"27.2863","depth":"5.9","md":"-.-","ml":"2.1","mw":"-.-","location":"SOGUCAK-KUSADASI (AYDIN)"},{"date":"2020.10.21","time":"02:22:37","latitude":"35.1613","longitude":"29.1572","depth":"21.5","md":"-.-","ml":"1.7","mw":"-.-","location":"AKDENIZ"},{"date":"2020.10.21","time":"02:22:06","latitude":"38.7388","longitude":"26.8853","depth":"4.8","md":"-.-","ml":"1.3","mw":"-.-","location":"CAKMAKLI-ALIAGA (IZMIR)"},{"date":"2020.10.21","time":"02:07:13","latitude":"37.2322","longitude":"36.0382","depth":"13.4","md":"-.-","ml":"1.8","mw":"-.-","location":"TATARLI-KADIRLI (OSMANIYE)"},{"date":"2020.10.21","time":"01:26:24","latitude":"40.8015","longitude":"27.4903","depth":"14.2","md":"-.-","ml":"2.4","mw":"-.-","location":"YENIKOY ACIKLARI-TEKIRDAG (MARMARA DENIZI)"},{"date":"2020.10.21","time":"01:00:36","latitude":"34.2177","longitude":"25.3620","depth":"19.3","md":"-.-","ml":"3.7","mw":"-.-","location":"GIRIT ADASI ACIKLARI (AKDENIZ)"},{"date":"2020.10.21","time":"00:25:00","latitude":"36.9538","longitude":"28.1197","depth":"6.3","md":"-.-","ml":"1.6","mw":"-.-","location":"GOKOVA KORFEZI (AKDENIZ)"},{"date":"2020.10.20","time":"23:52:53","latitude":"37.6988","longitude":"26.9468","depth":"10.4","md":"-.-","ml":"1.7","mw":"-.-","location":"SISAM ADASI (EGE DENIZI)"},{"date":"2020.10.20","time":"23:51:04","latitude":"39.0427","longitude":"29.7153","depth":"11.8","md":"-.-","ml":"1.6","mw":"-.-","location":"TOKUL-ASLANAPA (KUTAHYA)"},{"date":"2020.10.20","time":"23:17:03","latitude":"40.6162","longitude":"28.9773","depth":"7.2","md":"-.-","ml":"1.8","mw":"-.-","location":"ESENKOY-CINARCIK (YALOVA)"},{"date":"2020.10.20","time":"23:01:23","latitude":"36.4080","longitude":"27.1435","depth":"1.1","md":"-.-","ml":"2.0","mw":"-.-","location":"ONIKI ADALAR (AKDENIZ)"},{"date":"2020.10.20","time":"22:31:08","latitude":"36.9432","longitude":"28.1532","depth":"12.4","md":"-.-","ml":"1.7","mw":"-.-","location":"KARACA-MARMARIS (MUGLA)"},{"date":"2020.10.20","time":"22:26:05","latitude":"35.6925","longitude":"29.2470","depth":"19.0","md":"-.-","ml":"1.3","mw":"-.-","location":"AKDENIZ"},{"date":"2020.10.20","time":"20:24:29","latitude":"36.6735","longitude":"27.2100","depth":"5.3","md":"-.-","ml":"1.6","mw":"-.-","location":"ONIKI ADALAR (AKDENIZ)"},{"date":"2020.10.20","time":"20:08:42","latitude":"38.3610","longitude":"39.0672","depth":"4.8","md":"-.-","ml":"1.6","mw":"-.-","location":"CEVRIMTAS-SIVRICE (ELAZIG)"},{"date":"2020.10.20","time":"19:48:45","latitude":"39.4555","longitude":"33.0565","depth":"6.2","md":"-.-","ml":"1.5","mw":"-.-","location":"AFSAR-BALA (ANKARA)"},{"date":"2020.10.20","time":"16:33:35","latitude":"38.6508","longitude":"27.7557","depth":"5.4","md":"-.-","ml":"1.3","mw":"-.-","location":"HEYBELI-SARUHANLI (MANISA)"},{"date":"2020.10.20","time":"16:12:20","latitude":"37.7245","longitude":"32.5320","depth":"22.1","md":"-.-","ml":"1.4","mw":"-.-","location":"BAYAT-MERAM (KONYA)"},{"date":"2020.10.20","time":"16:06:02","latitude":"39.9017","longitude":"39.8955","depth":"18.9","md":"-.-","ml":"2.4","mw":"-.-","location":"ESMEPINAR-CAYIRLI (ERZINCAN)"},{"date":"2020.10.20","time":"15:22:06","latitude":"39.5997","longitude":"28.8888","depth":"8.9","md":"-.-","ml":"2.0","mw":"-.-","location":"TEZLIK-DURSUNBEY (BALIKESIR)"},{"date":"2020.10.20","time":"15:01:09","latitude":"39.4558","longitude":"28.0028","depth":"11.9","md":"-.-","ml":"2.0","mw":"-.-","location":"AKYAR-BIGADIC (BALIKESIR)"},{"date":"2020.10.20","time":"14:33:29","latitude":"37.0447","longitude":"27.3762","depth":"14.0","md":"-.-","ml":"1.6","mw":"-.-","location":"BITEZ-BODRUM (MUGLA)"},{"date":"2020.10.20","time":"14:28:59","latitude":"40.4425","longitude":"29.2055","depth":"0.0","md":"-.-","ml":"1.2","mw":"-.-","location":"CIHATLI-GEMLIK (BURSA)"},{"date":"2020.10.20","time":"14:14:22","latitude":"40.3085","longitude":"29.4095","depth":"5.0","md":"-.-","ml":"1.0","mw":"-.-","location":"BURCUN-YENISEHIR (BURSA)"},{"date":"2020.10.20","time":"13:42:30","latitude":"39.2283","longitude":"42.1150","depth":"7.9","md":"-.-","ml":"2.3","mw":"-.-","location":"KURGANLI-BULANIK (MUS)"},{"date":"2020.10.20","time":"13:15:41","latitude":"38.7427","longitude":"37.9907","depth":"5.0","md":"-.-","ml":"1.1","mw":"-.-","location":"IPEKYOLU-HEKIMHAN (MALATYA)"},{"date":"2020.10.20","time":"13:03:58","latitude":"38.0332","longitude":"33.2357","depth":"5.5","md":"-.-","ml":"1.6","mw":"-.-","location":"BUYUKBURNAK-KARATAY (KONYA)"},{"date":"2020.10.20","time":"12:59:34","latitude":"40.2223","longitude":"30.8290","depth":"9.4","md":"-.-","ml":"1.8","mw":"-.-","location":"AHMETBEYLER-GOYNUK (BOLU)"},{"date":"2020.10.20","time":"12:57:06","latitude":"40.2100","longitude":"30.8148","depth":"8.4","md":"-.-","ml":"1.9","mw":"-.-","location":"AHMETBEYLER-GOYNUK (BOLU)"},{"date":"2020.10.20","time":"12:35:53","latitude":"37.2540","longitude":"28.1910","depth":"0.0","md":"-.-","ml":"1.9","mw":"-.-","location":"PASAPINARI-(MUGLA)"},{"date":"2020.10.20","time":"11:50:52","latitude":"38.6282","longitude":"27.2795","depth":"8.1","md":"-.-","ml":"1.9","mw":"-.-","location":"AKGEDIK-(MANISA)"},{"date":"2020.10.20","time":"11:35:42","latitude":"38.4385","longitude":"26.9627","depth":"10.1","md":"-.-","ml":"1.3","mw":"-.-","location":"IZMIR KORFEZI (EGE DENIZI)"},{"date":"2020.10.20","time":"11:09:12","latitude":"38.4682","longitude":"39.2207","depth":"6.5","md":"-.-","ml":"3.0","mw":"2.8","location":"ALINCIK-SIVRICE (ELAZIG)"},{"date":"2020.10.20","time":"11:06:49","latitude":"35.2172","longitude":"33.7083","depth":"5.0","md":"-.-","ml":"2.1","mw":"-.-","location":"KIBRIS-TUZLA"},{"date":"2020.10.20","time":"10:43:42","latitude":"39.3145","longitude":"37.2148","depth":"11.5","md":"-.-","ml":"1.2","mw":"-.-","location":"DELIKTAS-KANGAL (SIVAS)"},{"date":"2020.10.20","time":"10:08:30","latitude":"38.4727","longitude":"39.3128","depth":"5.8","md":"-.-","ml":"2.3","mw":"-.-","location":"SIVRICE (ELAZIG)"},{"date":"2020.10.20","time":"09:45:09","latitude":"39.8842","longitude":"28.8288","depth":"0.0","md":"-.-","ml":"1.9","mw":"-.-","location":"YENIDANISMENT-ORHANELI (BURSA)"},{"date":"2020.10.20","time":"09:44:37","latitude":"39.9347","longitude":"41.7647","depth":"31.0","md":"-.-","ml":"2.2","mw":"-.-","location":"SUNAK-PASINLER (ERZURUM)"},{"date":"2020.10.20","time":"09:20:01","latitude":"36.1917","longitude":"28.9530","depth":"15.2","md":"-.-","ml":"1.8","mw":"-.-","location":"AKDENIZ"},{"date":"2020.10.20","time":"07:54:13","latitude":"38.9422","longitude":"43.2565","depth":"5.0","md":"-.-","ml":"1.3","mw":"-.-","location":"CELEBIBAGI-ERCIS (VAN)"},{"date":"2020.10.20","time":"07:15:47","latitude":"36.2123","longitude":"29.4127","depth":"3.7","md":"-.-","ml":"1.1","mw":"-.-","location":"KALKAN-KAS (ANTALYA)"},{"date":"2020.10.20","time":"07:05:10","latitude":"36.9737","longitude":"28.3072","depth":"9.4","md":"-.-","ml":"1.2","mw":"-.-","location":"CETIBELI-MARMARIS (MUGLA)"},{"date":"2020.10.20","time":"06:49:50","latitude":"38.1660","longitude":"38.7287","depth":"4.4","md":"-.-","ml":"1.9","mw":"-.-","location":"YAZICA-PUTURGE (MALATYA)"},{"date":"2020.10.20","time":"06:31:15","latitude":"40.6283","longitude":"29.0918","depth":"9.2","md":"-.-","ml":"1.2","mw":"-.-","location":"TESVIKIYE-CINARCIK (YALOVA)"},{"date":"2020.10.20","time":"06:13:24","latitude":"36.9522","longitude":"27.4883","depth":"18.4","md":"-.-","ml":"0.9","mw":"-.-","location":"GOKOVA KORFEZI (AKDENIZ)"},{"date":"2020.10.20","time":"06:08:06","latitude":"39.4370","longitude":"28.3945","depth":"4.9","md":"-.-","ml":"2.1","mw":"-.-","location":"KALAFAT-BIGADIC (BALIKESIR)"},{"date":"2020.10.20","time":"05:19:56","latitude":"36.9618","longitude":"35.9173","depth":"8.1","md":"-.-","ml":"1.3","mw":"-.-","location":"SAGIRLAR-CEYHAN (ADANA)"},{"date":"2020.10.20","time":"04:47:13","latitude":"38.4278","longitude":"39.2377","depth":"8.7","md":"-.-","ml":"1.5","mw":"-.-","location":"KURKKOY-SIVRICE (ELAZIG)"},{"date":"2020.10.20","time":"04:35:07","latitude":"38.3430","longitude":"39.3228","depth":"5.9","md":"-.-","ml":"1.6","mw":"-.-","location":"ALBAYRAK-CUNGUS (DIYARBAKIR)"},{"date":"2020.10.20","time":"04:15:41","latitude":"39.0343","longitude":"40.0103","depth":"6.6","md":"-.-","ml":"1.8","mw":"-.-","location":"YALINTAS-KARAKOCAN (ELAZIG)"},{"date":"2020.10.20","time":"03:38:42","latitude":"39.8303","longitude":"42.5283","depth":"11.2","md":"-.-","ml":"1.3","mw":"-.-","location":"CATALPINAR-ELESKIRT (AGRI)"},{"date":"2020.10.20","time":"03:20:34","latitude":"40.2258","longitude":"28.8788","depth":"19.5","md":"-.-","ml":"1.3","mw":"-.-","location":"YOLCATI-NILUFER (BURSA)"},{"date":"2020.10.20","time":"03:15:45","latitude":"41.3633","longitude":"39.9882","depth":"7.4","md":"-.-","ml":"2.0","mw":"-.-","location":"TRABZON ACIKLARI (KARADENIZ)"},{"date":"2020.10.20","time":"03:05:01","latitude":"40.2182","longitude":"29.0395","depth":"3.4","md":"-.-","ml":"1.4","mw":"-.-","location":"OSMANGAZI (BURSA)"},{"date":"2020.10.20","time":"02:42:15","latitude":"36.9770","longitude":"26.5948","depth":"7.0","md":"-.-","ml":"1.7","mw":"-.-","location":"ONIKI ADALAR (AKDENIZ)"},{"date":"2020.10.20","time":"02:34:59","latitude":"40.0700","longitude":"40.6355","depth":"9.0","md":"-.-","ml":"1.9","mw":"-.-","location":"CAVDARLI-AZIZIYE (ERZURUM)"},{"date":"2020.10.20","time":"02:14:08","latitude":"35.9820","longitude":"25.1908","depth":"72.1","md":"-.-","ml":"3.3","mw":"-.-","location":"GIRIT ADASI (AKDENIZ)"},{"date":"2020.10.20","time":"02:11:06","latitude":"35.8505","longitude":"25.2230","depth":"79.6","md":"-.-","ml":"2.9","mw":"-.-","location":"GIRIT ADASI (AKDENIZ)"},{"date":"2020.10.20","time":"02:02:24","latitude":"40.3133","longitude":"26.2193","depth":"18.4","md":"-.-","ml":"1.1","mw":"-.-","location":"SAROS KORFEZI (EGE DENIZI)"},{"date":"2020.10.20","time":"01:42:17","latitude":"36.8740","longitude":"27.6050","depth":"6.4","md":"-.-","ml":"1.5","mw":"-.-","location":"GOKOVA KORFEZI (AKDENIZ)"},{"date":"2020.10.20","time":"01:17:25","latitude":"38.1893","longitude":"38.6697","depth":"2.8","md":"-.-","ml":"2.4","mw":"-.-","location":"ARITOPRAK-PUTURGE (MALATYA)"},{"date":"2020.10.20","time":"01:12:47","latitude":"35.9355","longitude":"31.1157","depth":"9.0","md":"-.-","ml":"3.6","mw":"3.4","location":"AKDENIZ"},{"date":"2020.10.20","time":"01:05:31","latitude":"37.8913","longitude":"26.9388","depth":"2.6","md":"-.-","ml":"1.5","mw":"-.-","location":"KUSADASI KORFEZI (EGE DENIZI)"},{"date":"2020.10.20","time":"00:53:16","latitude":"37.3363","longitude":"26.4283","depth":"14.1","md":"-.-","ml":"2.1","mw":"-.-","location":"ONIKI ADALAR (AKDENIZ)"},{"date":"2020.10.20","time":"00:37:50","latitude":"39.6008","longitude":"26.0812","depth":"2.3","md":"-.-","ml":"1.6","mw":"-.-","location":"TUZLA-AYVACIK (CANAKKALE)"},{"date":"2020.10.20","time":"00:03:41","latitude":"40.7763","longitude":"31.7240","depth":"5.0","md":"-.-","ml":"2.7","mw":"-.-","location":"TATLAR-(BOLU)"},{"date":"2020.10.19","time":"22:08:30","latitude":"38.1587","longitude":"38.7605","depth":"7.5","md":"-.-","ml":"1.5","mw":"-.-","location":"YAZICA-PUTURGE (MALATYA)"},{"date":"2020.10.19","time":"22:06:29","latitude":"34.5140","longitude":"24.2537","depth":"23.6","md":"-.-","ml":"3.0","mw":"3.0","location":"GIRIT ADASI ACIKLARI (AKDENIZ)"},{"date":"2020.10.19","time":"21:46:27","latitude":"37.6607","longitude":"35.9807","depth":"1.6","md":"-.-","ml":"1.2","mw":"-.-","location":"CAMLARCA-KOZAN (ADANA)"},{"date":"2020.10.19","time":"20:58:14","latitude":"39.0973","longitude":"27.7985","depth":"3.6","md":"-.-","ml":"2.2","mw":"-.-","location":"ILYASLAR-KIRKAGAC (MANISA)"},{"date":"2020.10.19","time":"20:36:39","latitude":"37.9085","longitude":"27.5520","depth":"9.4","md":"-.-","ml":"1.8","mw":"-.-","location":"ABDURRAHMANLAR-GERMENCIK (AYDIN)"},{"date":"2020.10.19","time":"20:10:23","latitude":"38.2623","longitude":"38.7535","depth":"18.0","md":"-.-","ml":"1.3","mw":"-.-","location":"BALPINARI-PUTURGE (MALATYA)"},{"date":"2020.10.19","time":"20:05:43","latitude":"39.3400","longitude":"40.0937","depth":"5.0","md":"-.-","ml":"3.0","mw":"-.-","location":"ALTINHUSEYIN-PULUMUR (TUNCELI)"},{"date":"2020.10.19","time":"19:38:08","latitude":"37.8867","longitude":"37.4248","depth":"8.6","md":"-.-","ml":"1.7","mw":"-.-","location":"BICIN-NURHAK (KAHRAMANMARAS)"},{"date":"2020.10.19","time":"18:17:28","latitude":"38.9960","longitude":"32.8163","depth":"10.7","md":"-.-","ml":"1.5","mw":"-.-","location":"BULDUK-CIHANBEYLI (KONYA)"},{"date":"2020.10.19","time":"18:04:20","latitude":"37.9820","longitude":"34.0877","depth":"13.3","md":"-.-","ml":"1.6","mw":"-.-","location":"OBRUK-BOR (NIGDE)"},{"date":"2020.10.19","time":"17:16:28","latitude":"39.8927","longitude":"33.0642","depth":"0.0","md":"-.-","ml":"1.4","mw":"-.-","location":"MAMAK (ANKARA)"},{"date":"2020.10.19","time":"17:07:14","latitude":"37.7273","longitude":"29.1530","depth":"11.4","md":"-.-","ml":"1.8","mw":"-.-","location":"KARATAS-(DENIZLI)"},{"date":"2020.10.19","time":"16:22:29","latitude":"39.8540","longitude":"42.5738","depth":"1.6","md":"-.-","ml":"3.0","mw":"2.9","location":"KAYAYOLU-ELESKIRT (AGRI)"},{"date":"2020.10.19","time":"15:23:27","latitude":"40.6365","longitude":"29.1033","depth":"10.4","md":"-.-","ml":"1.9","mw":"-.-","location":"CINARCIK (YALOVA)"},{"date":"2020.10.19","time":"15:17:11","latitude":"40.0022","longitude":"35.1915","depth":"2.8","md":"-.-","ml":"1.6","mw":"-.-","location":"TULUM-SORGUN (YOZGAT)"},{"date":"2020.10.19","time":"15:06:16","latitude":"34.4433","longitude":"26.6013","depth":"8.7","md":"-.-","ml":"3.2","mw":"3.4","location":"GIRIT ADASI ACIKLARI (AKDENIZ)"},{"date":"2020.10.19","time":"15:01:50","latitude":"38.4652","longitude":"25.8188","depth":"15.1","md":"-.-","ml":"2.4","mw":"-.-","location":"SAKIZ ADASI (EGE DENIZI)"},{"date":"2020.10.19","time":"14:51:25","latitude":"39.0317","longitude":"42.5178","depth":"5.8","md":"-.-","ml":"1.8","mw":"-.-","location":"ODAKOY-MALAZGIRT (MUS)"},{"date":"2020.10.19","time":"14:10:24","latitude":"35.8577","longitude":"28.2737","depth":"4.1","md":"-.-","ml":"1.8","mw":"-.-","location":"AKDENIZ"},{"date":"2020.10.19","time":"12:51:00","latitude":"38.9865","longitude":"44.3155","depth":"20.0","md":"-.-","ml":"2.1","mw":"-.-","location":"BAYDOGAN-CALDIRAN (VAN)"},{"date":"2020.10.19","time":"12:43:41","latitude":"36.1353","longitude":"28.3582","depth":"62.6","md":"-.-","ml":"2.2","mw":"-.-","location":"AKDENIZ"},{"date":"2020.10.19","time":"12:07:46","latitude":"37.7613","longitude":"26.9468","depth":"18.8","md":"-.-","ml":"1.9","mw":"-.-","location":"SISAM ADASI (EGE DENIZI)"},{"date":"2020.10.19","time":"12:00:44","latitude":"40.6778","longitude":"27.3852","depth":"6.9","md":"-.-","ml":"2.2","mw":"-.-","location":"GUZELKOY ACIKLARI-TEKIRDAG (MARMARA DENIZI)"},{"date":"2020.10.19","time":"12:00:17","latitude":"40.7293","longitude":"27.4350","depth":"12.6","md":"-.-","ml":"2.4","mw":"-.-","location":"GUZELKOY ACIKLARI-TEKIRDAG (MARMARA DENIZI)"},{"date":"2020.10.19","time":"11:53:45","latitude":"40.6772","longitude":"27.4145","depth":"7.9","md":"-.-","ml":"1.8","mw":"-.-","location":"GUZELKOY ACIKLARI-TEKIRDAG (MARMARA DENIZI)"},{"date":"2020.10.19","time":"11:50:50","latitude":"37.1755","longitude":"37.1560","depth":"0.0","md":"-.-","ml":"1.1","mw":"-.-","location":"CERITYENIYAPAN-SEHITKAMIL (GAZIANTEP)"},{"date":"2020.10.19","time":"11:32:19","latitude":"38.1998","longitude":"38.8218","depth":"10.3","md":"-.-","ml":"1.5","mw":"-.-","location":"TASMIS-PUTURGE (MALATYA)"},{"date":"2020.10.19","time":"10:47:05","latitude":"37.9872","longitude":"34.0350","depth":"5.0","md":"-.-","ml":"2.0","mw":"-.-","location":"OBRUK-BOR (NIGDE)"},{"date":"2020.10.19","time":"10:31:06","latitude":"35.6932","longitude":"26.2770","depth":"18.7","md":"-.-","ml":"3.1","mw":"3.3","location":"AKDENIZ"},{"date":"2020.10.19","time":"09:51:26","latitude":"38.9373","longitude":"44.2732","depth":"5.0","md":"-.-","ml":"2.6","mw":"-.-","location":"ASAGIKOCKIRAN-OZALP (VAN)"},{"date":"2020.10.19","time":"08:53:31","latitude":"37.0318","longitude":"28.5428","depth":"24.4","md":"-.-","ml":"1.3","mw":"-.-","location":"KARABOGURTLEN-ULA (MUGLA)"},{"date":"2020.10.19","time":"08:52:06","latitude":"36.9680","longitude":"28.5178","depth":"4.7","md":"-.-","ml":"1.5","mw":"-.-","location":"CORUS-ULA (MUGLA)"},{"date":"2020.10.19","time":"08:46:13","latitude":"37.0872","longitude":"35.7833","depth":"22.5","md":"-.-","ml":"1.6","mw":"-.-","location":"MERCIMEK-CEYHAN (ADANA)"},{"date":"2020.10.19","time":"07:50:59","latitude":"40.7480","longitude":"32.8538","depth":"7.0","md":"-.-","ml":"1.8","mw":"-.-","location":"DAGCUKUROREN-CERKES (CANKIRI)"},{"date":"2020.10.19","time":"07:42:32","latitude":"38.2120","longitude":"38.8563","depth":"18.6","md":"-.-","ml":"2.0","mw":"-.-","location":"PUTURGE (MALATYA)"},{"date":"2020.10.19","time":"07:26:31","latitude":"36.6547","longitude":"26.4447","depth":"152.7","md":"-.-","ml":"2.3","mw":"-.-","location":"AKDENIZ"},{"date":"2020.10.19","time":"06:47:45","latitude":"36.8075","longitude":"29.2910","depth":"8.1","md":"-.-","ml":"1.2","mw":"-.-","location":"SOGUTLUDERE-FETHIYE (MUGLA)"},{"date":"2020.10.19","time":"05:04:23","latitude":"39.0498","longitude":"27.8038","depth":"5.0","md":"-.-","ml":"2.1","mw":"-.-","location":"TUTENLI-AKHISAR (MANISA)"},{"date":"2020.10.19","time":"05:03:01","latitude":"38.9903","longitude":"44.2983","depth":"9.1","md":"-.-","ml":"2.8","mw":"-.-","location":"BAYDOGAN-CALDIRAN (VAN)"},{"date":"2020.10.19","time":"04:51:18","latitude":"39.3203","longitude":"24.3948","depth":"10.9","md":"-.-","ml":"2.4","mw":"-.-","location":"EGE DENIZI"},{"date":"2020.10.19","time":"04:10:18","latitude":"36.9593","longitude":"28.1403","depth":"5.1","md":"-.-","ml":"0.9","mw":"-.-","location":"GOKOVA KORFEZI (AKDENIZ)"},{"date":"2020.10.19","time":"04:03:51","latitude":"35.9820","longitude":"28.7727","depth":"6.9","md":"-.-","ml":"1.7","mw":"-.-","location":"AKDENIZ"},{"date":"2020.10.19","time":"03:57:32","latitude":"37.8065","longitude":"29.4722","depth":"5.0","md":"-.-","ml":"2.4","mw":"-.-","location":"SAPACA-HONAZ (DENIZLI)"},{"date":"2020.10.19","time":"03:23:05","latitude":"39.3888","longitude":"40.4557","depth":"4.6","md":"-.-","ml":"1.9","mw":"-.-","location":"GUZGULU-YEDISU (BINGOL)"},{"date":"2020.10.19","time":"02:41:12","latitude":"36.6165","longitude":"31.7042","depth":"101.1","md":"-.-","ml":"2.1","mw":"-.-","location":"OKURCALAR-ALANYA (ANTALYA)"},{"date":"2020.10.19","time":"02:15:40","latitude":"38.6505","longitude":"42.0283","depth":"20.6","md":"-.-","ml":"1.6","mw":"-.-","location":"BUDAKLI-GUROYMAK (BITLIS)"},{"date":"2020.10.19","time":"02:02:52","latitude":"39.1683","longitude":"27.7922","depth":"10.2","md":"-.-","ml":"1.5","mw":"-.-","location":"GEBELER-KIRKAGAC (MANISA)"},{"date":"2020.10.19","time":"00:44:08","latitude":"39.8110","longitude":"24.1285","depth":"27.9","md":"-.-","ml":"3.3","mw":"3.3","location":"YUNANISTAN"},{"date":"2020.10.19","time":"00:25:10","latitude":"38.9630","longitude":"44.3333","depth":"8.6","md":"-.-","ml":"2.4","mw":"-.-","location":"ASAGIKOCKIRAN-OZALP (VAN)"},{"date":"2020.10.19","time":"00:23:36","latitude":"39.0058","longitude":"44.3808","depth":"20.3","md":"-.-","ml":"2.1","mw":"-.-","location":"BAYDOGAN-CALDIRAN (VAN)"},{"date":"2020.10.19","time":"00:17:00","latitude":"38.2018","longitude":"26.5653","depth":"7.8","md":"-.-","ml":"1.6","mw":"-.-","location":"ZEYTINELI-URLA (IZMIR)"},{"date":"2020.10.19","time":"00:11:14","latitude":"36.9062","longitude":"27.7207","depth":"8.1","md":"-.-","ml":"1.3","mw":"-.-","location":"GOKOVA KORFEZI (AKDENIZ)"},{"date":"2020.10.18","time":"21:59:27","latitude":"38.3142","longitude":"42.6757","depth":"7.9","md":"-.-","ml":"1.5","mw":"-.-","location":"KAGANLI-TATVAN (BITLIS)"},{"date":"2020.10.18","time":"21:58:55","latitude":"39.0383","longitude":"30.9252","depth":"9.5","md":"-.-","ml":"1.6","mw":"-.-","location":"CUKURKUYU-BAYAT (AFYONKARAHISAR)"},{"date":"2020.10.18","time":"20:47:45","latitude":"39.0437","longitude":"26.0067","depth":"3.0","md":"-.-","ml":"1.6","mw":"-.-","location":"EGE DENIZI"},{"date":"2020.10.18","time":"20:17:22","latitude":"37.0832","longitude":"27.6027","depth":"5.5","md":"-.-","ml":"1.5","mw":"-.-","location":"PINARLIBELEN-BODRUM (MUGLA)"},{"date":"2020.10.18","time":"18:40:15","latitude":"37.9515","longitude":"34.0840","depth":"5.2","md":"-.-","ml":"2.3","mw":"-.-","location":"OBRUK-BOR (NIGDE)"},{"date":"2020.10.18","time":"15:49:40","latitude":"37.0375","longitude":"27.9115","depth":"0.0","md":"-.-","ml":"1.7","mw":"-.-","location":"TURKEVLERI-MILAS (MUGLA)"},{"date":"2020.10.18","time":"15:35:08","latitude":"38.4502","longitude":"39.3342","depth":"3.7","md":"-.-","ml":"1.4","mw":"-.-","location":"SIVRICE (ELAZIG)"},{"date":"2020.10.18","time":"14:19:18","latitude":"36.9532","longitude":"27.3425","depth":"6.5","md":"-.-","ml":"3.7","mw":"3.7","location":"GOKOVA KORFEZI (AKDENIZ)"},{"date":"2020.10.18","time":"12:47:12","latitude":"38.4793","longitude":"39.2962","depth":"2.5","md":"-.-","ml":"2.6","mw":"-.-","location":"BEKCITEPE-SIVRICE (ELAZIG)"},{"date":"2020.10.18","time":"11:47:27","latitude":"39.6107","longitude":"24.3608","depth":"1.4","md":"-.-","ml":"2.3","mw":"-.-","location":"EGE DENIZI"},{"date":"2020.10.18","time":"11:39:50","latitude":"35.3555","longitude":"34.9688","depth":"26.0","md":"-.-","ml":"2.6","mw":"-.-","location":"AKDENIZ"},{"date":"2020.10.18","time":"11:07:14","latitude":"39.1520","longitude":"23.4402","depth":"5.5","md":"-.-","ml":"4.3","mw":"4.3","location":"YUNANISTAN"},{"date":"2020.10.18","time":"10:44:27","latitude":"38.5095","longitude":"25.8010","depth":"5.3","md":"-.-","ml":"2.7","mw":"-.-","location":"SAKIZ ADASI (EGE DENIZI)"},{"date":"2020.10.18","time":"09:27:04","latitude":"38.1055","longitude":"38.6547","depth":"4.8","md":"-.-","ml":"1.9","mw":"-.-","location":"CAMLIDERE-PUTURGE (MALATYA)"},{"date":"2020.10.18","time":"07:46:35","latitude":"37.9887","longitude":"34.0810","depth":"10.1","md":"-.-","ml":"2.2","mw":"-.-","location":"OBRUK-BOR (NIGDE)"},{"date":"2020.10.18","time":"07:30:46","latitude":"35.5880","longitude":"26.2582","depth":"4.4","md":"-.-","ml":"2.5","mw":"-.-","location":"AKDENIZ"},{"date":"2020.10.18","time":"07:10:23","latitude":"38.6587","longitude":"43.0703","depth":"4.3","md":"-.-","ml":"2.8","mw":"-.-","location":"VAN GOLU"},{"date":"2020.10.18","time":"07:04:46","latitude":"35.5735","longitude":"26.3203","depth":"6.5","md":"-.-","ml":"2.7","mw":"-.-","location":"AKDENIZ"},{"date":"2020.10.18","time":"06:56:20","latitude":"34.7457","longitude":"26.7503","depth":"10.8","md":"-.-","ml":"2.4","mw":"-.-","location":"GIRIT ADASI ACIKLARI (AKDENIZ)"},{"date":"2020.10.18","time":"05:16:08","latitude":"40.7805","longitude":"31.7178","depth":"15.1","md":"-.-","ml":"1.6","mw":"-.-","location":"TATLAR-(BOLU)"},{"date":"2020.10.18","time":"04:54:19","latitude":"38.2468","longitude":"38.7128","depth":"1.9","md":"-.-","ml":"1.9","mw":"-.-","location":"CAYKOY-PUTURGE (MALATYA)"},{"date":"2020.10.18","time":"04:41:53","latitude":"34.8330","longitude":"26.5413","depth":"22.6","md":"-.-","ml":"3.3","mw":"3.4","location":"GIRIT ADASI ACIKLARI (AKDENIZ)"},{"date":"2020.10.18","time":"04:40:57","latitude":"40.6323","longitude":"29.0720","depth":"5.4","md":"-.-","ml":"1.7","mw":"-.-","location":"TESVIKIYE-CINARCIK (YALOVA)"},{"date":"2020.10.18","time":"04:13:37","latitude":"38.4560","longitude":"25.8102","depth":"15.4","md":"-.-","ml":"1.8","mw":"-.-","location":"SAKIZ ADASI (EGE DENIZI)"},{"date":"2020.10.18","time":"03:28:22","latitude":"35.7938","longitude":"29.9292","depth":"5.0","md":"-.-","ml":"2.6","mw":"-.-","location":"AKDENIZ"},{"date":"2020.10.18","time":"03:10:57","latitude":"38.2637","longitude":"27.4675","depth":"23.7","md":"-.-","ml":"1.0","mw":"-.-","location":"ORMANKOY-TORBALI (IZMIR)"},{"date":"2020.10.18","time":"03:01:20","latitude":"39.1977","longitude":"40.1288","depth":"5.0","md":"-.-","ml":"1.7","mw":"-.-","location":"BATIAYAZ-YAYLADERE (BINGOL)"},{"date":"2020.10.18","time":"02:54:37","latitude":"37.8163","longitude":"29.0180","depth":"9.3","md":"-.-","ml":"1.2","mw":"-.-","location":"ALTINTEPE-SARAYKOY (DENIZLI)"},{"date":"2020.10.18","time":"01:27:58","latitude":"38.4703","longitude":"39.1540","depth":"23.2","md":"-.-","ml":"1.2","mw":"-.-","location":"KAVALLI-SIVRICE (ELAZIG)"},{"date":"2020.10.18","time":"01:21:34","latitude":"39.2878","longitude":"43.3237","depth":"4.5","md":"-.-","ml":"1.9","mw":"-.-","location":"GERGILI-ERCIS (VAN)"},{"date":"2020.10.18","time":"01:20:52","latitude":"39.3550","longitude":"40.6798","depth":"21.1","md":"-.-","ml":"1.8","mw":"-.-","location":"DINARBEY-YEDISU (BINGOL)"},{"date":"2020.10.18","time":"01:09:32","latitude":"37.8743","longitude":"29.9600","depth":"16.4","md":"-.-","ml":"1.3","mw":"-.-","location":"BASMAKCI (AFYONKARAHISAR)"},{"date":"2020.10.18","time":"00:56:06","latitude":"39.0753","longitude":"27.8503","depth":"4.7","md":"-.-","ml":"1.8","mw":"-.-","location":"SELCIKLI-AKHISAR (MANISA)"},{"date":"2020.10.18","time":"00:51:26","latitude":"39.0657","longitude":"27.8175","depth":"14.9","md":"-.-","ml":"2.0","mw":"-.-","location":"ILYASLAR-KIRKAGAC (MANISA)"},{"date":"2020.10.17","time":"23:31:57","latitude":"39.1437","longitude":"23.3087","depth":"12.7","md":"-.-","ml":"3.8","mw":"3.9","location":"YUNANISTAN"},{"date":"2020.10.17","time":"23:31:35","latitude":"38.6227","longitude":"38.0588","depth":"5.0","md":"-.-","ml":"2.1","mw":"-.-","location":"ALICAN-YAZIHAN (MALATYA)"},{"date":"2020.10.17","time":"23:09:21","latitude":"40.7367","longitude":"32.8062","depth":"6.1","md":"-.-","ml":"2.1","mw":"-.-","location":"AGACA-CERKES (CANKIRI)"},{"date":"2020.10.17","time":"22:20:47","latitude":"40.7390","longitude":"31.6877","depth":"7.4","md":"-.-","ml":"1.3","mw":"-.-","location":"VAKIFGECITVEREN-(BOLU)"},{"date":"2020.10.17","time":"22:16:13","latitude":"39.0562","longitude":"27.8570","depth":"11.5","md":"-.-","ml":"3.0","mw":"2.7","location":"MUSALAR-AKHISAR (MANISA)"},{"date":"2020.10.17","time":"22:04:24","latitude":"37.0328","longitude":"29.1063","depth":"4.6","md":"-.-","ml":"1.2","mw":"-.-","location":"AKPINAR-CAMELI (DENIZLI)"},{"date":"2020.10.17","time":"21:40:49","latitude":"39.1692","longitude":"37.8162","depth":"7.4","md":"-.-","ml":"1.1","mw":"-.-","location":"AKCAKALE-KANGAL (SIVAS)"},{"date":"2020.10.17","time":"21:32:37","latitude":"37.9842","longitude":"27.1578","depth":"11.5","md":"-.-","ml":"1.7","mw":"-.-","location":"KUSADASI KORFEZI (EGE DENIZI)"},{"date":"2020.10.17","time":"21:25:09","latitude":"40.2003","longitude":"25.9672","depth":"9.1","md":"-.-","ml":"2.0","mw":"-.-","location":"GOKCEADA (CANAKKALE)"},{"date":"2020.10.17","time":"21:07:41","latitude":"39.4028","longitude":"27.7857","depth":"6.5","md":"-.-","ml":"1.6","mw":"-.-","location":"KARABEYLER-(BALIKESIR)"},{"date":"2020.10.17","time":"20:01:21","latitude":"36.9145","longitude":"28.9747","depth":"2.8","md":"-.-","ml":"2.0","mw":"-.-","location":"BOZBEL-DALAMAN (MUGLA)"},{"date":"2020.10.17","time":"19:48:46","latitude":"38.4100","longitude":"31.7493","depth":"5.0","md":"-.-","ml":"1.9","mw":"-.-","location":"TURSUNLU-TUZLUKCU (KONYA)"},{"date":"2020.10.17","time":"19:42:37","latitude":"35.6453","longitude":"26.2297","depth":"1.7","md":"-.-","ml":"2.7","mw":"-.-","location":"AKDENIZ"},{"date":"2020.10.17","time":"17:50:49","latitude":"37.7600","longitude":"37.6650","depth":"5.7","md":"-.-","ml":"2.6","mw":"-.-","location":"YARBASI-GOLBASI (ADIYAMAN)"},{"date":"2020.10.17","time":"17:47:15","latitude":"39.9588","longitude":"27.2838","depth":"10.5","md":"-.-","ml":"0.6","mw":"-.-","location":"CAKIROBA-YENICE (CANAKKALE)"},{"date":"2020.10.17","time":"17:37:37","latitude":"36.1543","longitude":"31.4158","depth":"51.3","md":"-.-","ml":"2.3","mw":"-.-","location":"ANTALYA KORFEZI (AKDENIZ)"},{"date":"2020.10.17","time":"16:44:45","latitude":"35.9425","longitude":"29.1193","depth":"13.7","md":"-.-","ml":"1.9","mw":"-.-","location":"AKDENIZ"},{"date":"2020.10.17","time":"16:15:06","latitude":"38.2730","longitude":"27.9782","depth":"14.8","md":"-.-","ml":"1.9","mw":"-.-","location":"MURSALLI-ODEMIS (IZMIR)"},{"date":"2020.10.17","time":"15:41:56","latitude":"38.7002","longitude":"38.0852","depth":"5.4","md":"-.-","ml":"1.9","mw":"-.-","location":"YESILPINAR-HEKIMHAN (MALATYA)"},{"date":"2020.10.17","time":"14:55:14","latitude":"37.7733","longitude":"37.7493","depth":"2.3","md":"-.-","ml":"2.5","mw":"-.-","location":"AKPINAR-BESNI (ADIYAMAN)"},{"date":"2020.10.17","time":"14:02:40","latitude":"36.1390","longitude":"33.5568","depth":"0.0","md":"-.-","ml":"1.3","mw":"-.-","location":"BUYUKECELI-GULNAR (MERSIN)"},{"date":"2020.10.17","time":"13:47:55","latitude":"36.1615","longitude":"33.5495","depth":"0.0","md":"-.-","ml":"1.1","mw":"-.-","location":"BUYUKECELI-GULNAR (MERSIN)"},{"date":"2020.10.17","time":"13:37:18","latitude":"37.3990","longitude":"31.4995","depth":"0.0","md":"-.-","ml":"1.6","mw":"-.-","location":"DEREBUCAK (KONYA)"},{"date":"2020.10.17","time":"13:23:12","latitude":"38.3032","longitude":"38.7925","depth":"2.7","md":"-.-","ml":"2.7","mw":"-.-","location":"BOLUKKAYA-PUTURGE (MALATYA)"},{"date":"2020.10.17","time":"13:18:12","latitude":"36.1528","longitude":"33.5475","depth":"0.0","md":"-.-","ml":"1.1","mw":"-.-","location":"BUYUKECELI-GULNAR (MERSIN)"},{"date":"2020.10.17","time":"12:45:57","latitude":"38.4038","longitude":"39.2848","depth":"12.2","md":"-.-","ml":"1.1","mw":"-.-","location":"YEDIKARDES-SIVRICE (ELAZIG)"},{"date":"2020.10.17","time":"12:00:34","latitude":"38.8682","longitude":"38.1993","depth":"9.0","md":"-.-","ml":"1.6","mw":"-.-","location":"KURUTTAS-ARGUVAN (MALATYA)"},{"date":"2020.10.17","time":"11:49:21","latitude":"37.2220","longitude":"28.2135","depth":"0.0","md":"-.-","ml":"1.5","mw":"-.-","location":"KAFACA-(MUGLA)"},{"date":"2020.10.17","time":"11:01:30","latitude":"36.6823","longitude":"27.9627","depth":"64.8","md":"-.-","ml":"2.5","mw":"-.-","location":"BOZBURUN ACIKLARI-MUGLA (AKDENIZ)"},{"date":"2020.10.17","time":"10:02:40","latitude":"38.9593","longitude":"27.8568","depth":"0.0","md":"-.-","ml":"1.8","mw":"-.-","location":"MEDAR-AKHISAR (MANISA)"},{"date":"2020.10.17","time":"09:48:04","latitude":"36.5245","longitude":"28.7142","depth":"9.9","md":"-.-","ml":"2.3","mw":"-.-","location":"AKDENIZ"},{"date":"2020.10.17","time":"09:41:35","latitude":"36.5438","longitude":"28.7270","depth":"9.2","md":"-.-","ml":"2.4","mw":"-.-","location":"AKDENIZ"},{"date":"2020.10.17","time":"07:33:45","latitude":"40.8815","longitude":"28.7353","depth":"16.4","md":"-.-","ml":"2.1","mw":"-.-","location":"AVCILAR ACIKLARI-ISTANBUL (MARMARA DENIZI)"},{"date":"2020.10.17","time":"07:23:30","latitude":"39.1682","longitude":"28.9957","depth":"6.0","md":"-.-","ml":"1.9","mw":"-.-","location":"KARACAOREN-SIMAV (KUTAHYA)"},{"date":"2020.10.17","time":"05:20:26","latitude":"39.1622","longitude":"29.0852","depth":"7.4","md":"-.-","ml":"1.8","mw":"-.-","location":"SOGUT-SIMAV (KUTAHYA)"},{"date":"2020.10.17","time":"05:04:49","latitude":"35.7350","longitude":"28.2947","depth":"5.0","md":"-.-","ml":"2.2","mw":"-.-","location":"AKDENIZ"},{"date":"2020.10.17","time":"03:40:48","latitude":"39.1702","longitude":"29.0037","depth":"6.0","md":"-.-","ml":"1.8","mw":"-.-","location":"KARACAOREN-SIMAV (KUTAHYA)"},{"date":"2020.10.17","time":"03:11:34","latitude":"38.6675","longitude":"39.8757","depth":"19.6","md":"-.-","ml":"2.1","mw":"-.-","location":"SEYDILI-PALU (ELAZIG)"},{"date":"2020.10.17","time":"02:59:30","latitude":"38.4387","longitude":"39.2738","depth":"12.2","md":"-.-","ml":"1.1","mw":"-.-","location":"DUZBAHCE-SIVRICE (ELAZIG)"},{"date":"2020.10.17","time":"02:16:51","latitude":"39.1377","longitude":"29.0473","depth":"11.6","md":"-.-","ml":"2.4","mw":"-.-","location":"KAPIKAYA-SIMAV (KUTAHYA)"},{"date":"2020.10.17","time":"01:42:03","latitude":"37.8627","longitude":"27.1605","depth":"10.6","md":"-.-","ml":"1.1","mw":"-.-","location":"KUSADASI KORFEZI (EGE DENIZI)"},{"date":"2020.10.17","time":"01:17:24","latitude":"40.8098","longitude":"27.4587","depth":"17.0","md":"-.-","ml":"1.1","mw":"-.-","location":"YENIKOY-(TEKIRDAG)"},{"date":"2020.10.17","time":"01:12:53","latitude":"39.4608","longitude":"33.0290","depth":"5.8","md":"-.-","ml":"1.1","mw":"-.-","location":"AFSAR-BALA (ANKARA)"},{"date":"2020.10.17","time":"00:27:55","latitude":"36.9737","longitude":"28.5262","depth":"31.3","md":"-.-","ml":"1.0","mw":"-.-","location":"CORUS-ULA (MUGLA)"},{"date":"2020.10.17","time":"00:18:19","latitude":"38.3595","longitude":"39.1560","depth":"21.0","md":"-.-","ml":"1.3","mw":"-.-","location":"USLU-SIVRICE (ELAZIG)"},{"date":"2020.10.16","time":"23:43:34","latitude":"38.4253","longitude":"39.0733","depth":"21.9","md":"-.-","ml":"1.6","mw":"-.-","location":"GOZELI-SIVRICE (ELAZIG)"},{"date":"2020.10.16","time":"22:37:34","latitude":"39.3747","longitude":"40.5802","depth":"5.0","md":"-.-","ml":"1.8","mw":"-.-","location":"ELMALI-YEDISU (BINGOL)"},{"date":"2020.10.16","time":"21:45:33","latitude":"39.1222","longitude":"25.7482","depth":"8.7","md":"-.-","ml":"2.4","mw":"-.-","location":"EGE DENIZI"},{"date":"2020.10.16","time":"20:52:49","latitude":"38.2875","longitude":"38.7070","depth":"5.4","md":"-.-","ml":"1.9","mw":"-.-","location":"KAMISTAS-(MALATYA)"},{"date":"2020.10.16","time":"20:30:59","latitude":"36.9852","longitude":"27.3605","depth":"6.9","md":"-.-","ml":"2.0","mw":"-.-","location":"YALI-BODRUM (MUGLA)"},{"date":"2020.10.16","time":"20:08:30","latitude":"40.2652","longitude":"42.1255","depth":"4.9","md":"-.-","ml":"2.4","mw":"-.-","location":"ASAGI CAMLIKALE-HORASAN (ERZURUM)"},{"date":"2020.10.16","time":"20:04:09","latitude":"40.2772","longitude":"42.1137","depth":"7.1","md":"-.-","ml":"2.9","mw":"-.-","location":"ASAGI CAMLIKALE-HORASAN (ERZURUM)"},{"date":"2020.10.16","time":"19:41:42","latitude":"38.7853","longitude":"38.0267","depth":"8.6","md":"-.-","ml":"1.9","mw":"-.-","location":"YAGCA-HEKIMHAN (MALATYA)"},{"date":"2020.10.16","time":"18:53:44","latitude":"40.0408","longitude":"38.1972","depth":"8.7","md":"-.-","ml":"2.3","mw":"-.-","location":"AKSAR-SUSEHRI (SIVAS)"},{"date":"2020.10.16","time":"17:46:48","latitude":"35.6690","longitude":"26.2517","depth":"11.2","md":"-.-","ml":"3.3","mw":"3.1","location":"AKDENIZ"},{"date":"2020.10.16","time":"15:28:24","latitude":"39.6657","longitude":"38.4118","depth":"8.3","md":"-.-","ml":"2.1","mw":"-.-","location":"KUCUKGUMUSLU-ILIC (ERZINCAN)"},{"date":"2020.10.16","time":"15:13:54","latitude":"35.9213","longitude":"29.2450","depth":"9.1","md":"-.-","ml":"1.9","mw":"-.-","location":"AKDENIZ"},{"date":"2020.10.16","time":"14:33:55","latitude":"37.1640","longitude":"34.6697","depth":"5.0","md":"-.-","ml":"1.4","mw":"-.-","location":"BELCINAR-CAMLIYAYLA (MERSIN)"},{"date":"2020.10.16","time":"14:14:42","latitude":"40.1330","longitude":"33.3303","depth":"19.5","md":"-.-","ml":"1.7","mw":"-.-","location":"ESKIKOY-KALECIK (ANKARA)"},{"date":"2020.10.16","time":"13:51:54","latitude":"40.6072","longitude":"28.9783","depth":"11.3","md":"-.-","ml":"1.6","mw":"-.-","location":"ESENKOY-CINARCIK (YALOVA)"},{"date":"2020.10.16","time":"13:51:49","latitude":"37.2360","longitude":"28.2885","depth":"0.0","md":"-.-","ml":"1.2","mw":"-.-","location":"AKCAOVA-(MUGLA)"},{"date":"2020.10.16","time":"13:16:42","latitude":"37.3673","longitude":"39.6618","depth":"6.6","md":"-.-","ml":"2.6","mw":"-.-","location":"YESILDURAK-VIRANSEHIR (SANLIURFA)"},{"date":"2020.10.16","time":"13:11:47","latitude":"37.2648","longitude":"28.2168","depth":"0.0","md":"-.-","ml":"1.6","mw":"-.-","location":"BAYIR-(MUGLA)"},{"date":"2020.10.16","time":"12:32:23","latitude":"39.5308","longitude":"42.2827","depth":"5.6","md":"-.-","ml":"1.8","mw":"-.-","location":"DORUCA-KARAYAZI (ERZURUM)"},{"date":"2020.10.16","time":"12:19:53","latitude":"38.6533","longitude":"26.6522","depth":"4.7","md":"-.-","ml":"1.8","mw":"-.-","location":"IZMIR KORFEZI (EGE DENIZI)"},{"date":"2020.10.16","time":"11:53:38","latitude":"37.6607","longitude":"32.4455","depth":"9.3","md":"-.-","ml":"2.2","mw":"-.-","location":"KAYHUYUK-MERAM (KONYA)"},{"date":"2020.10.16","time":"11:46:05","latitude":"39.0363","longitude":"26.7552","depth":"7.3","md":"-.-","ml":"1.9","mw":"-.-","location":"DIKILI ACIKLARI-IZMIR (EGE DENIZI)"},{"date":"2020.10.16","time":"11:01:29","latitude":"40.7707","longitude":"31.4585","depth":"0.0","md":"-.-","ml":"2.0","mw":"-.-","location":"ELMALIK-(BOLU)"},{"date":"2020.10.16","time":"10:35:42","latitude":"38.6488","longitude":"38.1157","depth":"5.3","md":"-.-","ml":"1.9","mw":"-.-","location":"FETHIYE-YAZIHAN (MALATYA)"},{"date":"2020.10.16","time":"09:41:10","latitude":"38.2172","longitude":"38.8153","depth":"5.4","md":"-.-","ml":"1.9","mw":"-.-","location":"ORMANICI-PUTURGE (MALATYA)"},{"date":"2020.10.16","time":"09:35:26","latitude":"39.8563","longitude":"42.7323","depth":"21.4","md":"-.-","ml":"2.5","mw":"-.-","location":"DALKILIC-ELESKIRT (AGRI)"},{"date":"2020.10.16","time":"09:01:40","latitude":"36.1957","longitude":"33.8437","depth":"15.8","md":"-.-","ml":"1.8","mw":"-.-","location":"SILIFKE ACIKLARI-MERSIN (AKDENIZ)"},{"date":"2020.10.16","time":"08:22:56","latitude":"37.5208","longitude":"29.8063","depth":"26.0","md":"-.-","ml":"1.6","mw":"-.-","location":"BAYIRBASI-YESILOVA (BURDUR)"},{"date":"2020.10.16","time":"08:05:25","latitude":"38.5148","longitude":"44.3187","depth":"39.3","md":"-.-","ml":"2.6","mw":"-.-","location":"KAPIKOY-SARAY (VAN)"},{"date":"2020.10.16","time":"07:33:53","latitude":"40.5932","longitude":"28.9977","depth":"3.9","md":"-.-","ml":"1.8","mw":"-.-","location":"SENKOY-CINARCIK (YALOVA)"},{"date":"2020.10.16","time":"07:31:17","latitude":"39.0965","longitude":"27.7462","depth":"11.9","md":"-.-","ml":"2.2","mw":"-.-","location":"BAKIR-KIRKAGAC (MANISA)"},{"date":"2020.10.16","time":"07:13:23","latitude":"39.3533","longitude":"29.2042","depth":"6.2","md":"-.-","ml":"1.3","mw":"-.-","location":"YAGCIK-EMET (KUTAHYA)"},{"date":"2020.10.16","time":"06:49:10","latitude":"40.0862","longitude":"33.2043","depth":"8.6","md":"-.-","ml":"1.2","mw":"-.-","location":"AHMETADIL-AKYURT (ANKARA)"},{"date":"2020.10.16","time":"05:49:03","latitude":"40.7667","longitude":"27.4607","depth":"12.5","md":"-.-","ml":"1.7","mw":"-.-","location":"GUZELKOY ACIKLARI-TEKIRDAG (MARMARA DENIZI)"},{"date":"2020.10.16","time":"05:43:44","latitude":"35.8533","longitude":"28.2145","depth":"5.0","md":"-.-","ml":"1.5","mw":"-.-","location":"AKDENIZ"},{"date":"2020.10.16","time":"04:38:48","latitude":"38.5020","longitude":"33.9527","depth":"5.1","md":"-.-","ml":"1.5","mw":"-.-","location":"BAGLIKAYA-(AKSARAY)"},{"date":"2020.10.16","time":"04:37:24","latitude":"36.6643","longitude":"31.3705","depth":"14.0","md":"-.-","ml":"1.5","mw":"-.-","location":"MANAVGAT ACIKLARI-ANTALYA (AKDENIZ)"},{"date":"2020.10.16","time":"04:24:27","latitude":"39.1570","longitude":"29.4170","depth":"6.8","md":"-.-","ml":"1.7","mw":"-.-","location":"YESILOVA-GEDIZ (KUTAHYA)"},{"date":"2020.10.16","time":"04:22:43","latitude":"39.1498","longitude":"29.4598","depth":"10.8","md":"-.-","ml":"2.3","mw":"-.-","location":"DOGANCILAR-CAVDARHISAR (KUTAHYA)"},{"date":"2020.10.16","time":"03:53:05","latitude":"39.7652","longitude":"42.5340","depth":"1.2","md":"-.-","ml":"2.1","mw":"-.-","location":"CETINSU-ELESKIRT (AGRI)"},{"date":"2020.10.16","time":"03:28:03","latitude":"37.8820","longitude":"29.1627","depth":"16.6","md":"-.-","ml":"1.4","mw":"-.-","location":"KUCUKDERE-(DENIZLI)"},{"date":"2020.10.16","time":"03:24:47","latitude":"37.8580","longitude":"37.4773","depth":"3.3","md":"-.-","ml":"2.2","mw":"-.-","location":"DUZBAG-CAGLAYANCERIT (KAHRAMANMARAS)"},{"date":"2020.10.16","time":"02:12:51","latitude":"38.8795","longitude":"26.1317","depth":"11.8","md":"-.-","ml":"1.6","mw":"-.-","location":"MIDILLI ADASI (EGE DENIZI)"},{"date":"2020.10.16","time":"01:30:20","latitude":"39.6058","longitude":"35.4518","depth":"6.7","md":"-.-","ml":"2.3","mw":"-.-","location":"KOCCAGIZ-SARIKAYA (YOZGAT)"},{"date":"2020.10.16","time":"01:30:10","latitude":"37.8207","longitude":"32.8378","depth":"28.9","md":"-.-","ml":"1.1","mw":"-.-","location":"BAKIRTOLU-KARATAY (KONYA)"},{"date":"2020.10.16","time":"01:27:51","latitude":"37.7270","longitude":"32.2652","depth":"17.4","md":"-.-","ml":"1.1","mw":"-.-","location":"KAYALI-MERAM (KONYA)"},{"date":"2020.10.16","time":"01:08:58","latitude":"40.2430","longitude":"28.8790","depth":"17.6","md":"-.-","ml":"1.6","mw":"-.-","location":"YOLCATI-NILUFER (BURSA)"},{"date":"2020.10.16","time":"01:04:33","latitude":"40.7008","longitude":"33.0183","depth":"6.6","md":"-.-","ml":"1.5","mw":"-.-","location":"GUZELYURT-CERKES (CANKIRI)"},{"date":"2020.10.16","time":"01:00:49","latitude":"37.0478","longitude":"30.3938","depth":"8.5","md":"-.-","ml":"1.1","mw":"-.-","location":"SOGUTCUK-KORKUTELI (ANTALYA)"},{"date":"2020.10.16","time":"00:17:53","latitude":"38.3663","longitude":"39.0908","depth":"5.6","md":"-.-","ml":"2.0","mw":"-.-","location":"KALABA-SIVRICE (ELAZIG)"},{"date":"2020.10.15","time":"23:55:51","latitude":"35.6853","longitude":"26.2107","depth":"7.6","md":"-.-","ml":"2.4","mw":"-.-","location":"AKDENIZ"},{"date":"2020.10.15","time":"23:15:02","latitude":"40.8780","longitude":"28.7552","depth":"4.5","md":"-.-","ml":"2.2","mw":"-.-","location":"MARMARA DENIZI"},{"date":"2020.10.15","time":"22:35:23","latitude":"38.0575","longitude":"42.8475","depth":"5.0","md":"-.-","ml":"1.9","mw":"-.-","location":"KASIKCILAR-BAHCESARAY (VAN)"},{"date":"2020.10.15","time":"22:27:27","latitude":"35.5600","longitude":"31.6740","depth":"6.4","md":"-.-","ml":"2.2","mw":"-.-","location":"AKDENIZ"},{"date":"2020.10.15","time":"21:20:37","latitude":"40.8337","longitude":"28.7540","depth":"13.7","md":"-.-","ml":"1.4","mw":"-.-","location":"MARMARA DENIZI"},{"date":"2020.10.15","time":"20:43:27","latitude":"35.8158","longitude":"26.8965","depth":"5.0","md":"-.-","ml":"2.0","mw":"-.-","location":"AKDENIZ"},{"date":"2020.10.15","time":"19:37:02","latitude":"35.6725","longitude":"26.2332","depth":"4.2","md":"-.-","ml":"2.6","mw":"-.-","location":"AKDENIZ"},{"date":"2020.10.15","time":"18:02:22","latitude":"40.8737","longitude":"28.7522","depth":"9.6","md":"-.-","ml":"1.9","mw":"-.-","location":"MARMARA DENIZI"},{"date":"2020.10.15","time":"17:47:55","latitude":"41.0958","longitude":"29.0608","depth":"0.0","md":"-.-","ml":"1.1","mw":"-.-","location":"BEYKOZ (ISTANBUL)"},{"date":"2020.10.15","time":"17:12:12","latitude":"37.0542","longitude":"28.0457","depth":"4.5","md":"-.-","ml":"2.3","mw":"-.-","location":"KULTAK-MILAS (MUGLA)"},{"date":"2020.10.15","time":"17:07:26","latitude":"40.8775","longitude":"28.7405","depth":"15.2","md":"-.-","ml":"2.1","mw":"-.-","location":"AVCILAR A\ufffdIKLARI MARMARA DENIZI"},{"date":"2020.10.15","time":"16:55:12","latitude":"40.8722","longitude":"28.7417","depth":"5.4","md":"-.-","ml":"3.2","mw":"3.2","location":"MARMARA DENIZI"},{"date":"2020.10.15","time":"16:33:19","latitude":"36.1368","longitude":"29.4988","depth":"9.8","md":"-.-","ml":"1.8","mw":"-.-","location":"GOKCEOREN-KAS (ANTALYA)"},{"date":"2020.10.15","time":"15:53:17","latitude":"39.2723","longitude":"28.1012","depth":"15.5","md":"-.-","ml":"1.2","mw":"-.-","location":"KUCUKBUKU-SINDIRGI (BALIKESIR)"},{"date":"2020.10.15","time":"15:38:48","latitude":"39.8522","longitude":"42.8907","depth":"22.2","md":"-.-","ml":"1.8","mw":"-.-","location":"HAYDAROGLU-ELESKIRT (AGRI)"},{"date":"2020.10.15","time":"15:30:56","latitude":"38.3203","longitude":"38.7107","depth":"17.4","md":"-.-","ml":"1.4","mw":"-.-","location":"KAMISTAS-(MALATYA)"},{"date":"2020.10.15","time":"15:27:20","latitude":"39.9340","longitude":"32.4148","depth":"4.2","md":"-.-","ml":"1.7","mw":"-.-","location":"AYAS (ANKARA)"},{"date":"2020.10.15","time":"15:21:39","latitude":"39.7890","longitude":"42.5707","depth":"5.0","md":"-.-","ml":"2.4","mw":"-.-","location":"GUNEYKAYA-ELESKIRT (AGRI)"},{"date":"2020.10.15","time":"15:20:43","latitude":"39.7957","longitude":"42.5970","depth":"5.0","md":"-.-","ml":"3.2","mw":"3.3","location":"GUNEYKAYA-ELESKIRT (AGRI)"},{"date":"2020.10.15","time":"15:13:11","latitude":"38.1717","longitude":"38.8335","depth":"5.2","md":"-.-","ml":"2.1","mw":"-.-","location":"TASMIS-PUTURGE (MALATYA)"},{"date":"2020.10.15","time":"15:12:37","latitude":"38.1865","longitude":"38.8135","depth":"12.2","md":"-.-","ml":"2.3","mw":"-.-","location":"TASMIS-PUTURGE (MALATYA)"},{"date":"2020.10.15","time":"14:55:51","latitude":"36.7540","longitude":"28.5030","depth":"3.8","md":"-.-","ml":"1.6","mw":"-.-","location":"MARMARIS ACIKLARI-MUGLA (AKDENIZ)"},{"date":"2020.10.15","time":"14:45:01","latitude":"36.1667","longitude":"33.5390","depth":"0.0","md":"-.-","ml":"1.0","mw":"-.-","location":"BUYUKECELI-GULNAR (MERSIN)"},{"date":"2020.10.15","time":"14:33:18","latitude":"38.6783","longitude":"38.0402","depth":"3.9","md":"-.-","ml":"1.3","mw":"-.-","location":"ALICAN-YAZIHAN (MALATYA)"},{"date":"2020.10.15","time":"14:23:17","latitude":"36.9743","longitude":"36.0503","depth":"5.3","md":"-.-","ml":"2.0","mw":"-.-","location":"TURUNCLU-ERZIN (HATAY)"},{"date":"2020.10.15","time":"14:17:47","latitude":"35.6088","longitude":"26.2813","depth":"5.0","md":"-.-","ml":"2.7","mw":"-.-","location":"AKDENIZ"},{"date":"2020.10.15","time":"13:45:25","latitude":"34.9443","longitude":"27.2197","depth":"5.3","md":"-.-","ml":"2.3","mw":"-.-","location":"GIRIT ADASI ACIKLARI (AKDENIZ)"},{"date":"2020.10.15","time":"13:45:18","latitude":"39.7972","longitude":"42.6275","depth":"7.3","md":"-.-","ml":"2.7","mw":"-.-","location":"SUZGECLI-ELESKIRT (AGRI)"},{"date":"2020.10.15","time":"13:43:59","latitude":"40.7613","longitude":"31.7077","depth":"5.0","md":"-.-","ml":"1.7","mw":"-.-","location":"AHMETLER-(BOLU)"},{"date":"2020.10.15","time":"13:09:01","latitude":"35.7958","longitude":"28.2083","depth":"5.0","md":"-.-","ml":"1.9","mw":"-.-","location":"AKDENIZ"},{"date":"2020.10.15","time":"12:55:53","latitude":"39.6498","longitude":"42.3688","depth":"5.4","md":"-.-","ml":"1.9","mw":"-.-","location":"UGURDALI-KARAYAZI (ERZURUM)"},{"date":"2020.10.15","time":"12:50:53","latitude":"39.6557","longitude":"29.4797","depth":"0.0","md":"-.-","ml":"1.4","mw":"-.-","location":"MUHACIRLER-DOMANIC (KUTAHYA)"},{"date":"2020.10.15","time":"12:09:08","latitude":"39.1180","longitude":"27.5342","depth":"0.0","md":"-.-","ml":"1.4","mw":"-.-","location":"DEREKOY-SOMA (MANISA)"},{"date":"2020.10.15","time":"12:05:31","latitude":"40.2272","longitude":"29.0238","depth":"5.0","md":"-.-","ml":"1.4","mw":"-.-","location":"NILUFER (BURSA)"},{"date":"2020.10.15","time":"11:37:56","latitude":"39.7048","longitude":"42.5295","depth":"5.0","md":"-.-","ml":"1.8","mw":"-.-","location":"YAGMURLU-ELESKIRT (AGRI)"},{"date":"2020.10.15","time":"11:18:52","latitude":"39.7782","longitude":"42.5817","depth":"5.0","md":"-.-","ml":"3.4","mw":"3.5","location":"GUNEYKAYA-ELESKIRT (AGRI)"},{"date":"2020.10.15","time":"11:09:19","latitude":"39.8328","longitude":"30.2067","depth":"0.0","md":"-.-","ml":"1.8","mw":"-.-","location":"OKLUBALI-INONU (ESKISEHIR)"},{"date":"2020.10.15","time":"11:05:37","latitude":"39.6512","longitude":"38.3973","depth":"5.0","md":"-.-","ml":"1.9","mw":"-.-","location":"YILMAZ-ILIC (ERZINCAN)"},{"date":"2020.10.15","time":"10:26:54","latitude":"35.5753","longitude":"26.2055","depth":"5.5","md":"-.-","ml":"2.3","mw":"-.-","location":"GIRIT ADASI (AKDENIZ)"},{"date":"2020.10.15","time":"10:07:37","latitude":"37.2905","longitude":"31.7465","depth":"5.4","md":"-.-","ml":"2.1","mw":"-.-","location":"SULEYMANIYE-AKSEKI (ANTALYA)"},{"date":"2020.10.15","time":"09:57:00","latitude":"39.6177","longitude":"38.4107","depth":"9.7","md":"-.-","ml":"2.3","mw":"-.-","location":"YALINGOZE-ILIC (ERZINCAN)"},{"date":"2020.10.15","time":"09:24:28","latitude":"35.4663","longitude":"26.6773","depth":"5.0","md":"-.-","ml":"3.1","mw":"3.2","location":"GIRIT ADASI (AKDENIZ)"},{"date":"2020.10.15","time":"09:06:48","latitude":"37.1743","longitude":"28.1833","depth":"0.0","md":"-.-","ml":"1.5","mw":"-.-","location":"CIFTLIKKOY-(MUGLA)"},{"date":"2020.10.15","time":"08:51:25","latitude":"40.7723","longitude":"33.0937","depth":"5.1","md":"-.-","ml":"1.9","mw":"-.-","location":"ILIPINAR-ATKARACALAR (CANKIRI)"},{"date":"2020.10.15","time":"07:35:17","latitude":"40.5878","longitude":"28.9938","depth":"3.7","md":"-.-","ml":"1.6","mw":"-.-","location":"SENKOY-CINARCIK (YALOVA)"},{"date":"2020.10.15","time":"07:32:00","latitude":"40.5825","longitude":"28.9895","depth":"4.0","md":"-.-","ml":"1.9","mw":"-.-","location":"SENKOY-CINARCIK (YALOVA)"},{"date":"2020.10.15","time":"07:31:15","latitude":"40.6035","longitude":"28.9822","depth":"6.5","md":"-.-","ml":"2.0","mw":"-.-","location":"ESENKOY-CINARCIK (YALOVA)"},{"date":"2020.10.15","time":"07:12:44","latitude":"38.0192","longitude":"34.0788","depth":"6.1","md":"-.-","ml":"1.5","mw":"-.-","location":"OBRUK-BOR (NIGDE)"},{"date":"2020.10.15","time":"07:09:30","latitude":"35.6642","longitude":"26.2187","depth":"8.6","md":"-.-","ml":"2.2","mw":"-.-","location":"AKDENIZ"},{"date":"2020.10.15","time":"05:41:38","latitude":"35.6853","longitude":"26.1938","depth":"7.5","md":"-.-","ml":"1.9","mw":"-.-","location":"AKDENIZ"},{"date":"2020.10.15","time":"05:39:09","latitude":"35.6712","longitude":"26.2515","depth":"9.7","md":"-.-","ml":"2.6","mw":"-.-","location":"AKDENIZ"},{"date":"2020.10.15","time":"05:15:26","latitude":"39.0418","longitude":"27.9077","depth":"2.4","md":"-.-","ml":"1.8","mw":"-.-","location":"ZEYTINLIBAG-AKHISAR (MANISA)"},{"date":"2020.10.15","time":"04:56:32","latitude":"35.6548","longitude":"26.2505","depth":"3.0","md":"-.-","ml":"2.5","mw":"-.-","location":"AKDENIZ"},{"date":"2020.10.15","time":"04:48:10","latitude":"35.5927","longitude":"26.2168","depth":"7.1","md":"-.-","ml":"1.9","mw":"-.-","location":"AKDENIZ"},{"date":"2020.10.15","time":"04:20:16","latitude":"36.3165","longitude":"29.6443","depth":"13.5","md":"-.-","ml":"1.2","mw":"-.-","location":"SINNELI-KAS (ANTALYA)"},{"date":"2020.10.15","time":"04:16:45","latitude":"35.6132","longitude":"26.2203","depth":"1.8","md":"-.-","ml":"2.8","mw":"-.-","location":"AKDENIZ"},{"date":"2020.10.15","time":"04:14:36","latitude":"35.6753","longitude":"26.2302","depth":"11.3","md":"-.-","ml":"2.9","mw":"-.-","location":"AKDENIZ"},{"date":"2020.10.15","time":"03:54:49","latitude":"40.0605","longitude":"28.2085","depth":"11.6","md":"-.-","ml":"2.1","mw":"-.-","location":"BEYKOY-SUSURLUK (BALIKESIR)"},{"date":"2020.10.15","time":"03:42:19","latitude":"35.7242","longitude":"26.2622","depth":"10.7","md":"-.-","ml":"2.5","mw":"-.-","location":"AKDENIZ"},{"date":"2020.10.15","time":"02:57:37","latitude":"35.6442","longitude":"29.5717","depth":"10.6","md":"-.-","ml":"1.7","mw":"-.-","location":"AKDENIZ"},{"date":"2020.10.15","time":"02:38:53","latitude":"39.3640","longitude":"27.9618","depth":"5.0","md":"-.-","ml":"2.4","mw":"-.-","location":"AKCAKISRAK-SINDIRGI (BALIKESIR)"},{"date":"2020.10.15","time":"01:59:45","latitude":"39.5232","longitude":"27.6255","depth":"5.0","md":"-.-","ml":"1.6","mw":"-.-","location":"KARAPINAR-SAVASTEPE (BALIKESIR)"},{"date":"2020.10.15","time":"01:51:24","latitude":"38.7055","longitude":"43.1077","depth":"3.1","md":"-.-","ml":"1.4","mw":"-.-","location":"VAN GOLU"},{"date":"2020.10.15","time":"01:22:49","latitude":"35.6765","longitude":"26.2405","depth":"7.8","md":"-.-","ml":"4.0","mw":"4.1","location":"AKDENIZ"},{"date":"2020.10.14","time":"21:51:11","latitude":"35.8213","longitude":"28.2428","depth":"5.0","md":"-.-","ml":"2.1","mw":"-.-","location":"AKDENIZ"},{"date":"2020.10.14","time":"21:28:11","latitude":"35.5515","longitude":"26.3777","depth":"5.0","md":"-.-","ml":"2.5","mw":"-.-","location":"GIRIT ADASI (AKDENIZ)"},{"date":"2020.10.14","time":"21:25:51","latitude":"35.6623","longitude":"26.2228","depth":"7.8","md":"-.-","ml":"3.2","mw":"-.-","location":"AKDENIZ"},{"date":"2020.10.14","time":"20:33:48","latitude":"35.6018","longitude":"26.2073","depth":"11.6","md":"-.-","ml":"2.4","mw":"-.-","location":"AKDENIZ"},{"date":"2020.10.14","time":"19:55:05","latitude":"39.7842","longitude":"42.4917","depth":"5.0","md":"-.-","ml":"2.5","mw":"-.-","location":"SARIKOY-ELESKIRT (AGRI)"},{"date":"2020.10.14","time":"19:53:17","latitude":"39.3435","longitude":"37.9458","depth":"8.6","md":"-.-","ml":"2.3","mw":"-.-","location":"KARAAGACLI-DIVRIGI (SIVAS)"},{"date":"2020.10.14","time":"19:50:42","latitude":"35.6293","longitude":"26.2670","depth":"5.4","md":"-.-","ml":"2.5","mw":"-.-","location":"AKDENIZ"},{"date":"2020.10.14","time":"18:55:11","latitude":"35.6747","longitude":"26.2343","depth":"5.1","md":"-.-","ml":"2.5","mw":"-.-","location":"AKDENIZ"},{"date":"2020.10.14","time":"18:53:48","latitude":"35.6223","longitude":"26.2075","depth":"5.5","md":"-.-","ml":"2.7","mw":"-.-","location":"AKDENIZ"},{"date":"2020.10.14","time":"18:47:46","latitude":"35.3647","longitude":"26.4828","depth":"5.0","md":"-.-","ml":"3.2","mw":"-.-","location":"GIRIT ADASI (AKDENIZ)"},{"date":"2020.10.14","time":"18:18:31","latitude":"35.6457","longitude":"26.2442","depth":"4.8","md":"-.-","ml":"2.7","mw":"-.-","location":"AKDENIZ"},{"date":"2020.10.14","time":"18:10:04","latitude":"35.6625","longitude":"26.2370","depth":"5.7","md":"-.-","ml":"3.3","mw":"3.4","location":"AKDENIZ"},{"date":"2020.10.14","time":"17:54:09","latitude":"40.6440","longitude":"27.5875","depth":"3.8","md":"-.-","ml":"1.7","mw":"-.-","location":"MARMARA DENIZI"},{"date":"2020.10.14","time":"17:53:02","latitude":"39.3795","longitude":"29.3753","depth":"0.0","md":"-.-","ml":"1.7","mw":"-.-","location":"KOPRUCEK-EMET (KUTAHYA)"},{"date":"2020.10.14","time":"16:51:38","latitude":"35.5963","longitude":"26.2567","depth":"5.0","md":"-.-","ml":"2.5","mw":"-.-","location":"AKDENIZ"},{"date":"2020.10.14","time":"16:40:06","latitude":"35.6122","longitude":"26.3333","depth":"15.4","md":"-.-","ml":"2.4","mw":"-.-","location":"AKDENIZ"},{"date":"2020.10.14","time":"16:20:20","latitude":"36.7298","longitude":"28.4995","depth":"2.4","md":"-.-","ml":"1.4","mw":"-.-","location":"DALYAN ACIKLARI-MUGLA (AKDENIZ)"},{"date":"2020.10.14","time":"16:08:12","latitude":"37.7723","longitude":"34.1483","depth":"28.2","md":"-.-","ml":"1.6","mw":"-.-","location":"ASAGIGONDELEN-EREGLI (KONYA)"},{"date":"2020.10.14","time":"16:06:04","latitude":"38.3698","longitude":"39.1343","depth":"4.3","md":"-.-","ml":"1.7","mw":"-.-","location":"USLU-SIVRICE (ELAZIG)"},{"date":"2020.10.14","time":"15:59:17","latitude":"38.5540","longitude":"26.3605","depth":"27.1","md":"-.-","ml":"2.0","mw":"-.-","location":"KUCUKBAHCE-KARABURUN (IZMIR)"},{"date":"2020.10.14","time":"15:21:55","latitude":"39.4852","longitude":"33.4748","depth":"7.0","md":"-.-","ml":"2.0","mw":"-.-","location":"HACIYUSUFLU-CELEBI (KIRIKKALE)"},{"date":"2020.10.14","time":"14:02:02","latitude":"36.4648","longitude":"28.6892","depth":"1.4","md":"-.-","ml":"2.8","mw":"2.6","location":"AKDENIZ"},{"date":"2020.10.14","time":"13:58:30","latitude":"35.6162","longitude":"26.2430","depth":"8.4","md":"-.-","ml":"3.8","mw":"4.0","location":"AKDENIZ"},{"date":"2020.10.14","time":"13:58:03","latitude":"38.5893","longitude":"38.8943","depth":"13.9","md":"-.-","ml":"1.0","mw":"-.-","location":"KAYABEYLI-BASKIL (ELAZIG)"},{"date":"2020.10.14","time":"13:33:51","latitude":"35.8047","longitude":"28.2288","depth":"5.0","md":"-.-","ml":"3.0","mw":"2.8","location":"AKDENIZ"},{"date":"2020.10.14","time":"13:04:11","latitude":"35.6597","longitude":"26.2202","depth":"6.1","md":"-.-","ml":"2.3","mw":"-.-","location":"AKDENIZ"},{"date":"2020.10.14","time":"12:47:30","latitude":"36.5157","longitude":"28.6763","depth":"9.4","md":"-.-","ml":"1.4","mw":"-.-","location":"AKDENIZ"},{"date":"2020.10.14","time":"12:41:59","latitude":"35.6423","longitude":"26.2352","depth":"5.0","md":"-.-","ml":"2.7","mw":"2.7","location":"AKDENIZ"},{"date":"2020.10.14","time":"12:39:23","latitude":"38.2082","longitude":"33.0368","depth":"5.0","md":"-.-","ml":"1.7","mw":"-.-","location":"HACINUMAN-ALTINEKIN (KONYA)"},{"date":"2020.10.14","time":"12:37:28","latitude":"35.6352","longitude":"26.3147","depth":"5.0","md":"-.-","ml":"2.0","mw":"-.-","location":"AKDENIZ"},{"date":"2020.10.14","time":"12:27:29","latitude":"35.6452","longitude":"26.2752","depth":"7.6","md":"-.-","ml":"2.4","mw":"-.-","location":"AKDENIZ"},{"date":"2020.10.14","time":"12:24:07","latitude":"39.5843","longitude":"29.4908","depth":"0.0","md":"-.-","ml":"1.5","mw":"-.-","location":"KAYAARASI-TAVSANLI (KUTAHYA)"},{"date":"2020.10.14","time":"12:06:38","latitude":"35.2323","longitude":"33.5145","depth":"0.0","md":"-.-","ml":"1.7","mw":"-.-","location":"KIBRIS-DEGIRMENLIK"},{"date":"2020.10.14","time":"11:39:22","latitude":"38.3622","longitude":"27.2025","depth":"15.3","md":"-.-","ml":"1.0","mw":"-.-","location":"BUCA (IZMIR)"},{"date":"2020.10.14","time":"10:33:54","latitude":"38.5740","longitude":"39.2122","depth":"1.3","md":"-.-","ml":"1.0","mw":"-.-","location":"SARIYAKUP-(ELAZIG)"},{"date":"2020.10.14","time":"10:18:52","latitude":"35.6398","longitude":"26.2185","depth":"11.2","md":"-.-","ml":"2.8","mw":"-.-","location":"AKDENIZ"},{"date":"2020.10.14","time":"10:04:46","latitude":"39.5230","longitude":"40.4097","depth":"6.7","md":"-.-","ml":"2.7","mw":"2.6","location":"AYANOGLU-YEDISU (BINGOL)"},{"date":"2020.10.14","time":"09:27:37","latitude":"35.5980","longitude":"26.3283","depth":"20.5","md":"-.-","ml":"2.3","mw":"-.-","location":"AKDENIZ"},{"date":"2020.10.14","time":"09:26:04","latitude":"35.6677","longitude":"26.2310","depth":"5.3","md":"-.-","ml":"2.6","mw":"-.-","location":"AKDENIZ"},{"date":"2020.10.14","time":"07:48:07","latitude":"35.5862","longitude":"26.2442","depth":"7.6","md":"-.-","ml":"2.6","mw":"-.-","location":"AKDENIZ"},{"date":"2020.10.14","time":"07:43:59","latitude":"37.7582","longitude":"29.4003","depth":"6.0","md":"-.-","ml":"1.6","mw":"-.-","location":"AKBAS-HONAZ (DENIZLI)"},{"date":"2020.10.14","time":"07:40:30","latitude":"35.2925","longitude":"26.6020","depth":"2.0","md":"-.-","ml":"2.1","mw":"-.-","location":"GIRIT ADASI (AKDENIZ)"},{"date":"2020.10.14","time":"07:11:28","latitude":"35.6355","longitude":"31.7148","depth":"13.0","md":"-.-","ml":"2.3","mw":"-.-","location":"AKDENIZ"},{"date":"2020.10.14","time":"07:07:15","latitude":"35.6060","longitude":"26.2347","depth":"8.7","md":"-.-","ml":"2.6","mw":"-.-","location":"AKDENIZ"},{"date":"2020.10.14","time":"06:57:16","latitude":"40.7483","longitude":"23.0137","depth":"13.2","md":"-.-","ml":"3.8","mw":"3.8","location":"YUNANISTAN"},{"date":"2020.10.14","time":"06:41:24","latitude":"37.2075","longitude":"36.1368","depth":"5.1","md":"-.-","ml":"1.9","mw":"-.-","location":"KIRMACILI-(OSMANIYE)"},{"date":"2020.10.14","time":"06:28:08","latitude":"35.6682","longitude":"26.2488","depth":"9.8","md":"-.-","ml":"2.5","mw":"-.-","location":"AKDENIZ"},{"date":"2020.10.14","time":"04:52:18","latitude":"35.6550","longitude":"26.2273","depth":"8.6","md":"-.-","ml":"3.8","mw":"3.9","location":"AKDENIZ"},{"date":"2020.10.14","time":"03:53:47","latitude":"35.7998","longitude":"28.2398","depth":"10.4","md":"-.-","ml":"1.7","mw":"-.-","location":"AKDENIZ"},{"date":"2020.10.14","time":"03:28:44","latitude":"34.2400","longitude":"26.3275","depth":"5.0","md":"-.-","ml":"2.4","mw":"-.-","location":"GIRIT ADASI ACIKLARI (AKDENIZ)"},{"date":"2020.10.14","time":"02:49:54","latitude":"40.3935","longitude":"27.4433","depth":"14.0","md":"-.-","ml":"1.1","mw":"-.-","location":"BOZLAR-BIGA (CANAKKALE)"},{"date":"2020.10.14","time":"02:45:08","latitude":"40.5110","longitude":"33.5687","depth":"4.9","md":"-.-","ml":"1.3","mw":"-.-","location":"GOLEZ-ELDIVAN (CANKIRI)"},{"date":"2020.10.14","time":"02:24:27","latitude":"38.8238","longitude":"38.2545","depth":"5.0","md":"-.-","ml":"2.0","mw":"-.-","location":"YENIKOY-ARGUVAN (MALATYA)"},{"date":"2020.10.14","time":"02:20:57","latitude":"37.5395","longitude":"26.8690","depth":"10.4","md":"-.-","ml":"1.5","mw":"-.-","location":"EGE DENIZI"},{"date":"2020.10.14","time":"02:13:48","latitude":"39.6653","longitude":"35.3608","depth":"15.2","md":"-.-","ml":"1.1","mw":"-.-","location":"KARACALAR-SARIKAYA (YOZGAT)"},{"date":"2020.10.14","time":"01:38:24","latitude":"38.2952","longitude":"25.4603","depth":"8.4","md":"-.-","ml":"2.2","mw":"-.-","location":"EGE DENIZI"},{"date":"2020.10.14","time":"00:56:08","latitude":"39.1995","longitude":"29.4370","depth":"4.9","md":"-.-","ml":"1.1","mw":"-.-","location":"PUSATLAR-CAVDARHISAR (KUTAHYA)"},{"date":"2020.10.14","time":"00:52:54","latitude":"38.8698","longitude":"38.1933","depth":"5.0","md":"-.-","ml":"3.0","mw":"-.-","location":"KURUTTAS-ARGUVAN (MALATYA)"},{"date":"2020.10.14","time":"00:00:25","latitude":"38.8557","longitude":"38.2127","depth":"7.1","md":"-.-","ml":"2.4","mw":"-.-","location":"EYMIR-ARGUVAN (MALATYA)"},{"date":"2020.10.13","time":"23:34:45","latitude":"39.4390","longitude":"33.0783","depth":"5.5","md":"-.-","ml":"1.7","mw":"-.-","location":"AFSAR-BALA (ANKARA)"},{"date":"2020.10.13","time":"21:41:37","latitude":"35.5943","longitude":"26.2115","depth":"8.1","md":"-.-","ml":"2.4","mw":"-.-","location":"AKDENIZ"},{"date":"2020.10.13","time":"21:09:06","latitude":"38.7405","longitude":"27.5240","depth":"9.3","md":"-.-","ml":"1.6","mw":"-.-","location":"TEPECIK-(MANISA)"},{"date":"2020.10.13","time":"20:46:08","latitude":"35.2455","longitude":"27.7945","depth":"9.0","md":"-.-","ml":"2.2","mw":"-.-","location":"AKDENIZ"},{"date":"2020.10.13","time":"20:27:52","latitude":"37.9925","longitude":"29.1028","depth":"0.0","md":"-.-","ml":"1.8","mw":"-.-","location":"HAYTABEY-(DENIZLI)"},{"date":"2020.10.13","time":"19:42:12","latitude":"37.0265","longitude":"28.3057","depth":"0.0","md":"-.-","ml":"1.7","mw":"-.-","location":"CETIBELI-MARMARIS (MUGLA)"},{"date":"2020.10.13","time":"19:15:22","latitude":"38.5588","longitude":"42.9420","depth":"17.8","md":"-.-","ml":"1.8","mw":"-.-","location":"VAN GOLU"},{"date":"2020.10.13","time":"18:22:33","latitude":"39.6817","longitude":"27.8595","depth":"6.5","md":"-.-","ml":"1.4","mw":"-.-","location":"KABAKDERE-(BALIKESIR)"},{"date":"2020.10.13","time":"16:08:07","latitude":"36.1480","longitude":"33.5612","depth":"0.0","md":"-.-","ml":"1.4","mw":"-.-","location":"BUYUKECELI-GULNAR (MERSIN)"},{"date":"2020.10.13","time":"14:54:40","latitude":"38.7770","longitude":"27.0222","depth":"17.9","md":"-.-","ml":"1.4","mw":"-.-","location":"GUZELHISAR-ALIAGA (IZMIR)"},{"date":"2020.10.13","time":"13:17:42","latitude":"38.4257","longitude":"25.7277","depth":"8.0","md":"-.-","ml":"2.1","mw":"-.-","location":"EGE DENIZI"},{"date":"2020.10.13","time":"13:13:45","latitude":"39.0848","longitude":"27.8025","depth":"5.9","md":"-.-","ml":"2.0","mw":"-.-","location":"ILYASLAR-KIRKAGAC (MANISA)"},{"date":"2020.10.13","time":"12:45:06","latitude":"40.2153","longitude":"30.7267","depth":"11.1","md":"-.-","ml":"1.8","mw":"-.-","location":"KUYUPINAR-GOYNUK (BOLU)"},{"date":"2020.10.13","time":"12:23:38","latitude":"39.9687","longitude":"42.4782","depth":"12.6","md":"-.-","ml":"2.1","mw":"-.-","location":"MOLLAAHMET-HORASAN (ERZURUM)"},{"date":"2020.10.13","time":"11:55:56","latitude":"37.4788","longitude":"28.3638","depth":"0.0","md":"-.-","ml":"1.9","mw":"-.-","location":"CAYBOYU-KAVAKLIDERE (MUGLA)"},{"date":"2020.10.13","time":"09:40:39","latitude":"37.7640","longitude":"32.2285","depth":"0.0","md":"-.-","ml":"1.8","mw":"-.-","location":"ERENKAYA-MERAM (KONYA)"},{"date":"2020.10.13","time":"08:55:32","latitude":"40.6130","longitude":"33.1103","depth":"10.2","md":"-.-","ml":"1.7","mw":"-.-","location":"ORTA (CANKIRI)"},{"date":"2020.10.13","time":"08:37:36","latitude":"36.9697","longitude":"28.1692","depth":"2.7","md":"-.-","ml":"1.7","mw":"-.-","location":"KARACA-MARMARIS (MUGLA)"},{"date":"2020.10.13","time":"08:01:57","latitude":"38.8648","longitude":"38.2813","depth":"3.5","md":"-.-","ml":"1.9","mw":"-.-","location":"YENIKOY-ARGUVAN (MALATYA)"},{"date":"2020.10.13","time":"07:22:38","latitude":"38.8858","longitude":"38.2045","depth":"6.4","md":"-.-","ml":"2.3","mw":"-.-","location":"KURUTTAS-ARGUVAN (MALATYA)"},{"date":"2020.10.13","time":"05:49:48","latitude":"36.3898","longitude":"29.5632","depth":"12.4","md":"-.-","ml":"0.8","mw":"-.-","location":"CAMLIOVA-KAS (ANTALYA)"},{"date":"2020.10.13","time":"05:28:11","latitude":"36.9257","longitude":"27.5155","depth":"11.2","md":"-.-","ml":"1.2","mw":"-.-","location":"GOKOVA KORFEZI (AKDENIZ)"},{"date":"2020.10.13","time":"05:13:08","latitude":"36.9335","longitude":"27.5148","depth":"4.5","md":"-.-","ml":"1.5","mw":"-.-","location":"GOKOVA KORFEZI (AKDENIZ)"},{"date":"2020.10.13","time":"04:59:27","latitude":"36.9322","longitude":"27.5220","depth":"5.3","md":"-.-","ml":"1.7","mw":"-.-","location":"GOKOVA KORFEZI (AKDENIZ)"},{"date":"2020.10.13","time":"04:26:48","latitude":"36.9515","longitude":"27.3175","depth":"2.5","md":"-.-","ml":"1.9","mw":"-.-","location":"AKYARLAR-BODRUM (MUGLA)"},{"date":"2020.10.13","time":"04:25:32","latitude":"36.2947","longitude":"32.1445","depth":"10.4","md":"-.-","ml":"1.5","mw":"-.-","location":"DEMIRTAS ACIKLARI-ANTALYA (AKDENIZ)"},{"date":"2020.10.13","time":"03:40:28","latitude":"37.7690","longitude":"32.1567","depth":"5.7","md":"-.-","ml":"1.7","mw":"-.-","location":"ERENKAYA-MERAM (KONYA)"},{"date":"2020.10.13","time":"02:56:41","latitude":"37.8518","longitude":"32.0438","depth":"5.3","md":"-.-","ml":"1.2","mw":"-.-","location":"SAGLIK-MERAM (KONYA)"},{"date":"2020.10.13","time":"02:55:33","latitude":"37.7282","longitude":"32.2543","depth":"5.4","md":"-.-","ml":"1.7","mw":"-.-","location":"KAYALI-MERAM (KONYA)"},{"date":"2020.10.13","time":"02:52:02","latitude":"37.7743","longitude":"32.2072","depth":"16.2","md":"-.-","ml":"1.3","mw":"-.-","location":"ERENKAYA-MERAM (KONYA)"},{"date":"2020.10.13","time":"02:48:09","latitude":"37.7337","longitude":"32.1527","depth":"6.0","md":"-.-","ml":"1.5","mw":"-.-","location":"KAYALI-MERAM (KONYA)"},{"date":"2020.10.13","time":"02:31:41","latitude":"37.7697","longitude":"32.1687","depth":"1.2","md":"-.-","ml":"1.9","mw":"-.-","location":"ERENKAYA-MERAM (KONYA)"},{"date":"2020.10.13","time":"02:07:30","latitude":"36.0612","longitude":"35.9003","depth":"7.8","md":"-.-","ml":"1.6","mw":"-.-","location":"MAGARACIK-SAMANDAG (HATAY)"},{"date":"2020.10.13","time":"01:31:44","latitude":"40.3637","longitude":"44.8417","depth":"5.0","md":"-.-","ml":"2.5","mw":"-.-","location":"AZERBAYCAN"},{"date":"2020.10.13","time":"01:15:20","latitude":"37.7353","longitude":"32.1108","depth":"5.0","md":"-.-","ml":"1.5","mw":"-.-","location":"INLICE-MERAM (KONYA)"},{"date":"2020.10.13","time":"00:48:49","latitude":"37.7885","longitude":"32.1512","depth":"8.2","md":"-.-","ml":"2.0","mw":"-.-","location":"SEFAKOY-MERAM (KONYA)"},{"date":"2020.10.13","time":"00:34:12","latitude":"38.8403","longitude":"26.9847","depth":"15.7","md":"-.-","ml":"1.2","mw":"-.-","location":"CANDARLI KORFEZI (EGE DENIZI)"},{"date":"2020.10.13","time":"00:28:03","latitude":"37.7060","longitude":"32.2560","depth":"11.3","md":"-.-","ml":"0.7","mw":"-.-","location":"KUMRALI-MERAM (KONYA)"},{"date":"2020.10.13","time":"00:26:01","latitude":"38.8222","longitude":"26.9950","depth":"8.0","md":"-.-","ml":"1.8","mw":"-.-","location":"ALIAGA (IZMIR)"},{"date":"2020.10.13","time":"00:25:55","latitude":"37.7482","longitude":"32.1480","depth":"5.0","md":"-.-","ml":"1.8","mw":"-.-","location":"ERENKAYA-MERAM (KONYA)"},{"date":"2020.10.13","time":"00:18:16","latitude":"37.7792","longitude":"32.1252","depth":"5.5","md":"-.-","ml":"1.9","mw":"-.-","location":"SEFAKOY-MERAM (KONYA)"},{"date":"2020.10.12","time":"23:24:37","latitude":"37.1178","longitude":"28.2772","depth":"15.2","md":"-.-","ml":"1.2","mw":"-.-","location":"YERKESIK-(MUGLA)"},{"date":"2020.10.12","time":"22:43:21","latitude":"38.8557","longitude":"26.7527","depth":"5.4","md":"-.-","ml":"1.8","mw":"-.-","location":"CANDARLI KORFEZI (EGE DENIZI)"},{"date":"2020.10.12","time":"22:33:10","latitude":"40.7657","longitude":"27.9370","depth":"7.7","md":"-.-","ml":"1.5","mw":"-.-","location":"MARMARA DENIZI"},{"date":"2020.10.12","time":"22:28:42","latitude":"35.6048","longitude":"26.2247","depth":"6.3","md":"-.-","ml":"1.6","mw":"-.-","location":"AKDENIZ"},{"date":"2020.10.12","time":"22:26:48","latitude":"37.1393","longitude":"28.3452","depth":"18.3","md":"-.-","ml":"1.4","mw":"-.-","location":"GULAGZI-(MUGLA)"},{"date":"2020.10.12","time":"22:12:14","latitude":"35.5792","longitude":"26.1693","depth":"2.5","md":"-.-","ml":"2.5","mw":"-.-","location":"GIRIT ADASI (AKDENIZ)"},{"date":"2020.10.12","time":"21:54:37","latitude":"37.1858","longitude":"28.1883","depth":"0.0","md":"-.-","ml":"1.5","mw":"-.-","location":"CIFTLIKKOY-(MUGLA)"},{"date":"2020.10.12","time":"21:51:27","latitude":"37.1058","longitude":"28.2715","depth":"0.0","md":"-.-","ml":"1.0","mw":"-.-","location":"YENIBAGYAKA-(MUGLA)"},{"date":"2020.10.12","time":"21:49:14","latitude":"38.1508","longitude":"38.8087","depth":"5.3","md":"-.-","ml":"1.3","mw":"-.-","location":"GOKCELI-PUTURGE (MALATYA)"},{"date":"2020.10.12","time":"21:48:49","latitude":"35.7630","longitude":"28.1395","depth":"6.3","md":"-.-","ml":"1.4","mw":"-.-","location":"AKDENIZ"},{"date":"2020.10.12","time":"21:46:44","latitude":"37.1378","longitude":"28.1730","depth":"15.2","md":"-.-","ml":"1.2","mw":"-.-","location":"MEKE-(MUGLA)"},{"date":"2020.10.12","time":"21:44:04","latitude":"38.8505","longitude":"43.4578","depth":"2.6","md":"-.-","ml":"3.0","mw":"3.2","location":"GEDIKBULAK-(VAN)"},{"date":"2020.10.12","time":"21:41:01","latitude":"37.1440","longitude":"28.2987","depth":"0.0","md":"-.-","ml":"1.3","mw":"-.-","location":"YERKESIK-(MUGLA)"},{"date":"2020.10.12","time":"21:33:33","latitude":"37.1223","longitude":"28.2710","depth":"0.0","md":"-.-","ml":"1.6","mw":"-.-","location":"YERKESIK-(MUGLA)"},{"date":"2020.10.12","time":"21:31:44","latitude":"37.1338","longitude":"28.2375","depth":"16.1","md":"-.-","ml":"1.8","mw":"-.-","location":"ALGI-(MUGLA)"},{"date":"2020.10.12","time":"21:31:14","latitude":"37.1527","longitude":"28.2237","depth":"6.8","md":"-.-","ml":"1.8","mw":"-.-","location":"YENIKOY-(MUGLA)"},{"date":"2020.10.12","time":"21:13:42","latitude":"38.3733","longitude":"38.8855","depth":"8.0","md":"-.-","ml":"1.9","mw":"-.-","location":"KAYABAGLARI-SIVRICE (ELAZIG)"},{"date":"2020.10.12","time":"20:51:27","latitude":"39.0535","longitude":"34.6522","depth":"2.6","md":"-.-","ml":"2.2","mw":"-.-","location":"SADIK-HACIBEKTAS (NEVSEHIR)"},{"date":"2020.10.12","time":"19:26:48","latitude":"37.1373","longitude":"28.1955","depth":"16.8","md":"-.-","ml":"1.4","mw":"-.-","location":"YENIKOY-(MUGLA)"},{"date":"2020.10.12","time":"19:18:05","latitude":"38.8208","longitude":"26.7568","depth":"7.5","md":"-.-","ml":"2.3","mw":"-.-","location":"CANDARLI KORFEZI (EGE DENIZI)"},{"date":"2020.10.12","time":"18:38:25","latitude":"38.3497","longitude":"39.2523","depth":"12.7","md":"-.-","ml":"1.7","mw":"-.-","location":"ASAGICANAKCI-SIVRICE (ELAZIG)"},{"date":"2020.10.12","time":"18:00:02","latitude":"36.4840","longitude":"28.7330","depth":"7.9","md":"-.-","ml":"2.0","mw":"-.-","location":"AKDENIZ"},{"date":"2020.10.12","time":"16:53:45","latitude":"35.3190","longitude":"26.5350","depth":"5.0","md":"-.-","ml":"3.3","mw":"3.2","location":"GIRIT ADASI (AKDENIZ)"},{"date":"2020.10.12","time":"15:31:55","latitude":"36.9568","longitude":"28.1715","depth":"6.9","md":"-.-","ml":"2.6","mw":"-.-","location":"KARACA-MARMARIS (MUGLA)"},{"date":"2020.10.12","time":"13:55:35","latitude":"37.5255","longitude":"30.5755","depth":"2.2","md":"-.-","ml":"1.9","mw":"-.-","location":"ALKAYA-BUCAK (BURDUR)"},{"date":"2020.10.12","time":"12:46:02","latitude":"35.6585","longitude":"26.2888","depth":"7.3","md":"-.-","ml":"2.8","mw":"-.-","location":"AKDENIZ"},{"date":"2020.10.12","time":"11:53:19","latitude":"35.5695","longitude":"26.2552","depth":"7.5","md":"-.-","ml":"3.8","mw":"3.9","location":"GIRIT ADASI (AKDENIZ)"},{"date":"2020.10.12","time":"09:55:53","latitude":"39.3445","longitude":"40.6035","depth":"8.1","md":"-.-","ml":"2.4","mw":"-.-","location":"ELMALI-YEDISU (BINGOL)"},{"date":"2020.10.12","time":"09:39:34","latitude":"35.5762","longitude":"26.2292","depth":"4.1","md":"-.-","ml":"2.5","mw":"2.3","location":"GIRIT ADASI (AKDENIZ)"},{"date":"2020.10.12","time":"08:15:20","latitude":"35.6312","longitude":"26.3495","depth":"16.0","md":"-.-","ml":"2.7","mw":"-.-","location":"AKDENIZ"},{"date":"2020.10.12","time":"08:12:32","latitude":"35.6112","longitude":"26.2367","depth":"3.2","md":"-.-","ml":"2.3","mw":"-.-","location":"AKDENIZ"},{"date":"2020.10.12","time":"08:11:37","latitude":"35.6377","longitude":"26.1843","depth":"4.9","md":"-.-","ml":"2.3","mw":"-.-","location":"AKDENIZ"},{"date":"2020.10.12","time":"08:06:27","latitude":"35.6598","longitude":"26.2575","depth":"8.9","md":"-.-","ml":"2.3","mw":"-.-","location":"AKDENIZ"},{"date":"2020.10.12","time":"08:05:06","latitude":"35.6245","longitude":"26.2417","depth":"7.0","md":"-.-","ml":"2.5","mw":"-.-","location":"AKDENIZ"},{"date":"2020.10.12","time":"08:00:32","latitude":"35.6733","longitude":"26.2187","depth":"6.1","md":"-.-","ml":"3.9","mw":"4.0","location":"AKDENIZ"},{"date":"2020.10.12","time":"07:51:57","latitude":"35.6442","longitude":"26.2183","depth":"6.9","md":"-.-","ml":"3.1","mw":"3.0","location":"AKDENIZ"},{"date":"2020.10.12","time":"07:47:51","latitude":"35.6778","longitude":"26.2465","depth":"9.3","md":"-.-","ml":"2.8","mw":"-.-","location":"AKDENIZ"},{"date":"2020.10.12","time":"07:42:43","latitude":"35.6497","longitude":"26.2605","depth":"8.1","md":"-.-","ml":"2.7","mw":"-.-","location":"AKDENIZ"},{"date":"2020.10.12","time":"07:38:36","latitude":"35.6245","longitude":"26.2218","depth":"9.3","md":"-.-","ml":"3.6","mw":"3.6","location":"AKDENIZ"},{"date":"2020.10.12","time":"07:36:09","latitude":"35.6455","longitude":"26.2085","depth":"5.4","md":"-.-","ml":"2.4","mw":"-.-","location":"AKDENIZ"},{"date":"2020.10.12","time":"07:30:21","latitude":"35.6133","longitude":"26.2128","depth":"8.1","md":"-.-","ml":"3.2","mw":"3.2","location":"AKDENIZ"},{"date":"2020.10.12","time":"07:26:37","latitude":"35.6200","longitude":"26.2043","depth":"12.8","md":"-.-","ml":"2.8","mw":"-.-","location":"AKDENIZ"}]
