[{"date":"2020.09.06","time":"14:59:02","latitude":"39.1135","longitude":"41.0155","depth":"2.8","md":"-.-","ml":"2.0","mw":"-.-","location":"HASANOVA-KARLIOVA (BINGOL)"},{"date":"2020.09.06","time":"13:52:31","latitude":"38.3792","longitude":"39.0323","depth":"11.5","md":"-.-","ml":"1.7","mw":"-.-","location":"DUYGULU-SIVRICE (ELAZIG)"},{"date":"2020.09.06","time":"13:38:11","latitude":"39.2942","longitude":"40.2232","depth":"6.6","md":"-.-","ml":"2.4","mw":"-.-","location":"SABIRTASI-KIGI (BINGOL)"},{"date":"2020.09.06","time":"13:35:19","latitude":"36.7717","longitude":"26.5455","depth":"4.3","md":"-.-","ml":"2.1","mw":"-.-","location":"AKDENIZ"},{"date":"2020.09.06","time":"12:45:50","latitude":"39.4383","longitude":"27.6168","depth":"13.7","md":"-.-","ml":"1.2","mw":"-.-","location":"KURUDERE-SAVASTEPE (BALIKESIR)"},{"date":"2020.09.06","time":"12:45:05","latitude":"36.8408","longitude":"26.5938","depth":"7.0","md":"-.-","ml":"2.1","mw":"-.-","location":"AKDENIZ"},{"date":"2020.09.06","time":"12:13:11","latitude":"37.0588","longitude":"27.8692","depth":"0.0","md":"-.-","ml":"1.1","mw":"-.-","location":"GURCEGIZ-MILAS (MUGLA)"},{"date":"2020.09.06","time":"12:06:24","latitude":"37.8638","longitude":"27.2345","depth":"5.9","md":"-.-","ml":"2.8","mw":"-.-","location":"KUSADASI KORFEZI (EGE DENIZI)"},{"date":"2020.09.06","time":"11:54:32","latitude":"37.1207","longitude":"27.8098","depth":"0.0","md":"-.-","ml":"1.5","mw":"-.-","location":"CIFTLIKKOY-MILAS (MUGLA)"},{"date":"2020.09.06","time":"11:51:13","latitude":"37.6500","longitude":"36.4172","depth":"9.3","md":"-.-","ml":"2.2","mw":"-.-","location":"EMIRLER-ANDIRIN (KAHRAMANMARAS)"},{"date":"2020.09.06","time":"11:50:48","latitude":"37.1027","longitude":"27.8810","depth":"0.0","md":"-.-","ml":"1.2","mw":"-.-","location":"BAYIRKOY-MILAS (MUGLA)"},{"date":"2020.09.06","time":"11:48:39","latitude":"37.1815","longitude":"27.8538","depth":"0.0","md":"-.-","ml":"1.6","mw":"-.-","location":"IKIZKOY-MILAS (MUGLA)"},{"date":"2020.09.06","time":"10:26:05","latitude":"38.0297","longitude":"34.0408","depth":"5.0","md":"-.-","ml":"2.7","mw":"-.-","location":"OBRUK-BOR (NIGDE)"},{"date":"2020.09.06","time":"10:25:04","latitude":"38.0295","longitude":"34.0942","depth":"7.6","md":"-.-","ml":"2.8","mw":"-.-","location":"KECIKALESI-ALTUNHISAR (NIGDE)"},{"date":"2020.09.06","time":"09:12:06","latitude":"40.3410","longitude":"27.4115","depth":"4.5","md":"-.-","ml":"1.6","mw":"-.-","location":"BOZLAR-BIGA (CANAKKALE)"},{"date":"2020.09.06","time":"08:51:11","latitude":"39.6838","longitude":"25.6083","depth":"4.3","md":"-.-","ml":"2.8","mw":"-.-","location":"EGE DENIZI"},{"date":"2020.09.06","time":"08:42:44","latitude":"38.4502","longitude":"39.2883","depth":"8.1","md":"-.-","ml":"2.3","mw":"-.-","location":"SIVRICE (ELAZIG)"},{"date":"2020.09.06","time":"07:42:13","latitude":"40.9737","longitude":"40.0577","depth":"6.2","md":"-.-","ml":"2.3","mw":"-.-","location":"ARAKLI (TRABZON)"},{"date":"2020.09.06","time":"07:12:23","latitude":"36.6873","longitude":"28.1930","depth":"61.5","md":"-.-","ml":"1.9","mw":"-.-","location":"BAYIR-MARMARIS (MUGLA)"},{"date":"2020.09.06","time":"05:52:56","latitude":"40.6125","longitude":"33.5038","depth":"5.0","md":"-.-","ml":"3.6","mw":"3.8","location":"SARITARLA-ELDIVAN (CANKIRI)"},{"date":"2020.09.06","time":"05:45:47","latitude":"40.3650","longitude":"29.6223","depth":"11.1","md":"-.-","ml":"2.4","mw":"-.-","location":"AYDINLAR-IZNIK (BURSA)"},{"date":"2020.09.06","time":"05:42:46","latitude":"38.4853","longitude":"25.7210","depth":"5.0","md":"-.-","ml":"2.5","mw":"-.-","location":"EGE DENIZI"},{"date":"2020.09.06","time":"05:06:00","latitude":"38.8940","longitude":"25.2463","depth":"2.6","md":"-.-","ml":"2.2","mw":"-.-","location":"EGE DENIZI"},{"date":"2020.09.06","time":"04:08:04","latitude":"38.1692","longitude":"29.6857","depth":"7.3","md":"-.-","ml":"1.6","mw":"-.-","location":"SARIBEYLI-CIVRIL (DENIZLI)"},{"date":"2020.09.06","time":"03:10:56","latitude":"38.3595","longitude":"39.1225","depth":"5.2","md":"-.-","ml":"2.4","mw":"-.-","location":"AKSEKI-SIVRICE (ELAZIG)"},{"date":"2020.09.06","time":"02:25:59","latitude":"38.9905","longitude":"26.9993","depth":"6.2","md":"-.-","ml":"2.0","mw":"-.-","location":"DEMIRTAS-DIKILI (IZMIR)"},{"date":"2020.09.06","time":"02:10:23","latitude":"36.6578","longitude":"30.5558","depth":"9.9","md":"-.-","ml":"1.9","mw":"-.-","location":"GOYNUK-KEMER (ANTALYA)"},{"date":"2020.09.06","time":"02:06:56","latitude":"37.1773","longitude":"35.4562","depth":"2.6","md":"-.-","ml":"2.1","mw":"-.-","location":"TURUNCLU-SARICAM (ADANA)"},{"date":"2020.09.06","time":"01:24:32","latitude":"37.3825","longitude":"38.6910","depth":"3.1","md":"-.-","ml":"2.9","mw":"-.-","location":"BUYUKORDEK-(SANLIURFA)"},{"date":"2020.09.06","time":"00:57:10","latitude":"38.8878","longitude":"41.3427","depth":"2.2","md":"-.-","ml":"1.5","mw":"-.-","location":"KONUKBEKLER-(MUS)"},{"date":"2020.09.05","time":"22:13:32","latitude":"37.2397","longitude":"35.4218","depth":"5.0","md":"-.-","ml":"2.2","mw":"-.-","location":"MALIHIDIRLI-IMAMOGLU (ADANA)"},{"date":"2020.09.05","time":"20:52:36","latitude":"38.2040","longitude":"29.6538","depth":"1.2","md":"-.-","ml":"2.2","mw":"-.-","location":"YASSIHUYUK-CIVRIL (DENIZLI)"},{"date":"2020.09.05","time":"20:03:10","latitude":"39.2588","longitude":"41.7403","depth":"6.0","md":"-.-","ml":"2.6","mw":"-.-","location":"TELLITEPE-HINIS (ERZURUM)"},{"date":"2020.09.05","time":"19:47:33","latitude":"35.2433","longitude":"33.2095","depth":"62.3","md":"-.-","ml":"3.3","mw":"3.4","location":"KIBRIS-TURKELI"},{"date":"2020.09.05","time":"17:55:17","latitude":"40.5212","longitude":"30.5155","depth":"13.3","md":"-.-","ml":"1.7","mw":"-.-","location":"BELPINAR-GEYVE (SAKARYA)"},{"date":"2020.09.05","time":"17:54:43","latitude":"36.4650","longitude":"28.7073","depth":"4.6","md":"-.-","ml":"1.8","mw":"-.-","location":"AKDENIZ"},{"date":"2020.09.05","time":"17:12:07","latitude":"39.3962","longitude":"24.9275","depth":"5.0","md":"-.-","ml":"2.3","mw":"-.-","location":"EGE DENIZI"},{"date":"2020.09.05","time":"15:33:48","latitude":"35.4052","longitude":"27.7158","depth":"18.8","md":"-.-","ml":"2.8","mw":"-.-","location":"AKDENIZ"},{"date":"2020.09.05","time":"15:18:47","latitude":"38.4223","longitude":"39.2872","depth":"18.8","md":"-.-","ml":"1.3","mw":"-.-","location":"YEDIKARDES-SIVRICE (ELAZIG)"},{"date":"2020.09.05","time":"15:01:14","latitude":"40.0128","longitude":"42.5562","depth":"5.7","md":"-.-","ml":"2.9","mw":"-.-","location":"BALIKLI-SARIKAMIS (KARS)"},{"date":"2020.09.05","time":"13:11:02","latitude":"37.2263","longitude":"28.1862","depth":"0.0","md":"-.-","ml":"1.9","mw":"-.-","location":"CAYBUKU-(MUGLA)"},{"date":"2020.09.05","time":"12:44:40","latitude":"37.2908","longitude":"28.1763","depth":"0.0","md":"-.-","ml":"2.2","mw":"-.-","location":"GOKPINAR-YATAGAN (MUGLA)"},{"date":"2020.09.05","time":"11:51:00","latitude":"37.3263","longitude":"27.8665","depth":"0.0","md":"-.-","ml":"1.7","mw":"-.-","location":"YUSUFCA-MILAS (MUGLA)"},{"date":"2020.09.05","time":"11:49:55","latitude":"39.0620","longitude":"27.4870","depth":"0.0","md":"-.-","ml":"1.7","mw":"-.-","location":"KALEMKOY-KINIK (IZMIR)"},{"date":"2020.09.05","time":"10:09:57","latitude":"39.5332","longitude":"26.2005","depth":"5.0","md":"-.-","ml":"1.7","mw":"-.-","location":"YUKARIKOY-AYVACIK (CANAKKALE)"},{"date":"2020.09.05","time":"09:18:22","latitude":"38.1317","longitude":"42.6217","depth":"3.5","md":"-.-","ml":"2.9","mw":"-.-","location":"DERINCE-HIZAN (BITLIS)"},{"date":"2020.09.05","time":"08:38:34","latitude":"39.0158","longitude":"27.8652","depth":"6.6","md":"-.-","ml":"2.0","mw":"-.-","location":"GOKCEAHMET-AKHISAR (MANISA)"},{"date":"2020.09.05","time":"07:27:08","latitude":"37.9542","longitude":"28.7820","depth":"3.1","md":"-.-","ml":"1.5","mw":"-.-","location":"SAVCILI-BUHARKENT (AYDIN)"},{"date":"2020.09.05","time":"06:38:59","latitude":"40.2077","longitude":"31.7408","depth":"10.4","md":"-.-","ml":"2.0","mw":"-.-","location":"HIRKATEPE-BEYPAZARI (ANKARA)"},{"date":"2020.09.05","time":"05:50:12","latitude":"37.2323","longitude":"27.8375","depth":"9.6","md":"-.-","ml":"1.7","mw":"-.-","location":"ASLANYAKA-MILAS (MUGLA)"},{"date":"2020.09.05","time":"04:01:19","latitude":"40.5605","longitude":"23.8358","depth":"5.5","md":"-.-","ml":"2.2","mw":"-.-","location":"YUNANISTAN"},{"date":"2020.09.05","time":"03:55:56","latitude":"38.2650","longitude":"38.6892","depth":"12.1","md":"-.-","ml":"1.7","mw":"-.-","location":"CAYKOY-PUTURGE (MALATYA)"},{"date":"2020.09.05","time":"03:46:03","latitude":"36.9198","longitude":"27.7880","depth":"16.0","md":"-.-","ml":"1.4","mw":"-.-","location":"GOKOVA KORFEZI (AKDENIZ)"},{"date":"2020.09.05","time":"02:52:54","latitude":"37.8202","longitude":"32.1115","depth":"5.2","md":"-.-","ml":"1.1","mw":"-.-","location":"SEFAKOY-MERAM (KONYA)"},{"date":"2020.09.05","time":"02:41:33","latitude":"38.0720","longitude":"39.9013","depth":"17.4","md":"-.-","ml":"1.7","mw":"-.-","location":"BAYKARA-KAYAPINAR (DIYARBAKIR)"},{"date":"2020.09.05","time":"02:17:56","latitude":"35.6090","longitude":"27.6235","depth":"5.0","md":"-.-","ml":"2.6","mw":"-.-","location":"AKDENIZ"},{"date":"2020.09.05","time":"01:57:36","latitude":"40.3478","longitude":"27.4055","depth":"6.2","md":"-.-","ml":"1.8","mw":"-.-","location":"BOZLAR-BIGA (CANAKKALE)"},{"date":"2020.09.05","time":"01:27:02","latitude":"34.8775","longitude":"25.2893","depth":"7.0","md":"-.-","ml":"2.9","mw":"-.-","location":"GIRIT ADASI (AKDENIZ)"},{"date":"2020.09.04","time":"23:18:02","latitude":"38.9173","longitude":"38.9872","depth":"5.0","md":"-.-","ml":"2.6","mw":"-.-","location":"YEMISDERE-CEMISGEZEK (TUNCELI)"},{"date":"2020.09.04","time":"21:59:04","latitude":"39.3683","longitude":"40.7525","depth":"14.2","md":"-.-","ml":"1.5","mw":"-.-","location":"KAYNARPINAR-KARLIOVA (BINGOL)"},{"date":"2020.09.04","time":"19:54:36","latitude":"38.4622","longitude":"39.2713","depth":"8.9","md":"-.-","ml":"1.2","mw":"-.-","location":"ALINCIK-SIVRICE (ELAZIG)"},{"date":"2020.09.04","time":"19:02:54","latitude":"38.4433","longitude":"39.2617","depth":"5.4","md":"-.-","ml":"3.5","mw":"3.5","location":"DUZBAHCE-SIVRICE (ELAZIG)"},{"date":"2020.09.04","time":"16:27:08","latitude":"39.0152","longitude":"30.1993","depth":"6.3","md":"-.-","ml":"2.6","mw":"-.-","location":"YOLCATI-ALTINTAS (KUTAHYA)"},{"date":"2020.09.04","time":"15:38:13","latitude":"36.8857","longitude":"27.5848","depth":"11.0","md":"-.-","ml":"1.9","mw":"-.-","location":"GOKOVA KORFEZI (AKDENIZ)"},{"date":"2020.09.04","time":"13:54:57","latitude":"35.7787","longitude":"28.2515","depth":"6.2","md":"-.-","ml":"2.0","mw":"-.-","location":"AKDENIZ"},{"date":"2020.09.04","time":"13:09:33","latitude":"38.5268","longitude":"26.5943","depth":"6.6","md":"-.-","ml":"1.3","mw":"-.-","location":"MORDOGAN-KARABURUN (IZMIR)"},{"date":"2020.09.04","time":"12:57:17","latitude":"39.8580","longitude":"28.8107","depth":"0.0","md":"-.-","ml":"1.5","mw":"-.-","location":"ALTINTAS-ORHANELI (BURSA)"},{"date":"2020.09.04","time":"12:55:08","latitude":"37.2258","longitude":"28.2202","depth":"0.0","md":"-.-","ml":"1.8","mw":"-.-","location":"KAFACA-(MUGLA)"},{"date":"2020.09.04","time":"12:38:48","latitude":"35.7568","longitude":"28.2260","depth":"4.8","md":"-.-","ml":"2.1","mw":"-.-","location":"AKDENIZ"},{"date":"2020.09.04","time":"11:57:39","latitude":"37.1893","longitude":"27.9082","depth":"0.0","md":"-.-","ml":"1.7","mw":"-.-","location":"KAYADERE-MILAS (MUGLA)"},{"date":"2020.09.04","time":"11:56:34","latitude":"35.2507","longitude":"33.6100","depth":"5.0","md":"-.-","ml":"1.4","mw":"-.-","location":"KIBRIS-DEGIRMENLIK"},{"date":"2020.09.04","time":"11:53:13","latitude":"37.1840","longitude":"27.8108","depth":"0.0","md":"-.-","ml":"1.6","mw":"-.-","location":"CAMKOY-MILAS (MUGLA)"},{"date":"2020.09.04","time":"11:37:06","latitude":"35.2023","longitude":"33.6005","depth":"5.1","md":"-.-","ml":"1.3","mw":"-.-","location":"KIBRIS-DEGIRMENLIK"},{"date":"2020.09.04","time":"10:55:06","latitude":"39.4558","longitude":"27.6860","depth":"40.4","md":"-.-","ml":"1.5","mw":"-.-","location":"CAMURLU-SAVASTEPE (BALIKESIR)"},{"date":"2020.09.04","time":"10:29:34","latitude":"39.2525","longitude":"27.5353","depth":"9.0","md":"-.-","ml":"2.0","mw":"-.-","location":"URUZLAR-SOMA (MANISA)"},{"date":"2020.09.04","time":"10:00:24","latitude":"37.2212","longitude":"28.1788","depth":"0.0","md":"-.-","ml":"2.2","mw":"-.-","location":"CAYBUKU-(MUGLA)"},{"date":"2020.09.04","time":"08:48:58","latitude":"35.3153","longitude":"26.7605","depth":"4.6","md":"-.-","ml":"2.3","mw":"-.-","location":"GIRIT ADASI (AKDENIZ)"},{"date":"2020.09.04","time":"06:59:08","latitude":"39.4862","longitude":"26.2402","depth":"6.1","md":"-.-","ml":"1.8","mw":"-.-","location":"BEKTAS-AYVACIK (CANAKKALE)"},{"date":"2020.09.04","time":"06:34:11","latitude":"40.3990","longitude":"28.8018","depth":"6.1","md":"-.-","ml":"1.4","mw":"-.-","location":"ZEYTINBAGI-MUDANYA (BURSA)"},{"date":"2020.09.04","time":"06:27:48","latitude":"36.9372","longitude":"27.3533","depth":"17.1","md":"-.-","ml":"1.1","mw":"-.-","location":"GOKOVA KORFEZI (AKDENIZ)"},{"date":"2020.09.04","time":"05:43:32","latitude":"37.0365","longitude":"30.3390","depth":"5.0","md":"-.-","ml":"1.8","mw":"-.-","location":"ESENYURT-KORKUTELI (ANTALYA)"},{"date":"2020.09.04","time":"05:39:29","latitude":"38.4713","longitude":"25.8227","depth":"5.0","md":"-.-","ml":"1.9","mw":"-.-","location":"SAKIZ ADASI (EGE DENIZI)"},{"date":"2020.09.04","time":"05:26:55","latitude":"35.2017","longitude":"25.9203","depth":"1.2","md":"-.-","ml":"2.3","mw":"-.-","location":"GIRIT ADASI (AKDENIZ)"},{"date":"2020.09.04","time":"05:15:49","latitude":"36.9227","longitude":"27.3440","depth":"8.7","md":"-.-","ml":"2.4","mw":"-.-","location":"GOKOVA KORFEZI (AKDENIZ)"},{"date":"2020.09.04","time":"05:15:30","latitude":"35.3840","longitude":"27.7128","depth":"19.2","md":"-.-","ml":"2.8","mw":"-.-","location":"AKDENIZ"},{"date":"2020.09.04","time":"05:01:08","latitude":"38.4442","longitude":"39.2580","depth":"14.1","md":"-.-","ml":"1.4","mw":"-.-","location":"DUZBAHCE-SIVRICE (ELAZIG)"},{"date":"2020.09.04","time":"04:54:44","latitude":"36.6510","longitude":"26.2257","depth":"9.1","md":"-.-","ml":"1.6","mw":"-.-","location":"AKDENIZ"},{"date":"2020.09.04","time":"04:38:07","latitude":"38.4608","longitude":"39.1532","depth":"12.6","md":"-.-","ml":"1.4","mw":"-.-","location":"KAVALLI-SIVRICE (ELAZIG)"},{"date":"2020.09.04","time":"02:47:08","latitude":"40.7088","longitude":"31.6633","depth":"5.0","md":"-.-","ml":"1.8","mw":"-.-","location":"ORENCIK-(BOLU)"},{"date":"2020.09.04","time":"01:41:14","latitude":"35.5497","longitude":"27.6053","depth":"6.3","md":"-.-","ml":"4.0","mw":"4.1","location":"AKDENIZ"},{"date":"2020.09.04","time":"00:54:09","latitude":"36.9388","longitude":"27.3442","depth":"3.5","md":"-.-","ml":"2.2","mw":"-.-","location":"GOKOVA KORFEZI (AKDENIZ)"},{"date":"2020.09.04","time":"00:42:52","latitude":"39.4392","longitude":"41.0953","depth":"23.5","md":"-.-","ml":"1.1","mw":"-.-","location":"BAYINDIR-CAT (ERZURUM)"},{"date":"2020.09.04","time":"00:38:58","latitude":"38.7030","longitude":"42.0450","depth":"6.2","md":"-.-","ml":"1.8","mw":"-.-","location":"YOLGOZLER-KORKUT (MUS)"},{"date":"2020.09.04","time":"00:26:04","latitude":"39.6578","longitude":"38.8383","depth":"5.0","md":"-.-","ml":"1.8","mw":"-.-","location":"GEDIKTEPE-KEMAH (ERZINCAN)"},{"date":"2020.09.04","time":"00:25:09","latitude":"39.6040","longitude":"44.0793","depth":"9.0","md":"-.-","ml":"2.1","mw":"-.-","location":"KARACA-DOGUBAYAZIT (AGRI)"},{"date":"2020.09.03","time":"23:56:53","latitude":"38.0672","longitude":"38.6010","depth":"5.2","md":"-.-","ml":"2.9","mw":"-.-","location":"SAKIZ-SINCIK (ADIYAMAN)"},{"date":"2020.09.03","time":"23:49:40","latitude":"35.7452","longitude":"28.1385","depth":"5.0","md":"-.-","ml":"1.6","mw":"-.-","location":"AKDENIZ"},{"date":"2020.09.03","time":"23:14:43","latitude":"34.3377","longitude":"26.1633","depth":"22.3","md":"-.-","ml":"2.7","mw":"-.-","location":"GIRIT ADASI ACIKLARI (AKDENIZ)"},{"date":"2020.09.03","time":"22:14:19","latitude":"37.3565","longitude":"29.6338","depth":"10.8","md":"-.-","ml":"1.8","mw":"-.-","location":"BELKAYA-TEFENNI (BURDUR)"},{"date":"2020.09.03","time":"21:41:08","latitude":"36.3148","longitude":"30.8528","depth":"6.5","md":"-.-","ml":"1.7","mw":"-.-","location":"ANTALYA KORFEZI (AKDENIZ)"},{"date":"2020.09.03","time":"21:25:44","latitude":"40.3287","longitude":"27.4487","depth":"3.7","md":"-.-","ml":"1.7","mw":"-.-","location":"GERLENGEC-BIGA (CANAKKALE)"},{"date":"2020.09.03","time":"21:18:19","latitude":"37.5240","longitude":"43.7810","depth":"8.5","md":"-.-","ml":"2.4","mw":"-.-","location":"AGACDIBI-(HAKKARI)"},{"date":"2020.09.03","time":"20:37:10","latitude":"35.5237","longitude":"27.8507","depth":"9.0","md":"-.-","ml":"2.6","mw":"-.-","location":"AKDENIZ"},{"date":"2020.09.03","time":"20:27:53","latitude":"36.7060","longitude":"27.3102","depth":"12.0","md":"-.-","ml":"2.8","mw":"-.-","location":"DATCA ACIKLARI-MUGLA (AKDENIZ)"},{"date":"2020.09.03","time":"18:55:29","latitude":"39.9287","longitude":"42.3950","depth":"15.3","md":"-.-","ml":"2.2","mw":"-.-","location":"HACIHALIL-HORASAN (ERZURUM)"},{"date":"2020.09.03","time":"18:54:35","latitude":"35.7333","longitude":"27.0570","depth":"2.0","md":"-.-","ml":"1.9","mw":"-.-","location":"AKDENIZ"},{"date":"2020.09.03","time":"18:46:14","latitude":"35.3015","longitude":"27.7605","depth":"9.7","md":"-.-","ml":"2.2","mw":"-.-","location":"AKDENIZ"},{"date":"2020.09.03","time":"18:07:34","latitude":"38.1448","longitude":"23.8682","depth":"5.0","md":"-.-","ml":"4.1","mw":"4.3","location":"YUNANISTAN"},{"date":"2020.09.03","time":"17:41:46","latitude":"38.3043","longitude":"39.0323","depth":"10.4","md":"-.-","ml":"1.1","mw":"-.-","location":"DOGANYOL (MALATYA)"},{"date":"2020.09.03","time":"17:19:06","latitude":"38.2550","longitude":"38.8650","depth":"16.1","md":"-.-","ml":"2.0","mw":"-.-","location":"CENGELLI-PUTURGE (MALATYA)"},{"date":"2020.09.03","time":"15:39:44","latitude":"36.6005","longitude":"28.4598","depth":"54.5","md":"-.-","ml":"2.8","mw":"-.-","location":"AKDENIZ"},{"date":"2020.09.03","time":"12:39:04","latitude":"39.8367","longitude":"33.2557","depth":"3.8","md":"-.-","ml":"2.5","mw":"-.-","location":"KARACAHASAN-ELMADAG (ANKARA)"},{"date":"2020.09.03","time":"12:33:25","latitude":"37.2318","longitude":"35.4203","depth":"5.0","md":"-.-","ml":"3.0","mw":"3.2","location":"MALTEPE-SARICAM (ADANA)"},{"date":"2020.09.03","time":"09:02:36","latitude":"38.1857","longitude":"31.1963","depth":"30.7","md":"-.-","ml":"1.7","mw":"-.-","location":"CETINCE-YALVAC (ISPARTA)"},{"date":"2020.09.03","time":"08:40:12","latitude":"35.1233","longitude":"27.7472","depth":"5.5","md":"-.-","ml":"2.3","mw":"-.-","location":"AKDENIZ"},{"date":"2020.09.03","time":"08:04:04","latitude":"35.3535","longitude":"27.7573","depth":"13.1","md":"-.-","ml":"3.0","mw":"-.-","location":"AKDENIZ"},{"date":"2020.09.03","time":"07:36:04","latitude":"39.4182","longitude":"26.2532","depth":"9.1","md":"-.-","ml":"2.2","mw":"-.-","location":"MIDILLI ADASI (EGE DENIZI)"},{"date":"2020.09.03","time":"07:18:59","latitude":"35.3525","longitude":"27.7640","depth":"13.2","md":"-.-","ml":"3.7","mw":"3.7","location":"AKDENIZ"},{"date":"2020.09.03","time":"06:45:40","latitude":"35.2963","longitude":"27.7872","depth":"10.0","md":"-.-","ml":"2.9","mw":"-.-","location":"AKDENIZ"},{"date":"2020.09.03","time":"06:24:00","latitude":"36.8593","longitude":"27.5763","depth":"2.2","md":"-.-","ml":"1.3","mw":"-.-","location":"GOKOVA KORFEZI (AKDENIZ)"},{"date":"2020.09.03","time":"06:23:46","latitude":"39.5745","longitude":"26.0468","depth":"6.5","md":"-.-","ml":"1.8","mw":"-.-","location":"GULPINAR-AYVACIK (CANAKKALE)"},{"date":"2020.09.03","time":"04:45:34","latitude":"35.6687","longitude":"26.6387","depth":"5.0","md":"-.-","ml":"1.5","mw":"-.-","location":"AKDENIZ"},{"date":"2020.09.03","time":"04:25:34","latitude":"38.7328","longitude":"41.9718","depth":"1.5","md":"-.-","ml":"2.1","mw":"-.-","location":"SARMASIK-KORKUT (MUS)"},{"date":"2020.09.03","time":"04:15:10","latitude":"39.4748","longitude":"26.2112","depth":"5.3","md":"-.-","ml":"2.2","mw":"-.-","location":"KOYUNEVI-AYVACIK (CANAKKALE)"},{"date":"2020.09.03","time":"03:05:37","latitude":"39.4568","longitude":"26.2778","depth":"5.4","md":"-.-","ml":"2.2","mw":"-.-","location":"EDREMIT KORFEZI (EGE DENIZI)"},{"date":"2020.09.03","time":"02:55:13","latitude":"38.3042","longitude":"39.0527","depth":"12.8","md":"-.-","ml":"1.7","mw":"-.-","location":"DOGANYOL (MALATYA)"},{"date":"2020.09.03","time":"02:38:10","latitude":"35.8207","longitude":"27.3850","depth":"7.5","md":"-.-","ml":"1.6","mw":"-.-","location":"AKDENIZ"},{"date":"2020.09.03","time":"01:57:14","latitude":"39.0155","longitude":"27.8822","depth":"16.7","md":"-.-","ml":"1.4","mw":"-.-","location":"DINGILLER-AKHISAR (MANISA)"},{"date":"2020.09.03","time":"01:48:12","latitude":"39.4663","longitude":"26.2408","depth":"5.4","md":"-.-","ml":"2.4","mw":"-.-","location":"BEKTAS-AYVACIK (CANAKKALE)"},{"date":"2020.09.03","time":"01:45:51","latitude":"38.5943","longitude":"41.8970","depth":"25.8","md":"-.-","ml":"1.4","mw":"-.-","location":"ORTANCA-HASKOY (MUS)"},{"date":"2020.09.03","time":"01:21:07","latitude":"38.2177","longitude":"27.0725","depth":"1.5","md":"-.-","ml":"1.2","mw":"-.-","location":"YENIKOY-MENDERES (IZMIR)"},{"date":"2020.09.03","time":"01:08:32","latitude":"38.7372","longitude":"41.9705","depth":"5.0","md":"-.-","ml":"3.8","mw":"3.8","location":"SARMASIK-KORKUT (MUS)"},{"date":"2020.09.03","time":"00:01:28","latitude":"36.7348","longitude":"26.9815","depth":"5.2","md":"-.-","ml":"1.6","mw":"-.-","location":"KOS ADASI (AKDENIZ)"},{"date":"2020.09.02","time":"23:25:51","latitude":"38.9602","longitude":"29.9562","depth":"7.6","md":"-.-","ml":"2.3","mw":"-.-","location":"YESILYURT-ALTINTAS (KUTAHYA)"},{"date":"2020.09.02","time":"22:55:17","latitude":"39.9740","longitude":"27.7940","depth":"16.0","md":"-.-","ml":"1.5","mw":"-.-","location":"KARAKABAAGAC-MANYAS (BALIKESIR)"},{"date":"2020.09.02","time":"21:59:06","latitude":"39.2242","longitude":"25.9915","depth":"11.3","md":"-.-","ml":"2.1","mw":"-.-","location":"MIDILLI ADASI (EGE DENIZI)"},{"date":"2020.09.02","time":"21:01:39","latitude":"39.2928","longitude":"29.4632","depth":"11.8","md":"-.-","ml":"1.8","mw":"-.-","location":"CERTE-EMET (KUTAHYA)"},{"date":"2020.09.02","time":"20:50:49","latitude":"37.9957","longitude":"28.8403","depth":"18.5","md":"-.-","ml":"1.6","mw":"-.-","location":"BOSTANYERI-BULDAN (DENIZLI)"},{"date":"2020.09.02","time":"20:42:08","latitude":"38.6768","longitude":"43.5095","depth":"5.0","md":"-.-","ml":"2.5","mw":"-.-","location":"KOZLUCA-(VAN)"},{"date":"2020.09.02","time":"19:49:43","latitude":"37.1983","longitude":"35.4218","depth":"9.1","md":"-.-","ml":"1.7","mw":"-.-","location":"EGECIUSAGI-SARICAM (ADANA)"},{"date":"2020.09.02","time":"19:24:44","latitude":"37.5813","longitude":"35.7127","depth":"5.4","md":"-.-","ml":"2.3","mw":"-.-","location":"KUYTUCAK-KOZAN (ADANA)"},{"date":"2020.09.02","time":"18:50:43","latitude":"39.3840","longitude":"40.6552","depth":"7.0","md":"-.-","ml":"2.1","mw":"-.-","location":"ELMALI-YEDISU (BINGOL)"},{"date":"2020.09.02","time":"17:09:47","latitude":"38.1245","longitude":"32.5592","depth":"0.0","md":"-.-","ml":"1.1","mw":"-.-","location":"CALTI-SELCUKLU (KONYA)"},{"date":"2020.09.02","time":"16:55:47","latitude":"37.2418","longitude":"35.4367","depth":"9.6","md":"-.-","ml":"2.9","mw":"-.-","location":"MALIHIDIRLI-IMAMOGLU (ADANA)"},{"date":"2020.09.02","time":"16:48:45","latitude":"38.4858","longitude":"39.2885","depth":"5.4","md":"-.-","ml":"2.6","mw":"-.-","location":"BEKCITEPE-SIVRICE (ELAZIG)"},{"date":"2020.09.02","time":"16:35:10","latitude":"38.4135","longitude":"42.2948","depth":"6.6","md":"-.-","ml":"2.5","mw":"-.-","location":"KIRKBULAK-TATVAN (BITLIS)"},{"date":"2020.09.02","time":"16:20:26","latitude":"39.9597","longitude":"29.5625","depth":"5.0","md":"-.-","ml":"1.8","mw":"-.-","location":"HAYRIYE-INEGOL (BURSA)"},{"date":"2020.09.02","time":"15:26:34","latitude":"39.1592","longitude":"27.5267","depth":"0.0","md":"-.-","ml":"1.6","mw":"-.-","location":"AVDAN-SOMA (MANISA)"},{"date":"2020.09.02","time":"13:50:44","latitude":"39.2703","longitude":"27.4518","depth":"19.8","md":"-.-","ml":"1.9","mw":"-.-","location":"MURATLAR-BERGAMA (IZMIR)"},{"date":"2020.09.02","time":"13:40:24","latitude":"39.1290","longitude":"27.5108","depth":"0.0","md":"-.-","ml":"1.1","mw":"-.-","location":"HACIYUSUF-SOMA (MANISA)"},{"date":"2020.09.02","time":"12:31:17","latitude":"39.6427","longitude":"29.3253","depth":"12.2","md":"-.-","ml":"1.6","mw":"-.-","location":"DERBENT-TAVSANLI (KUTAHYA)"},{"date":"2020.09.02","time":"12:22:37","latitude":"39.4702","longitude":"26.2038","depth":"4.1","md":"-.-","ml":"1.5","mw":"-.-","location":"KOYUNEVI-AYVACIK (CANAKKALE)"},{"date":"2020.09.02","time":"12:09:10","latitude":"37.2477","longitude":"28.2028","depth":"0.0","md":"-.-","ml":"1.8","mw":"-.-","location":"PASAPINARI-(MUGLA)"},{"date":"2020.09.02","time":"12:01:39","latitude":"37.1688","longitude":"27.8528","depth":"0.0","md":"-.-","ml":"1.4","mw":"-.-","location":"IKIZKOY-MILAS (MUGLA)"},{"date":"2020.09.02","time":"11:48:29","latitude":"37.1775","longitude":"27.8440","depth":"0.0","md":"-.-","ml":"1.3","mw":"-.-","location":"IKIZKOY-MILAS (MUGLA)"},{"date":"2020.09.02","time":"11:47:04","latitude":"37.2657","longitude":"28.2355","depth":"0.0","md":"-.-","ml":"1.8","mw":"-.-","location":"SALIHPASALAR-(MUGLA)"},{"date":"2020.09.02","time":"11:23:54","latitude":"39.4832","longitude":"26.2807","depth":"3.9","md":"-.-","ml":"2.2","mw":"-.-","location":"KURUOBA-AYVACIK (CANAKKALE)"},{"date":"2020.09.02","time":"10:55:22","latitude":"38.4738","longitude":"39.2607","depth":"5.6","md":"-.-","ml":"2.7","mw":"-.-","location":"ALINCIK-SIVRICE (ELAZIG)"},{"date":"2020.09.02","time":"10:42:53","latitude":"39.5443","longitude":"28.2143","depth":"15.7","md":"-.-","ml":"1.5","mw":"-.-","location":"AKCAKERTIL-KEPSUT (BALIKESIR)"},{"date":"2020.09.02","time":"10:25:19","latitude":"39.5735","longitude":"26.1238","depth":"1.9","md":"-.-","ml":"2.0","mw":"-.-","location":"TUZLA-AYVACIK (CANAKKALE)"},{"date":"2020.09.02","time":"10:01:36","latitude":"39.3948","longitude":"26.6153","depth":"7.9","md":"-.-","ml":"1.9","mw":"-.-","location":"EDREMIT KORFEZI (EGE DENIZI)"},{"date":"2020.09.02","time":"09:45:17","latitude":"39.3230","longitude":"26.2235","depth":"5.2","md":"-.-","ml":"1.7","mw":"-.-","location":"MIDILLI ADASI (EGE DENIZI)"},{"date":"2020.09.02","time":"09:44:14","latitude":"39.7933","longitude":"26.1888","depth":"0.0","md":"-.-","ml":"1.5","mw":"-.-","location":"GEYIKLI-EZINE (CANAKKALE)"},{"date":"2020.09.02","time":"09:29:19","latitude":"39.4353","longitude":"26.3592","depth":"5.0","md":"-.-","ml":"1.9","mw":"-.-","location":"EDREMIT KORFEZI (EGE DENIZI)"},{"date":"2020.09.02","time":"09:18:53","latitude":"39.4572","longitude":"26.2697","depth":"6.8","md":"-.-","ml":"2.0","mw":"-.-","location":"EDREMIT KORFEZI (EGE DENIZI)"},{"date":"2020.09.02","time":"08:33:26","latitude":"39.4470","longitude":"26.2157","depth":"19.1","md":"-.-","ml":"1.7","mw":"-.-","location":"KOYUNEVI-AYVACIK (CANAKKALE)"},{"date":"2020.09.02","time":"07:26:05","latitude":"39.4495","longitude":"26.2157","depth":"12.5","md":"-.-","ml":"1.8","mw":"-.-","location":"KOYUNEVI-AYVACIK (CANAKKALE)"},{"date":"2020.09.02","time":"07:04:32","latitude":"39.4912","longitude":"26.2245","depth":"3.4","md":"-.-","ml":"1.6","mw":"-.-","location":"BEKTAS-AYVACIK (CANAKKALE)"},{"date":"2020.09.02","time":"06:02:32","latitude":"39.4763","longitude":"26.2427","depth":"6.6","md":"-.-","ml":"1.7","mw":"-.-","location":"BEKTAS-AYVACIK (CANAKKALE)"},{"date":"2020.09.02","time":"05:36:54","latitude":"36.3643","longitude":"28.7577","depth":"9.9","md":"-.-","ml":"1.5","mw":"-.-","location":"AKDENIZ"},{"date":"2020.09.02","time":"04:03:47","latitude":"39.4773","longitude":"26.2075","depth":"10.6","md":"-.-","ml":"1.5","mw":"-.-","location":"KOYUNEVI-AYVACIK (CANAKKALE)"},{"date":"2020.09.02","time":"03:37:24","latitude":"39.4718","longitude":"26.2120","depth":"14.5","md":"-.-","ml":"1.4","mw":"-.-","location":"KOYUNEVI-AYVACIK (CANAKKALE)"},{"date":"2020.09.02","time":"03:18:44","latitude":"39.4632","longitude":"26.2265","depth":"5.2","md":"-.-","ml":"2.1","mw":"-.-","location":"BEKTAS-AYVACIK (CANAKKALE)"},{"date":"2020.09.02","time":"03:15:09","latitude":"39.1220","longitude":"29.0182","depth":"9.1","md":"-.-","ml":"1.4","mw":"-.-","location":"KAPIKAYA-SIMAV (KUTAHYA)"},{"date":"2020.09.02","time":"03:08:14","latitude":"39.4593","longitude":"26.2518","depth":"12.0","md":"-.-","ml":"1.6","mw":"-.-","location":"BEKTAS-AYVACIK (CANAKKALE)"},{"date":"2020.09.02","time":"02:11:32","latitude":"37.3770","longitude":"37.4492","depth":"1.2","md":"-.-","ml":"1.0","mw":"-.-","location":"YENIYURT-YAVUZELI (GAZIANTEP)"},{"date":"2020.09.02","time":"02:05:34","latitude":"39.4735","longitude":"26.2378","depth":"9.5","md":"-.-","ml":"1.4","mw":"-.-","location":"BEKTAS-AYVACIK (CANAKKALE)"},{"date":"2020.09.02","time":"02:01:30","latitude":"38.4030","longitude":"30.2573","depth":"16.1","md":"-.-","ml":"2.0","mw":"-.-","location":"GOKCEALAN-SANDIKLI (AFYONKARAHISAR)"},{"date":"2020.09.02","time":"01:54:31","latitude":"36.5552","longitude":"28.7348","depth":"20.4","md":"-.-","ml":"1.3","mw":"-.-","location":"AKDENIZ"},{"date":"2020.09.02","time":"01:53:51","latitude":"38.4270","longitude":"30.2167","depth":"4.8","md":"-.-","ml":"1.9","mw":"-.-","location":"KOCHISAR-SANDIKLI (AFYONKARAHISAR)"},{"date":"2020.09.02","time":"01:49:28","latitude":"35.3478","longitude":"27.7693","depth":"9.2","md":"-.-","ml":"2.0","mw":"-.-","location":"AKDENIZ"},{"date":"2020.09.02","time":"01:47:01","latitude":"35.3290","longitude":"27.7698","depth":"9.7","md":"-.-","ml":"3.6","mw":"3.6","location":"AKDENIZ"},{"date":"2020.09.02","time":"01:17:19","latitude":"40.6767","longitude":"27.4727","depth":"11.2","md":"-.-","ml":"2.1","mw":"-.-","location":"GUZELKOY ACIKLARI-TEKIRDAG (MARMARA DENIZI)"},{"date":"2020.09.01","time":"23:48:57","latitude":"39.4795","longitude":"26.2438","depth":"6.1","md":"-.-","ml":"2.7","mw":"-.-","location":"BEKTAS-AYVACIK (CANAKKALE)"},{"date":"2020.09.01","time":"23:37:00","latitude":"38.4793","longitude":"26.8265","depth":"4.9","md":"-.-","ml":"2.1","mw":"-.-","location":"IZMIR KORFEZI (EGE DENIZI)"},{"date":"2020.09.01","time":"23:35:03","latitude":"38.1840","longitude":"38.7133","depth":"12.4","md":"-.-","ml":"2.1","mw":"-.-","location":"KORME-PUTURGE (MALATYA)"},{"date":"2020.09.01","time":"21:21:04","latitude":"38.4408","longitude":"39.2447","depth":"9.3","md":"-.-","ml":"2.3","mw":"-.-","location":"KURKKOY-SIVRICE (ELAZIG)"},{"date":"2020.09.01","time":"21:20:38","latitude":"39.4770","longitude":"26.2552","depth":"5.5","md":"-.-","ml":"2.7","mw":"-.-","location":"KURUOBA-AYVACIK (CANAKKALE)"},{"date":"2020.09.01","time":"20:35:03","latitude":"38.4933","longitude":"26.8042","depth":"2.5","md":"-.-","ml":"2.6","mw":"-.-","location":"IZMIR KORFEZI (EGE DENIZI)"},{"date":"2020.09.01","time":"15:43:49","latitude":"38.3615","longitude":"39.2345","depth":"10.2","md":"-.-","ml":"1.5","mw":"-.-","location":"YUKARICANAKCI-SIVRICE (ELAZIG)"},{"date":"2020.09.01","time":"15:01:37","latitude":"37.6518","longitude":"35.5560","depth":"10.8","md":"-.-","ml":"2.5","mw":"-.-","location":"KOPRUCUK-ALADAG (ADANA)"},{"date":"2020.09.01","time":"14:02:35","latitude":"40.2757","longitude":"30.7892","depth":"6.1","md":"-.-","ml":"1.8","mw":"-.-","location":"BOLUCEKOVA-GOYNUK (BOLU)"},{"date":"2020.09.01","time":"13:31:12","latitude":"38.1527","longitude":"38.5985","depth":"10.0","md":"-.-","ml":"2.7","mw":"-.-","location":"TEKEDERESI-PUTURGE (MALATYA)"},{"date":"2020.09.01","time":"13:12:31","latitude":"38.8432","longitude":"43.4920","depth":"1.9","md":"-.-","ml":"2.3","mw":"-.-","location":"KARAAGAC-(VAN)"},{"date":"2020.09.01","time":"13:09:35","latitude":"39.6430","longitude":"30.6900","depth":"0.0","md":"-.-","ml":"1.7","mw":"-.-","location":"KIRAVDAN-ODUNPAZARI (ESKISEHIR)"},{"date":"2020.09.01","time":"12:56:15","latitude":"38.8648","longitude":"43.5103","depth":"23.3","md":"-.-","ml":"2.0","mw":"-.-","location":"ERMISLER-(VAN)"},{"date":"2020.09.01","time":"12:55:56","latitude":"37.2680","longitude":"27.8852","depth":"0.0","md":"-.-","ml":"1.3","mw":"-.-","location":"CAMLIBELEN-MILAS (MUGLA)"},{"date":"2020.09.01","time":"12:08:46","latitude":"37.3030","longitude":"27.8547","depth":"18.3","md":"-.-","ml":"1.8","mw":"-.-","location":"TUZABAT-MILAS (MUGLA)"},{"date":"2020.09.01","time":"12:06:29","latitude":"39.5232","longitude":"26.1358","depth":"7.4","md":"-.-","ml":"1.9","mw":"-.-","location":"GULPINAR-AYVACIK (CANAKKALE)"},{"date":"2020.09.01","time":"11:55:43","latitude":"39.5013","longitude":"26.2370","depth":"5.2","md":"-.-","ml":"2.4","mw":"-.-","location":"BEKTAS-AYVACIK (CANAKKALE)"},{"date":"2020.09.01","time":"11:43:33","latitude":"37.5912","longitude":"29.2013","depth":"0.0","md":"-.-","ml":"1.4","mw":"-.-","location":"SARIABAT-TAVAS (DENIZLI)"},{"date":"2020.09.01","time":"11:42:15","latitude":"39.4895","longitude":"26.2787","depth":"1.1","md":"-.-","ml":"2.7","mw":"-.-","location":"KURUOBA-AYVACIK (CANAKKALE)"},{"date":"2020.09.01","time":"11:29:17","latitude":"39.4957","longitude":"26.2565","depth":"4.4","md":"-.-","ml":"2.7","mw":"-.-","location":"KURUOBA-AYVACIK (CANAKKALE)"},{"date":"2020.09.01","time":"11:16:54","latitude":"39.5612","longitude":"26.3177","depth":"8.7","md":"-.-","ml":"2.7","mw":"-.-","location":"ERECEK-AYVACIK (CANAKKALE)"},{"date":"2020.09.01","time":"09:27:41","latitude":"38.3868","longitude":"39.0028","depth":"6.1","md":"-.-","ml":"3.3","mw":"3.2","location":"TASLIYAYLA-SIVRICE (ELAZIG)"},{"date":"2020.09.01","time":"08:06:41","latitude":"34.1798","longitude":"25.7668","depth":"86.7","md":"-.-","ml":"3.5","mw":"-.-","location":"GIRIT ADASI ACIKLARI (AKDENIZ)"},{"date":"2020.09.01","time":"06:44:11","latitude":"40.8472","longitude":"27.7180","depth":"19.1","md":"-.-","ml":"2.0","mw":"-.-","location":"MARMARA DENIZI"},{"date":"2020.09.01","time":"06:02:25","latitude":"39.3425","longitude":"40.3113","depth":"9.1","md":"-.-","ml":"2.2","mw":"-.-","location":"KIGI (BINGOL)"},{"date":"2020.09.01","time":"05:06:45","latitude":"37.1343","longitude":"30.3843","depth":"2.2","md":"-.-","ml":"2.0","mw":"-.-","location":"KOSELER-KORKUTELI (ANTALYA)"},{"date":"2020.09.01","time":"04:29:54","latitude":"38.8442","longitude":"25.0492","depth":"13.6","md":"-.-","ml":"2.5","mw":"-.-","location":"EGE DENIZI"},{"date":"2020.09.01","time":"04:11:51","latitude":"36.4558","longitude":"29.4382","depth":"28.2","md":"-.-","ml":"1.7","mw":"-.-","location":"ARSAKOY-FETHIYE (MUGLA)"},{"date":"2020.09.01","time":"03:59:06","latitude":"44.0357","longitude":"39.1318","depth":"20.5","md":"-.-","ml":"4.0","mw":"-.-","location":"RUSYA"},{"date":"2020.09.01","time":"02:54:57","latitude":"37.4378","longitude":"29.4523","depth":"6.7","md":"-.-","ml":"2.1","mw":"-.-","location":"YENIKOY-ACIPAYAM (DENIZLI)"},{"date":"2020.09.01","time":"02:33:01","latitude":"38.4023","longitude":"39.3198","depth":"19.0","md":"-.-","ml":"1.1","mw":"-.-","location":"ALAATTINKOY-SIVRICE (ELAZIG)"},{"date":"2020.09.01","time":"00:34:40","latitude":"39.0260","longitude":"27.8612","depth":"7.3","md":"-.-","ml":"3.0","mw":"3.0","location":"MUSALAR-AKHISAR (MANISA)"},{"date":"2020.09.01","time":"00:03:47","latitude":"37.3925","longitude":"29.4608","depth":"4.4","md":"-.-","ml":"2.6","mw":"-.-","location":"YUMRUTAS-ACIPAYAM (DENIZLI)"},{"date":"2020.08.31","time":"23:14:16","latitude":"34.9233","longitude":"25.6813","depth":"109.2","md":"-.-","ml":"2.5","mw":"-.-","location":"GIRIT ADASI (AKDENIZ)"},{"date":"2020.08.31","time":"23:07:28","latitude":"39.5257","longitude":"26.2383","depth":"5.0","md":"-.-","ml":"1.3","mw":"-.-","location":"KORUBASI-AYVACIK (CANAKKALE)"},{"date":"2020.08.31","time":"23:02:35","latitude":"38.8362","longitude":"26.5328","depth":"5.9","md":"-.-","ml":"1.6","mw":"-.-","location":"EGE DENIZI"},{"date":"2020.08.31","time":"22:58:41","latitude":"34.5392","longitude":"25.5648","depth":"78.1","md":"-.-","ml":"3.7","mw":"3.9","location":"GIRIT ADASI ACIKLARI (AKDENIZ)"},{"date":"2020.08.31","time":"22:26:57","latitude":"38.0187","longitude":"42.9982","depth":"7.3","md":"-.-","ml":"1.9","mw":"-.-","location":"CILGA-CATAK (VAN)"},{"date":"2020.08.31","time":"21:32:56","latitude":"40.4400","longitude":"28.0992","depth":"10.2","md":"-.-","ml":"2.6","mw":"-.-","location":"BANDIRMA KORFEZI (MARMARA DENIZI)"},{"date":"2020.08.31","time":"21:32:25","latitude":"40.7270","longitude":"29.0763","depth":"5.2","md":"-.-","ml":"2.0","mw":"-.-","location":"CINARCIK ACIKLARI-YALOVA (MARMARA DENIZI)"},{"date":"2020.08.31","time":"19:52:04","latitude":"40.5223","longitude":"32.7505","depth":"3.9","md":"-.-","ml":"2.4","mw":"-.-","location":"CUKURCA-KIZILCAHAMAM (ANKARA)"},{"date":"2020.08.31","time":"17:52:54","latitude":"36.4170","longitude":"29.4500","depth":"17.5","md":"-.-","ml":"1.7","mw":"-.-","location":"YAYLAPALAMUT-KAS (ANTALYA)"},{"date":"2020.08.31","time":"16:56:42","latitude":"37.3862","longitude":"29.4365","depth":"12.8","md":"-.-","ml":"2.7","mw":"-.-","location":"YENIKOY-ACIPAYAM (DENIZLI)"},{"date":"2020.08.31","time":"16:39:27","latitude":"34.8382","longitude":"26.9092","depth":"9.5","md":"-.-","ml":"3.6","mw":"3.5","location":"GIRIT ADASI ACIKLARI (AKDENIZ)"},{"date":"2020.08.31","time":"16:05:13","latitude":"38.8683","longitude":"44.4010","depth":"5.0","md":"-.-","ml":"2.4","mw":"-.-","location":"TURKIYE-IRAN SINIR BOLGESI"},{"date":"2020.08.31","time":"15:51:51","latitude":"37.3690","longitude":"29.4607","depth":"8.0","md":"-.-","ml":"3.0","mw":"3.1","location":"BEDIRBEY-ACIPAYAM (DENIZLI)"},{"date":"2020.08.31","time":"15:20:22","latitude":"38.5833","longitude":"28.0345","depth":"10.8","md":"-.-","ml":"1.7","mw":"-.-","location":"TEKELIOGLU-SALIHLI (MANISA)"},{"date":"2020.08.31","time":"15:17:07","latitude":"36.9087","longitude":"27.6398","depth":"14.8","md":"-.-","ml":"1.5","mw":"-.-","location":"GOKOVA KORFEZI (AKDENIZ)"},{"date":"2020.08.31","time":"14:24:36","latitude":"37.3740","longitude":"29.4727","depth":"6.2","md":"-.-","ml":"1.8","mw":"-.-","location":"YUMRUTAS-ACIPAYAM (DENIZLI)"},{"date":"2020.08.31","time":"14:20:28","latitude":"39.4587","longitude":"26.2635","depth":"6.1","md":"-.-","ml":"2.7","mw":"-.-","location":"EDREMIT KORFEZI (EGE DENIZI)"},{"date":"2020.08.31","time":"13:51:54","latitude":"38.5578","longitude":"43.8610","depth":"6.1","md":"-.-","ml":"2.4","mw":"-.-","location":"YUKARICAVDARLIK-OZALP (VAN)"},{"date":"2020.08.31","time":"13:05:45","latitude":"39.9297","longitude":"33.1647","depth":"0.0","md":"-.-","ml":"1.6","mw":"-.-","location":"ELMADAG (ANKARA)"},{"date":"2020.08.31","time":"12:56:17","latitude":"37.1843","longitude":"27.8823","depth":"0.0","md":"-.-","ml":"1.5","mw":"-.-","location":"KARACAAGAC-MILAS (MUGLA)"},{"date":"2020.08.31","time":"12:51:39","latitude":"36.2835","longitude":"28.5298","depth":"17.5","md":"-.-","ml":"1.9","mw":"-.-","location":"AKDENIZ"},{"date":"2020.08.31","time":"12:36:48","latitude":"35.2980","longitude":"33.4780","depth":"0.0","md":"-.-","ml":"1.2","mw":"-.-","location":"KIBRIS-BESPARMAK"},{"date":"2020.08.31","time":"12:25:48","latitude":"39.4008","longitude":"26.2927","depth":"5.8","md":"-.-","ml":"1.6","mw":"-.-","location":"EDREMIT KORFEZI (EGE DENIZI)"},{"date":"2020.08.31","time":"12:22:42","latitude":"39.9032","longitude":"28.8455","depth":"0.0","md":"-.-","ml":"1.2","mw":"-.-","location":"DUNDAR-ORHANELI (BURSA)"},{"date":"2020.08.31","time":"12:01:55","latitude":"37.2243","longitude":"28.2002","depth":"0.0","md":"-.-","ml":"1.7","mw":"-.-","location":"PASAPINARI-(MUGLA)"},{"date":"2020.08.31","time":"11:58:54","latitude":"36.3740","longitude":"36.1367","depth":"6.9","md":"-.-","ml":"1.8","mw":"-.-","location":"TAHTAKOPRU-(HATAY)"},{"date":"2020.08.31","time":"11:50:05","latitude":"38.7483","longitude":"30.1592","depth":"10.8","md":"-.-","ml":"1.9","mw":"-.-","location":"TOKUSLAR-SINANPASA (AFYONKARAHISAR)"},{"date":"2020.08.31","time":"11:41:11","latitude":"39.4988","longitude":"26.2728","depth":"2.5","md":"-.-","ml":"2.7","mw":"-.-","location":"KURUOBA-AYVACIK (CANAKKALE)"},{"date":"2020.08.31","time":"11:37:32","latitude":"39.0997","longitude":"29.0500","depth":"12.0","md":"-.-","ml":"1.5","mw":"-.-","location":"GOKCELER-SIMAV (KUTAHYA)"},{"date":"2020.08.31","time":"11:09:57","latitude":"39.3250","longitude":"29.2998","depth":"0.0","md":"-.-","ml":"1.7","mw":"-.-","location":"BAHATLAR-EMET (KUTAHYA)"},{"date":"2020.08.31","time":"10:59:02","latitude":"39.4905","longitude":"26.2748","depth":"2.4","md":"-.-","ml":"2.6","mw":"-.-","location":"KURUOBA-AYVACIK (CANAKKALE)"},{"date":"2020.08.31","time":"10:48:06","latitude":"39.8548","longitude":"43.9777","depth":"5.0","md":"-.-","ml":"2.6","mw":"-.-","location":"HALFELI-(IGDIR)"},{"date":"2020.08.31","time":"10:42:41","latitude":"39.9718","longitude":"28.8622","depth":"0.0","md":"-.-","ml":"1.5","mw":"-.-","location":"KARINCALI-ORHANELI (BURSA)"},{"date":"2020.08.31","time":"10:26:29","latitude":"39.7275","longitude":"26.2462","depth":"0.0","md":"-.-","ml":"1.4","mw":"-.-","location":"KOCALI-EZINE (CANAKKALE)"},{"date":"2020.08.31","time":"09:42:55","latitude":"38.1642","longitude":"38.6170","depth":"5.1","md":"-.-","ml":"1.9","mw":"-.-","location":"BASMEZRA-PUTURGE (MALATYA)"},{"date":"2020.08.31","time":"08:31:38","latitude":"38.8947","longitude":"44.6608","depth":"5.0","md":"-.-","ml":"2.2","mw":"-.-","location":"TURKIYE-IRAN SINIR BOLGESI"},{"date":"2020.08.31","time":"08:09:14","latitude":"38.3617","longitude":"39.1128","depth":"5.0","md":"-.-","ml":"1.6","mw":"-.-","location":"AKSEKI-SIVRICE (ELAZIG)"},{"date":"2020.08.31","time":"05:23:52","latitude":"35.8008","longitude":"30.8530","depth":"84.8","md":"-.-","ml":"3.2","mw":"3.3","location":"AKDENIZ"},{"date":"2020.08.31","time":"04:40:44","latitude":"40.4833","longitude":"42.3203","depth":"11.6","md":"-.-","ml":"1.8","mw":"-.-","location":"CATALELMA-SENKAYA (ERZURUM)"},{"date":"2020.08.31","time":"04:09:47","latitude":"39.4740","longitude":"26.2462","depth":"5.6","md":"-.-","ml":"2.4","mw":"-.-","location":"BEKTAS-AYVACIK (CANAKKALE)"},{"date":"2020.08.31","time":"03:50:57","latitude":"38.4028","longitude":"39.1868","depth":"4.3","md":"-.-","ml":"1.3","mw":"-.-","location":"KOSEBAYIR-SIVRICE (ELAZIG)"},{"date":"2020.08.31","time":"03:13:19","latitude":"36.4648","longitude":"28.7175","depth":"5.0","md":"-.-","ml":"1.7","mw":"-.-","location":"AKDENIZ"},{"date":"2020.08.31","time":"03:07:45","latitude":"40.7682","longitude":"28.0497","depth":"8.2","md":"-.-","ml":"2.3","mw":"-.-","location":"MARMARA DENIZI"},{"date":"2020.08.31","time":"02:53:01","latitude":"36.8590","longitude":"27.3147","depth":"12.6","md":"-.-","ml":"1.2","mw":"-.-","location":"KOS ADASI (AKDENIZ)"},{"date":"2020.08.31","time":"02:26:54","latitude":"38.4665","longitude":"39.5013","depth":"3.5","md":"-.-","ml":"1.7","mw":"-.-","location":"HATUNKOY-MADEN (ELAZIG)"},{"date":"2020.08.31","time":"02:21:07","latitude":"38.4787","longitude":"39.4163","depth":"5.2","md":"-.-","ml":"2.3","mw":"-.-","location":"YONCAPINAR-MADEN (ELAZIG)"},{"date":"2020.08.30","time":"23:57:13","latitude":"39.4748","longitude":"26.2562","depth":"5.6","md":"-.-","ml":"3.2","mw":"3.2","location":"KURUOBA-AYVACIK (CANAKKALE)"},{"date":"2020.08.30","time":"22:29:21","latitude":"38.2055","longitude":"38.8833","depth":"14.7","md":"-.-","ml":"1.1","mw":"-.-","location":"PUTURGE (MALATYA)"},{"date":"2020.08.30","time":"21:54:11","latitude":"38.1127","longitude":"39.2982","depth":"5.0","md":"-.-","ml":"1.7","mw":"-.-","location":"PINARLI-CERMIK (DIYARBAKIR)"},{"date":"2020.08.30","time":"21:09:24","latitude":"41.0415","longitude":"43.9215","depth":"9.0","md":"-.-","ml":"2.4","mw":"-.-","location":"AZERBAYCAN"},{"date":"2020.08.30","time":"21:07:48","latitude":"41.0332","longitude":"43.9072","depth":"5.4","md":"-.-","ml":"3.1","mw":"3.2","location":"AZERBAYCAN"},{"date":"2020.08.30","time":"19:54:50","latitude":"39.9300","longitude":"28.7335","depth":"0.0","md":"-.-","ml":"1.3","mw":"-.-","location":"LETAFET-ORHANELI (BURSA)"},{"date":"2020.08.30","time":"19:42:11","latitude":"38.2207","longitude":"38.7525","depth":"4.8","md":"-.-","ml":"2.1","mw":"-.-","location":"PAZARCIK-PUTURGE (MALATYA)"},{"date":"2020.08.30","time":"18:14:54","latitude":"39.9553","longitude":"45.1048","depth":"5.0","md":"-.-","ml":"2.8","mw":"-.-","location":"AZERBAYCAN"},{"date":"2020.08.30","time":"17:58:38","latitude":"40.4297","longitude":"28.7723","depth":"3.1","md":"-.-","ml":"1.7","mw":"-.-","location":"GEMLIK KORFEZI (MARMARA DENIZI)"},{"date":"2020.08.30","time":"17:53:15","latitude":"40.3357","longitude":"28.2093","depth":"5.5","md":"-.-","ml":"1.8","mw":"-.-","location":"SAHMELEK-KARACABEY (BURSA)"},{"date":"2020.08.30","time":"17:49:02","latitude":"39.9123","longitude":"28.8360","depth":"0.0","md":"-.-","ml":"1.6","mw":"-.-","location":"DUNDAR-ORHANELI (BURSA)"},{"date":"2020.08.30","time":"17:13:24","latitude":"39.6472","longitude":"27.4227","depth":"6.0","md":"-.-","ml":"2.6","mw":"-.-","location":"GOKCELER-IVRINDI (BALIKESIR)"},{"date":"2020.08.30","time":"16:44:25","latitude":"38.9795","longitude":"27.8127","depth":"22.4","md":"-.-","ml":"2.0","mw":"-.-","location":"MEDAR-AKHISAR (MANISA)"},{"date":"2020.08.30","time":"13:19:21","latitude":"40.4630","longitude":"35.7418","depth":"3.6","md":"-.-","ml":"2.9","mw":"-.-","location":"MUSAKOY-(AMASYA)"},{"date":"2020.08.30","time":"08:36:34","latitude":"36.9322","longitude":"27.7608","depth":"9.1","md":"-.-","ml":"2.1","mw":"-.-","location":"GOKOVA KORFEZI (AKDENIZ)"},{"date":"2020.08.30","time":"07:53:58","latitude":"38.5008","longitude":"39.4943","depth":"15.2","md":"-.-","ml":"1.6","mw":"-.-","location":"PLAJKOY-MADEN (ELAZIG)"},{"date":"2020.08.30","time":"06:28:05","latitude":"38.4420","longitude":"39.3552","depth":"17.8","md":"-.-","ml":"1.3","mw":"-.-","location":"SUREK-SIVRICE (ELAZIG)"},{"date":"2020.08.30","time":"06:01:43","latitude":"38.4567","longitude":"39.4253","depth":"19.1","md":"-.-","ml":"1.5","mw":"-.-","location":"YONCAPINAR-MADEN (ELAZIG)"},{"date":"2020.08.30","time":"05:43:06","latitude":"37.2942","longitude":"31.1927","depth":"128.1","md":"-.-","ml":"2.1","mw":"-.-","location":"CALTEPE-MANAVGAT (ANTALYA)"},{"date":"2020.08.30","time":"05:08:32","latitude":"38.2825","longitude":"38.7990","depth":"1.2","md":"-.-","ml":"2.1","mw":"-.-","location":"KARSIYAKA-PUTURGE (MALATYA)"},{"date":"2020.08.30","time":"03:45:42","latitude":"39.9660","longitude":"27.7903","depth":"9.8","md":"-.-","ml":"1.9","mw":"-.-","location":"OREN-MANYAS (BALIKESIR)"},{"date":"2020.08.30","time":"03:25:47","latitude":"38.4862","longitude":"39.2922","depth":"5.0","md":"-.-","ml":"3.3","mw":"3.4","location":"BEKCITEPE-SIVRICE (ELAZIG)"},{"date":"2020.08.29","time":"22:31:36","latitude":"39.6713","longitude":"27.7972","depth":"5.7","md":"-.-","ml":"3.4","mw":"3.3","location":"KALAYCILAR-(BALIKESIR)"},{"date":"2020.08.29","time":"22:30:54","latitude":"38.9322","longitude":"27.8843","depth":"7.9","md":"-.-","ml":"2.2","mw":"-.-","location":"HASKOY-AKHISAR (MANISA)"},{"date":"2020.08.29","time":"21:53:10","latitude":"37.3510","longitude":"36.0842","depth":"22.1","md":"-.-","ml":"2.1","mw":"-.-","location":"ANBERINARKI-KADIRLI (OSMANIYE)"},{"date":"2020.08.29","time":"21:19:38","latitude":"39.0705","longitude":"41.5133","depth":"7.1","md":"-.-","ml":"2.3","mw":"-.-","location":"TEPEKOY-VARTO (MUS)"},{"date":"2020.08.29","time":"19:49:22","latitude":"35.4995","longitude":"31.6130","depth":"5.4","md":"-.-","ml":"1.9","mw":"-.-","location":"AKDENIZ"},{"date":"2020.08.29","time":"19:32:35","latitude":"36.0048","longitude":"30.0773","depth":"19.3","md":"-.-","ml":"2.8","mw":"-.-","location":"KALE ACIKLARI-ANTALYA (AKDENIZ)"},{"date":"2020.08.29","time":"16:35:51","latitude":"38.2737","longitude":"38.9075","depth":"4.4","md":"-.-","ml":"0.7","mw":"-.-","location":"TOSUNLU-PUTURGE (MALATYA)"},{"date":"2020.08.29","time":"16:19:58","latitude":"38.5253","longitude":"26.7145","depth":"17.9","md":"-.-","ml":"1.5","mw":"-.-","location":"IZMIR KORFEZI (EGE DENIZI)"},{"date":"2020.08.29","time":"16:13:27","latitude":"39.4067","longitude":"40.3195","depth":"14.6","md":"-.-","ml":"2.1","mw":"-.-","location":"KABAYEL-YEDISU (BINGOL)"},{"date":"2020.08.29","time":"15:51:40","latitude":"39.4853","longitude":"33.4937","depth":"3.2","md":"-.-","ml":"1.8","mw":"-.-","location":"KARAYAKUP-CELEBI (KIRIKKALE)"},{"date":"2020.08.29","time":"15:28:34","latitude":"40.5133","longitude":"33.0822","depth":"6.3","md":"-.-","ml":"2.2","mw":"-.-","location":"OZLU-ORTA (CANKIRI)"},{"date":"2020.08.29","time":"15:17:46","latitude":"41.1810","longitude":"33.3032","depth":"4.1","md":"-.-","ml":"2.1","mw":"-.-","location":"SIRAGOMU-ARAC (KASTAMONU)"},{"date":"2020.08.29","time":"15:14:11","latitude":"36.1162","longitude":"27.2767","depth":"7.5","md":"-.-","ml":"3.1","mw":"3.0","location":"ONIKI ADALAR (AKDENIZ)"},{"date":"2020.08.29","time":"15:07:22","latitude":"36.9427","longitude":"28.7538","depth":"16.1","md":"-.-","ml":"1.2","mw":"-.-","location":"ZEYTINALANI-KOYCEGIZ (MUGLA)"},{"date":"2020.08.29","time":"14:51:02","latitude":"39.6970","longitude":"26.5273","depth":"5.2","md":"-.-","ml":"1.4","mw":"-.-","location":"DAGAHMETCE-BAYRAMIC (CANAKKALE)"},{"date":"2020.08.29","time":"14:15:39","latitude":"38.2797","longitude":"38.8643","depth":"5.3","md":"-.-","ml":"2.2","mw":"-.-","location":"YEDIYOL-PUTURGE (MALATYA)"},{"date":"2020.08.29","time":"14:00:41","latitude":"39.0778","longitude":"27.5212","depth":"0.0","md":"-.-","ml":"1.6","mw":"-.-","location":"EGNEZ-SOMA (MANISA)"},{"date":"2020.08.29","time":"13:30:49","latitude":"37.9288","longitude":"26.6615","depth":"5.4","md":"-.-","ml":"2.0","mw":"-.-","location":"EGE DENIZI"},{"date":"2020.08.29","time":"13:17:42","latitude":"39.6122","longitude":"29.4468","depth":"0.0","md":"-.-","ml":"1.1","mw":"-.-","location":"KAYAARASI-TAVSANLI (KUTAHYA)"},{"date":"2020.08.29","time":"12:53:39","latitude":"39.4967","longitude":"29.6573","depth":"0.0","md":"-.-","ml":"1.5","mw":"-.-","location":"ALIKOY-TAVSANLI (KUTAHYA)"},{"date":"2020.08.29","time":"12:44:15","latitude":"37.1768","longitude":"27.8520","depth":"0.0","md":"-.-","ml":"1.4","mw":"-.-","location":"IKIZKOY-MILAS (MUGLA)"},{"date":"2020.08.29","time":"12:42:28","latitude":"37.2107","longitude":"34.8222","depth":"5.0","md":"-.-","ml":"2.8","mw":"-.-","location":"CAMALAN-TARSUS (MERSIN)"},{"date":"2020.08.29","time":"12:37:17","latitude":"38.2102","longitude":"38.8577","depth":"8.2","md":"-.-","ml":"1.8","mw":"-.-","location":"PUTURGE (MALATYA)"},{"date":"2020.08.29","time":"12:00:26","latitude":"38.3438","longitude":"39.0282","depth":"11.1","md":"-.-","ml":"1.7","mw":"-.-","location":"ILINCAK-SIVRICE (ELAZIG)"},{"date":"2020.08.29","time":"12:00:10","latitude":"37.2198","longitude":"28.1953","depth":"0.0","md":"-.-","ml":"2.0","mw":"-.-","location":"KAFACA-(MUGLA)"},{"date":"2020.08.29","time":"11:56:03","latitude":"39.3510","longitude":"40.3068","depth":"5.0","md":"-.-","ml":"2.4","mw":"-.-","location":"KIGI (BINGOL)"},{"date":"2020.08.29","time":"11:41:04","latitude":"38.3473","longitude":"39.1090","depth":"4.0","md":"-.-","ml":"0.8","mw":"-.-","location":"AKSEKI-SIVRICE (ELAZIG)"},{"date":"2020.08.29","time":"11:39:58","latitude":"39.5302","longitude":"38.0415","depth":"8.1","md":"-.-","ml":"2.1","mw":"-.-","location":"ESKIBEYLI-DIVRIGI (SIVAS)"},{"date":"2020.08.29","time":"10:19:14","latitude":"39.7092","longitude":"27.8547","depth":"1.9","md":"-.-","ml":"1.6","mw":"-.-","location":"BEYKOY-(BALIKESIR)"},{"date":"2020.08.29","time":"09:14:17","latitude":"37.8757","longitude":"29.6388","depth":"15.5","md":"-.-","ml":"1.4","mw":"-.-","location":"AVDAN-BOZKURT (DENIZLI)"},{"date":"2020.08.29","time":"08:37:51","latitude":"36.9313","longitude":"27.4558","depth":"2.7","md":"-.-","ml":"1.4","mw":"-.-","location":"GOKOVA KORFEZI (AKDENIZ)"},{"date":"2020.08.29","time":"06:45:32","latitude":"39.6858","longitude":"27.8063","depth":"5.3","md":"-.-","ml":"3.4","mw":"3.3","location":"KABAKDERE-(BALIKESIR)"},{"date":"2020.08.29","time":"06:42:30","latitude":"39.4698","longitude":"40.3830","depth":"1.7","md":"-.-","ml":"2.3","mw":"-.-","location":"GELINPERTEK-YEDISU (BINGOL)"},{"date":"2020.08.29","time":"06:36:26","latitude":"39.6753","longitude":"27.8110","depth":"5.6","md":"-.-","ml":"3.7","mw":"3.7","location":"KALAYCILAR-(BALIKESIR)"},{"date":"2020.08.29","time":"06:11:50","latitude":"40.1477","longitude":"30.0308","depth":"16.1","md":"-.-","ml":"1.7","mw":"-.-","location":"ASAGIKOY-(BILECIK)"},{"date":"2020.08.29","time":"06:03:05","latitude":"37.2868","longitude":"26.8925","depth":"13.9","md":"-.-","ml":"1.4","mw":"-.-","location":"ONIKI ADALAR (AKDENIZ)"},{"date":"2020.08.29","time":"05:35:08","latitude":"39.4162","longitude":"40.3323","depth":"5.0","md":"-.-","ml":"2.0","mw":"-.-","location":"KABAYEL-YEDISU (BINGOL)"},{"date":"2020.08.29","time":"05:33:13","latitude":"38.7685","longitude":"27.8095","depth":"13.7","md":"-.-","ml":"1.9","mw":"-.-","location":"KUMKUYUCAK-SARUHANLI (MANISA)"},{"date":"2020.08.29","time":"05:25:53","latitude":"38.9318","longitude":"27.7357","depth":"7.6","md":"-.-","ml":"1.9","mw":"-.-","location":"HAMIDIYE-AKHISAR (MANISA)"},{"date":"2020.08.29","time":"05:23:12","latitude":"38.9205","longitude":"27.7332","depth":"5.8","md":"-.-","ml":"1.6","mw":"-.-","location":"HAMIDIYE-AKHISAR (MANISA)"},{"date":"2020.08.29","time":"05:07:06","latitude":"40.8528","longitude":"31.0608","depth":"3.4","md":"-.-","ml":"2.2","mw":"-.-","location":"IHSANIYE-(DUZCE)"},{"date":"2020.08.29","time":"05:01:17","latitude":"38.4502","longitude":"39.4142","depth":"16.2","md":"-.-","ml":"1.5","mw":"-.-","location":"SUREK-SIVRICE (ELAZIG)"},{"date":"2020.08.29","time":"04:46:24","latitude":"40.8352","longitude":"28.2723","depth":"7.1","md":"-.-","ml":"2.2","mw":"-.-","location":"SILIVRI ACIKLARI-ISTANBUL (MARMARA DENIZI)"},{"date":"2020.08.29","time":"04:20:04","latitude":"38.1547","longitude":"38.7795","depth":"5.1","md":"-.-","ml":"1.0","mw":"-.-","location":"GOKCELI-PUTURGE (MALATYA)"},{"date":"2020.08.29","time":"04:02:31","latitude":"36.4987","longitude":"29.5623","depth":"43.4","md":"-.-","ml":"1.7","mw":"-.-","location":"YUVACIK-KAS (ANTALYA)"},{"date":"2020.08.29","time":"04:01:50","latitude":"38.9797","longitude":"29.1325","depth":"8.7","md":"-.-","ml":"1.8","mw":"-.-","location":"AKSINIK-PAZARLAR (KUTAHYA)"},{"date":"2020.08.29","time":"02:20:42","latitude":"38.3483","longitude":"39.1843","depth":"15.2","md":"-.-","ml":"1.3","mw":"-.-","location":"CATAKKAYA-SIVRICE (ELAZIG)"},{"date":"2020.08.29","time":"01:55:16","latitude":"38.7305","longitude":"31.3718","depth":"7.6","md":"-.-","ml":"1.8","mw":"-.-","location":"CUKURCAK-SULTANDAGI (AFYONKARAHISAR)"},{"date":"2020.08.29","time":"01:18:45","latitude":"40.5345","longitude":"28.1823","depth":"15.3","md":"-.-","ml":"2.1","mw":"-.-","location":"ERDEK ACIKLARI-BALIKESIR (MARMARA DENIZI)"},{"date":"2020.08.29","time":"01:10:00","latitude":"38.6623","longitude":"43.1488","depth":"21.2","md":"-.-","ml":"2.0","mw":"-.-","location":"MOLLAKASIM-(VAN)"},{"date":"2020.08.28","time":"23:41:26","latitude":"38.8107","longitude":"27.8078","depth":"16.6","md":"-.-","ml":"1.8","mw":"-.-","location":"SAZOBA-AKHISAR (MANISA)"},{"date":"2020.08.28","time":"23:13:56","latitude":"39.0813","longitude":"27.8393","depth":"1.2","md":"-.-","ml":"1.8","mw":"-.-","location":"ILYASLAR-KIRKAGAC (MANISA)"},{"date":"2020.08.28","time":"23:03:07","latitude":"39.7132","longitude":"38.9265","depth":"7.7","md":"-.-","ml":"2.4","mw":"-.-","location":"AGACSARAY-KEMAH (ERZINCAN)"},{"date":"2020.08.28","time":"21:51:06","latitude":"40.8623","longitude":"32.9863","depth":"5.0","md":"-.-","ml":"1.7","mw":"-.-","location":"CALCIOREN-CERKES (CANKIRI)"},{"date":"2020.08.28","time":"20:44:29","latitude":"38.4547","longitude":"39.2798","depth":"10.1","md":"-.-","ml":"1.5","mw":"-.-","location":"SIVRICE (ELAZIG)"},{"date":"2020.08.28","time":"20:38:46","latitude":"35.4182","longitude":"27.1555","depth":"48.9","md":"-.-","ml":"2.2","mw":"-.-","location":"AKDENIZ"},{"date":"2020.08.28","time":"20:36:57","latitude":"37.8122","longitude":"29.4085","depth":"0.0","md":"-.-","ml":"1.4","mw":"-.-","location":"ASAGIDAGDERE-HONAZ (DENIZLI)"},{"date":"2020.08.28","time":"19:28:00","latitude":"38.3693","longitude":"39.1140","depth":"11.3","md":"-.-","ml":"1.9","mw":"-.-","location":"KILICKAYA-SIVRICE (ELAZIG)"},{"date":"2020.08.28","time":"19:25:27","latitude":"38.9142","longitude":"33.6535","depth":"3.9","md":"-.-","ml":"2.1","mw":"-.-","location":"FADILLI-SEREFLIKOCHISAR (ANKARA)"},{"date":"2020.08.28","time":"18:57:45","latitude":"39.8880","longitude":"33.0678","depth":"0.0","md":"-.-","ml":"1.5","mw":"-.-","location":"KARACAHASAN-ELMADAG (ANKARA)"},{"date":"2020.08.28","time":"18:37:31","latitude":"41.0598","longitude":"30.5642","depth":"15.1","md":"-.-","ml":"1.6","mw":"-.-","location":"KONACIK-KARASU (SAKARYA)"},{"date":"2020.08.28","time":"18:06:46","latitude":"38.4422","longitude":"39.3372","depth":"8.7","md":"-.-","ml":"1.9","mw":"-.-","location":"SIVRICE (ELAZIG)"},{"date":"2020.08.28","time":"17:57:15","latitude":"40.7968","longitude":"29.5185","depth":"0.0","md":"-.-","ml":"0.9","mw":"-.-","location":"DILOVASI (KOCAELI)"},{"date":"2020.08.28","time":"17:20:51","latitude":"44.1273","longitude":"31.5300","depth":"28.7","md":"-.-","ml":"3.7","mw":"-.-","location":"KARADENIZ"},{"date":"2020.08.28","time":"16:20:50","latitude":"38.4843","longitude":"39.3128","depth":"5.4","md":"-.-","ml":"2.1","mw":"-.-","location":"GUNEYKOY-SIVRICE (ELAZIG)"},{"date":"2020.08.28","time":"16:16:30","latitude":"37.1097","longitude":"27.8837","depth":"0.0","md":"-.-","ml":"1.2","mw":"-.-","location":"BAYIRKOY-MILAS (MUGLA)"},{"date":"2020.08.28","time":"15:48:21","latitude":"37.8565","longitude":"29.4710","depth":"10.9","md":"-.-","ml":"1.8","mw":"-.-","location":"ALIKURT-BOZKURT (DENIZLI)"},{"date":"2020.08.28","time":"14:20:24","latitude":"37.1265","longitude":"26.9105","depth":"16.8","md":"-.-","ml":"2.0","mw":"-.-","location":"ONIKI ADALAR (AKDENIZ)"},{"date":"2020.08.28","time":"14:02:11","latitude":"37.0955","longitude":"28.5600","depth":"3.7","md":"-.-","ml":"1.8","mw":"-.-","location":"KIYRA-ULA (MUGLA)"},{"date":"2020.08.28","time":"13:44:29","latitude":"38.5042","longitude":"34.2360","depth":"4.0","md":"-.-","ml":"1.6","mw":"-.-","location":"CAGLAYAN-(AKSARAY)"},{"date":"2020.08.28","time":"13:39:20","latitude":"37.2637","longitude":"26.8383","depth":"4.1","md":"-.-","ml":"1.6","mw":"-.-","location":"ONIKI ADALAR (AKDENIZ)"},{"date":"2020.08.28","time":"13:03:30","latitude":"37.2687","longitude":"28.3102","depth":"17.0","md":"-.-","ml":"1.5","mw":"-.-","location":"KOZAGAC-(MUGLA)"},{"date":"2020.08.28","time":"12:19:11","latitude":"39.9070","longitude":"28.8697","depth":"0.0","md":"-.-","ml":"1.9","mw":"-.-","location":"GUMUSPINAR-ORHANELI (BURSA)"},{"date":"2020.08.28","time":"11:28:02","latitude":"39.5013","longitude":"26.2290","depth":"4.8","md":"-.-","ml":"2.0","mw":"-.-","location":"BEKTAS-AYVACIK (CANAKKALE)"},{"date":"2020.08.28","time":"11:16:28","latitude":"39.5182","longitude":"26.2270","depth":"1.9","md":"-.-","ml":"2.2","mw":"-.-","location":"BALABANLI-AYVACIK (CANAKKALE)"},{"date":"2020.08.28","time":"10:27:24","latitude":"40.4872","longitude":"29.2768","depth":"0.0","md":"-.-","ml":"1.6","mw":"-.-","location":"FINDIKLI-ORHANGAZI (BURSA)"},{"date":"2020.08.28","time":"10:11:08","latitude":"38.2810","longitude":"38.9162","depth":"5.5","md":"-.-","ml":"2.2","mw":"-.-","location":"TOSUNLU-PUTURGE (MALATYA)"},{"date":"2020.08.28","time":"08:45:30","latitude":"39.4950","longitude":"26.2538","depth":"5.3","md":"-.-","ml":"2.0","mw":"-.-","location":"KURUOBA-AYVACIK (CANAKKALE)"},{"date":"2020.08.28","time":"08:17:26","latitude":"39.4627","longitude":"27.9665","depth":"13.1","md":"-.-","ml":"1.8","mw":"-.-","location":"KUCUKYENIKOY-BIGADIC (BALIKESIR)"},{"date":"2020.08.28","time":"08:10:07","latitude":"38.2480","longitude":"38.7488","depth":"3.8","md":"-.-","ml":"2.4","mw":"-.-","location":"BALPINARI-PUTURGE (MALATYA)"},{"date":"2020.08.28","time":"07:12:28","latitude":"39.0365","longitude":"27.8145","depth":"10.0","md":"-.-","ml":"1.2","mw":"-.-","location":"TUTENLI-AKHISAR (MANISA)"},{"date":"2020.08.28","time":"06:31:24","latitude":"38.2763","longitude":"38.7807","depth":"3.9","md":"-.-","ml":"2.1","mw":"-.-","location":"KARSIYAKA-PUTURGE (MALATYA)"},{"date":"2020.08.28","time":"05:00:25","latitude":"35.7212","longitude":"27.4848","depth":"6.9","md":"-.-","ml":"1.8","mw":"-.-","location":"AKDENIZ"},{"date":"2020.08.28","time":"03:59:51","latitude":"38.4148","longitude":"28.3455","depth":"7.8","md":"-.-","ml":"2.0","mw":"-.-","location":"KAVAKLIDERE-ALASEHIR (MANISA)"},{"date":"2020.08.28","time":"03:58:52","latitude":"40.7248","longitude":"35.4788","depth":"12.9","md":"-.-","ml":"2.0","mw":"-.-","location":"KIZILEGREK-MERZIFON (AMASYA)"},{"date":"2020.08.28","time":"00:07:34","latitude":"38.9525","longitude":"27.7575","depth":"3.7","md":"-.-","ml":"1.6","mw":"-.-","location":"EROGLU-AKHISAR (MANISA)"},{"date":"2020.08.27","time":"23:52:29","latitude":"38.9133","longitude":"27.7225","depth":"5.2","md":"-.-","ml":"2.7","mw":"-.-","location":"HAMIDIYE-AKHISAR (MANISA)"},{"date":"2020.08.27","time":"23:43:49","latitude":"40.1412","longitude":"27.0623","depth":"14.4","md":"-.-","ml":"1.6","mw":"-.-","location":"HARMANLI-BIGA (CANAKKALE)"},{"date":"2020.08.27","time":"23:14:41","latitude":"34.3215","longitude":"32.1473","depth":"4.7","md":"-.-","ml":"3.3","mw":"3.3","location":"AKDENIZ"},{"date":"2020.08.27","time":"22:36:55","latitude":"38.2280","longitude":"38.8078","depth":"6.0","md":"-.-","ml":"2.3","mw":"-.-","location":"ORMANICI-PUTURGE (MALATYA)"},{"date":"2020.08.27","time":"19:05:45","latitude":"39.1848","longitude":"41.3247","depth":"7.1","md":"-.-","ml":"2.2","mw":"-.-","location":"ILBEY-VARTO (MUS)"},{"date":"2020.08.27","time":"18:56:55","latitude":"38.2432","longitude":"38.7463","depth":"20.2","md":"-.-","ml":"2.0","mw":"-.-","location":"BALPINARI-PUTURGE (MALATYA)"},{"date":"2020.08.27","time":"16:38:33","latitude":"37.3093","longitude":"27.9305","depth":"0.0","md":"-.-","ml":"1.9","mw":"-.-","location":"KORUCUK-MILAS (MUGLA)"},{"date":"2020.08.27","time":"15:51:54","latitude":"37.0373","longitude":"34.9723","depth":"5.0","md":"-.-","ml":"1.6","mw":"-.-","location":"KARAYAYLA-TARSUS (MERSIN)"},{"date":"2020.08.27","time":"15:41:46","latitude":"39.1292","longitude":"27.4792","depth":"0.0","md":"-.-","ml":"1.3","mw":"-.-","location":"CUMALI-KINIK (IZMIR)"},{"date":"2020.08.27","time":"14:58:52","latitude":"40.5523","longitude":"31.1392","depth":"0.0","md":"-.-","ml":"1.8","mw":"-.-","location":"KARAPINARKAVAGI-MUDURNU (BOLU)"},{"date":"2020.08.27","time":"14:49:45","latitude":"40.6543","longitude":"31.0610","depth":"0.0","md":"-.-","ml":"1.7","mw":"-.-","location":"YEGENDERESI-MUDURNU (BOLU)"},{"date":"2020.08.27","time":"14:17:45","latitude":"37.9350","longitude":"39.7637","depth":"9.1","md":"-.-","ml":"2.2","mw":"-.-","location":"KARABURCAK-ERGANI (DIYARBAKIR)"},{"date":"2020.08.27","time":"14:13:50","latitude":"36.3337","longitude":"45.4382","depth":"28.9","md":"-.-","ml":"3.2","mw":"3.3","location":"IRAN"},{"date":"2020.08.27","time":"13:10:24","latitude":"39.1483","longitude":"27.5558","depth":"0.0","md":"-.-","ml":"1.8","mw":"-.-","location":"AVDAN-SOMA (MANISA)"},{"date":"2020.08.27","time":"12:55:50","latitude":"37.7323","longitude":"27.4267","depth":"11.6","md":"-.-","ml":"1.3","mw":"-.-","location":"SAVUCA-SOKE (AYDIN)"},{"date":"2020.08.27","time":"12:49:16","latitude":"39.8702","longitude":"28.8078","depth":"0.0","md":"-.-","ml":"1.4","mw":"-.-","location":"ALTINTAS-ORHANELI (BURSA)"},{"date":"2020.08.27","time":"12:20:06","latitude":"37.1922","longitude":"37.5055","depth":"0.0","md":"-.-","ml":"1.8","mw":"-.-","location":"SUBOGAZI-SEHITKAMIL (GAZIANTEP)"},{"date":"2020.08.27","time":"12:04:50","latitude":"39.9088","longitude":"40.9032","depth":"5.0","md":"-.-","ml":"2.7","mw":"-.-","location":"ATLIKONAK-AZIZIYE (ERZURUM)"},{"date":"2020.08.27","time":"12:01:42","latitude":"37.2523","longitude":"28.2485","depth":"0.0","md":"-.-","ml":"1.5","mw":"-.-","location":"SALIHPASALAR-(MUGLA)"},{"date":"2020.08.27","time":"11:54:02","latitude":"37.2418","longitude":"28.2152","depth":"0.0","md":"-.-","ml":"1.6","mw":"-.-","location":"PASAPINARI-(MUGLA)"},{"date":"2020.08.27","time":"11:48:54","latitude":"37.1518","longitude":"27.7838","depth":"0.0","md":"-.-","ml":"1.5","mw":"-.-","location":"ALACAM-MILAS (MUGLA)"},{"date":"2020.08.27","time":"11:42:07","latitude":"39.6525","longitude":"29.3995","depth":"0.0","md":"-.-","ml":"1.5","mw":"-.-","location":"KARAKAYA-TAVSANLI (KUTAHYA)"},{"date":"2020.08.27","time":"11:41:36","latitude":"37.1638","longitude":"37.1980","depth":"0.0","md":"-.-","ml":"1.4","mw":"-.-","location":"DURNALIK-SEHITKAMIL (GAZIANTEP)"},{"date":"2020.08.27","time":"11:34:18","latitude":"38.3390","longitude":"38.9453","depth":"4.2","md":"-.-","ml":"2.0","mw":"-.-","location":"YUREKKAYA-SIVRICE (ELAZIG)"},{"date":"2020.08.27","time":"11:29:50","latitude":"40.8447","longitude":"28.6377","depth":"6.1","md":"-.-","ml":"2.3","mw":"-.-","location":"MARMARA DENIZI"},{"date":"2020.08.27","time":"10:52:19","latitude":"37.6482","longitude":"35.8888","depth":"17.3","md":"-.-","ml":"2.1","mw":"-.-","location":"KARABUCAK-KOZAN (ADANA)"},{"date":"2020.08.27","time":"10:48:09","latitude":"37.5092","longitude":"27.0687","depth":"26.0","md":"-.-","ml":"1.5","mw":"-.-","location":"AKKOY ACIKLARI-AYDIN (EGE DENIZI)"},{"date":"2020.08.27","time":"10:35:51","latitude":"39.9858","longitude":"28.3280","depth":"7.9","md":"-.-","ml":"1.3","mw":"-.-","location":"PASALAR-MUSTAFAKEMALPASA (BURSA)"},{"date":"2020.08.27","time":"09:53:59","latitude":"38.9240","longitude":"26.4365","depth":"9.3","md":"-.-","ml":"2.7","mw":"-.-","location":"EGE DENIZI"},{"date":"2020.08.27","time":"09:14:25","latitude":"39.2210","longitude":"27.9493","depth":"10.9","md":"-.-","ml":"1.4","mw":"-.-","location":"HACET-KIRKAGAC (MANISA)"},{"date":"2020.08.27","time":"08:41:19","latitude":"38.4427","longitude":"39.0852","depth":"14.0","md":"-.-","ml":"1.4","mw":"-.-","location":"GOZELI-SIVRICE (ELAZIG)"},{"date":"2020.08.27","time":"08:40:30","latitude":"38.1173","longitude":"38.7418","depth":"8.3","md":"-.-","ml":"2.1","mw":"-.-","location":"TEPEHAN-PUTURGE (MALATYA)"},{"date":"2020.08.27","time":"08:35:10","latitude":"39.3288","longitude":"40.3787","depth":"6.1","md":"-.-","ml":"2.0","mw":"-.-","location":"KIGI (BINGOL)"},{"date":"2020.08.27","time":"06:44:09","latitude":"39.1307","longitude":"29.0178","depth":"14.1","md":"-.-","ml":"1.7","mw":"-.-","location":"HACIAHMETOGLU-SIMAV (KUTAHYA)"},{"date":"2020.08.27","time":"05:17:15","latitude":"38.1873","longitude":"31.0932","depth":"12.6","md":"-.-","ml":"2.3","mw":"-.-","location":"MADENLI-GELENDOST (ISPARTA)"},{"date":"2020.08.27","time":"05:16:37","latitude":"36.4475","longitude":"28.9467","depth":"18.0","md":"-.-","ml":"1.1","mw":"-.-","location":"OLUDENIZ ACIKLARI-MUGLA (AKDENIZ)"},{"date":"2020.08.27","time":"05:16:26","latitude":"38.1723","longitude":"31.0577","depth":"15.0","md":"-.-","ml":"1.9","mw":"-.-","location":"MADENLI-GELENDOST (ISPARTA)"},{"date":"2020.08.27","time":"02:37:17","latitude":"39.0695","longitude":"27.8342","depth":"2.7","md":"-.-","ml":"2.2","mw":"-.-","location":"ILYASLAR-KIRKAGAC (MANISA)"},{"date":"2020.08.27","time":"02:29:05","latitude":"35.8327","longitude":"27.4535","depth":"18.1","md":"-.-","ml":"2.0","mw":"-.-","location":"AKDENIZ"},{"date":"2020.08.27","time":"01:08:05","latitude":"40.7863","longitude":"29.6650","depth":"16.7","md":"-.-","ml":"1.4","mw":"-.-","location":"IZMIT KORFEZI (MARMARA DENIZI)"},{"date":"2020.08.26","time":"22:42:53","latitude":"35.6203","longitude":"31.7243","depth":"5.2","md":"-.-","ml":"3.1","mw":"3.1","location":"AKDENIZ"},{"date":"2020.08.26","time":"22:38:17","latitude":"35.4698","longitude":"31.5437","depth":"2.7","md":"-.-","ml":"2.5","mw":"-.-","location":"AKDENIZ"},{"date":"2020.08.26","time":"22:01:56","latitude":"39.1643","longitude":"27.6222","depth":"10.0","md":"-.-","ml":"1.7","mw":"-.-","location":"DARKALE-SOMA (MANISA)"},{"date":"2020.08.26","time":"21:27:47","latitude":"39.4695","longitude":"26.2572","depth":"12.6","md":"-.-","ml":"2.1","mw":"-.-","location":"KURUOBA-AYVACIK (CANAKKALE)"},{"date":"2020.08.26","time":"21:01:57","latitude":"35.5725","longitude":"31.6213","depth":"9.2","md":"-.-","ml":"3.6","mw":"3.6","location":"AKDENIZ"},{"date":"2020.08.26","time":"20:33:48","latitude":"37.9548","longitude":"29.5200","depth":"12.7","md":"-.-","ml":"1.3","mw":"-.-","location":"CATALOBA-BAKLAN (DENIZLI)"},{"date":"2020.08.26","time":"20:26:00","latitude":"40.1262","longitude":"27.2032","depth":"9.8","md":"-.-","ml":"1.5","mw":"-.-","location":"KATRANCI-BIGA (CANAKKALE)"},{"date":"2020.08.26","time":"20:20:07","latitude":"37.2227","longitude":"28.4118","depth":"2.2","md":"-.-","ml":"1.5","mw":"-.-","location":"MUGLA (MUGLA)"},{"date":"2020.08.26","time":"18:14:01","latitude":"37.6083","longitude":"29.2087","depth":"0.0","md":"-.-","ml":"1.9","mw":"-.-","location":"SARIABAT-TAVAS (DENIZLI)"},{"date":"2020.08.26","time":"17:12:12","latitude":"40.5257","longitude":"29.2680","depth":"0.0","md":"-.-","ml":"1.4","mw":"-.-","location":"HAMZALI-ORHANGAZI (BURSA)"},{"date":"2020.08.26","time":"16:43:57","latitude":"37.5868","longitude":"29.2703","depth":"5.0","md":"-.-","ml":"2.7","mw":"-.-","location":"SERINHISAR (DENIZLI)"},{"date":"2020.08.26","time":"16:20:30","latitude":"38.1183","longitude":"39.4398","depth":"5.0","md":"-.-","ml":"1.9","mw":"-.-","location":"AYNALI-CERMIK (DIYARBAKIR)"},{"date":"2020.08.26","time":"15:23:42","latitude":"36.1977","longitude":"33.6838","depth":"0.0","md":"-.-","ml":"1.2","mw":"-.-","location":"YESILOVACIK-SILIFKE (MERSIN)"},{"date":"2020.08.26","time":"15:18:16","latitude":"36.1408","longitude":"33.6847","depth":"0.0","md":"-.-","ml":"1.2","mw":"-.-","location":"YESILOVACIK-SILIFKE (MERSIN)"},{"date":"2020.08.26","time":"14:47:02","latitude":"38.1815","longitude":"38.7908","depth":"12.4","md":"-.-","ml":"1.2","mw":"-.-","location":"TASMIS-PUTURGE (MALATYA)"},{"date":"2020.08.26","time":"14:30:14","latitude":"38.7555","longitude":"28.2398","depth":"2.8","md":"-.-","ml":"1.3","mw":"-.-","location":"KIDIRCIK-KOPRUBASI (MANISA)"},{"date":"2020.08.26","time":"14:23:43","latitude":"39.5685","longitude":"26.2173","depth":"1.7","md":"-.-","ml":"2.0","mw":"-.-","location":"CAMKOY-AYVACIK (CANAKKALE)"},{"date":"2020.08.26","time":"13:11:22","latitude":"38.8888","longitude":"27.8057","depth":"0.0","md":"-.-","ml":"1.2","mw":"-.-","location":"KAYALIOGLU-AKHISAR (MANISA)"},{"date":"2020.08.26","time":"13:03:44","latitude":"39.1268","longitude":"27.5667","depth":"0.0","md":"-.-","ml":"1.6","mw":"-.-","location":"DEREKOY-SOMA (MANISA)"},{"date":"2020.08.26","time":"12:59:26","latitude":"38.0230","longitude":"31.7737","depth":"23.0","md":"-.-","ml":"1.5","mw":"-.-","location":"DIGRAK-ILGIN (KONYA)"},{"date":"2020.08.26","time":"12:49:54","latitude":"37.1398","longitude":"27.8330","depth":"0.0","md":"-.-","ml":"1.6","mw":"-.-","location":"PINARARASI-MILAS (MUGLA)"},{"date":"2020.08.26","time":"12:12:44","latitude":"39.6063","longitude":"29.6193","depth":"0.0","md":"-.-","ml":"1.5","mw":"-.-","location":"DEVEKAYASI-TAVSANLI (KUTAHYA)"},{"date":"2020.08.26","time":"11:19:23","latitude":"38.4625","longitude":"39.1500","depth":"8.4","md":"-.-","ml":"1.4","mw":"-.-","location":"KAVALLI-SIVRICE (ELAZIG)"},{"date":"2020.08.26","time":"09:51:16","latitude":"38.1305","longitude":"40.8340","depth":"16.1","md":"-.-","ml":"1.7","mw":"-.-","location":"DARKOPRU-SILVAN (DIYARBAKIR)"},{"date":"2020.08.26","time":"09:37:00","latitude":"37.0950","longitude":"28.0485","depth":"24.3","md":"-.-","ml":"1.5","mw":"-.-","location":"DAGPINAR-(MUGLA)"},{"date":"2020.08.26","time":"09:26:49","latitude":"37.9493","longitude":"30.5070","depth":"14.0","md":"-.-","ml":"1.1","mw":"-.-","location":"GONEN (ISPARTA)"},{"date":"2020.08.26","time":"08:14:59","latitude":"36.9378","longitude":"28.9168","depth":"8.1","md":"-.-","ml":"2.4","mw":"-.-","location":"AKKOPRU-KOYCEGIZ (MUGLA)"},{"date":"2020.08.26","time":"08:01:37","latitude":"35.5835","longitude":"26.4567","depth":"26.7","md":"-.-","ml":"3.4","mw":"3.4","location":"AKDENIZ"},{"date":"2020.08.26","time":"05:12:31","latitude":"34.1132","longitude":"26.9880","depth":"61.0","md":"-.-","ml":"3.0","mw":"-.-","location":"GIRIT ADASI ACIKLARI (AKDENIZ)"},{"date":"2020.08.26","time":"05:09:41","latitude":"38.6723","longitude":"43.1483","depth":"7.0","md":"-.-","ml":"1.9","mw":"-.-","location":"MOLLAKASIM-(VAN)"},{"date":"2020.08.26","time":"05:08:29","latitude":"36.8907","longitude":"27.6563","depth":"21.2","md":"-.-","ml":"1.3","mw":"-.-","location":"GOKOVA KORFEZI (AKDENIZ)"},{"date":"2020.08.26","time":"04:55:17","latitude":"38.3658","longitude":"38.9083","depth":"13.4","md":"-.-","ml":"1.8","mw":"-.-","location":"GELINDERE-SIVRICE (ELAZIG)"},{"date":"2020.08.26","time":"04:10:19","latitude":"37.2273","longitude":"36.0018","depth":"12.0","md":"-.-","ml":"1.4","mw":"-.-","location":"KESIKKELI-KADIRLI (OSMANIYE)"},{"date":"2020.08.26","time":"03:50:56","latitude":"39.4342","longitude":"32.1382","depth":"15.9","md":"-.-","ml":"2.4","mw":"-.-","location":"KARAHAMZALI-POLATLI (ANKARA)"},{"date":"2020.08.26","time":"03:42:54","latitude":"37.3108","longitude":"43.6697","depth":"4.7","md":"-.-","ml":"3.2","mw":"-.-","location":"IRAK"},{"date":"2020.08.26","time":"01:52:08","latitude":"33.8428","longitude":"25.7265","depth":"87.5","md":"-.-","ml":"2.9","mw":"-.-","location":"GIRIT ADASI ACIKLARI (AKDENIZ)"},{"date":"2020.08.25","time":"23:49:38","latitude":"40.3415","longitude":"27.8563","depth":"13.6","md":"-.-","ml":"1.8","mw":"-.-","location":"EDINCIK-BANDIRMA (BALIKESIR)"},{"date":"2020.08.25","time":"21:51:23","latitude":"37.9075","longitude":"29.4528","depth":"5.0","md":"-.-","ml":"2.3","mw":"-.-","location":"DENIZLER-CAL (DENIZLI)"},{"date":"2020.08.25","time":"21:36:31","latitude":"36.9373","longitude":"27.8527","depth":"12.4","md":"-.-","ml":"2.1","mw":"-.-","location":"GOKOVA KORFEZI (AKDENIZ)"},{"date":"2020.08.25","time":"21:31:19","latitude":"37.0808","longitude":"27.8468","depth":"16.9","md":"-.-","ml":"1.1","mw":"-.-","location":"AKCAKAYA-MILAS (MUGLA)"},{"date":"2020.08.25","time":"21:19:35","latitude":"38.3558","longitude":"38.7973","depth":"2.6","md":"-.-","ml":"2.9","mw":"-.-","location":"KOZLUK-KALE (MALATYA)"},{"date":"2020.08.25","time":"19:53:04","latitude":"38.0395","longitude":"26.9367","depth":"4.0","md":"-.-","ml":"2.0","mw":"-.-","location":"KUSADASI KORFEZI (EGE DENIZI)"},{"date":"2020.08.25","time":"19:37:46","latitude":"35.2112","longitude":"23.8570","depth":"5.0","md":"-.-","ml":"3.3","mw":"3.4","location":"GIRIT ADASI (AKDENIZ)"},{"date":"2020.08.25","time":"18:06:53","latitude":"37.4442","longitude":"38.7827","depth":"10.3","md":"-.-","ml":"2.0","mw":"-.-","location":"ESTAGFIRULLAH-(SANLIURFA)"},{"date":"2020.08.25","time":"17:48:42","latitude":"38.4528","longitude":"39.2315","depth":"8.1","md":"-.-","ml":"1.3","mw":"-.-","location":"ALINCIK-SIVRICE (ELAZIG)"},{"date":"2020.08.25","time":"17:42:21","latitude":"38.7435","longitude":"43.0937","depth":"3.3","md":"-.-","ml":"1.7","mw":"-.-","location":"VAN GOLU"},{"date":"2020.08.25","time":"17:08:37","latitude":"39.4080","longitude":"27.6598","depth":"8.3","md":"-.-","ml":"1.5","mw":"-.-","location":"SAVASTEPE (BALIKESIR)"},{"date":"2020.08.25","time":"16:10:23","latitude":"39.5068","longitude":"28.1568","depth":"14.1","md":"-.-","ml":"1.1","mw":"-.-","location":"ISKELE-BIGADIC (BALIKESIR)"},{"date":"2020.08.25","time":"15:18:11","latitude":"35.0540","longitude":"36.0425","depth":"5.0","md":"-.-","ml":"3.0","mw":"2.9","location":"SURIYE"},{"date":"2020.08.25","time":"14:29:19","latitude":"38.8905","longitude":"26.9470","depth":"21.1","md":"-.-","ml":"1.9","mw":"-.-","location":"CANDARLI KORFEZI (EGE DENIZI)"},{"date":"2020.08.25","time":"13:50:29","latitude":"38.6750","longitude":"30.8453","depth":"5.0","md":"-.-","ml":"1.4","mw":"-.-","location":"HAMIDIYE-BOLVADIN (AFYONKARAHISAR)"},{"date":"2020.08.25","time":"13:27:52","latitude":"39.9350","longitude":"28.7957","depth":"0.0","md":"-.-","ml":"1.7","mw":"-.-","location":"CIVILI-ORHANELI (BURSA)"},{"date":"2020.08.25","time":"13:02:06","latitude":"38.2352","longitude":"38.8242","depth":"3.3","md":"-.-","ml":"2.2","mw":"-.-","location":"ORMELI-PUTURGE (MALATYA)"},{"date":"2020.08.25","time":"12:49:02","latitude":"38.0853","longitude":"32.5780","depth":"0.0","md":"-.-","ml":"0.8","mw":"-.-","location":"SARICALAR-SELCUKLU (KONYA)"},{"date":"2020.08.25","time":"12:31:17","latitude":"39.4145","longitude":"27.5987","depth":"10.0","md":"-.-","ml":"1.7","mw":"-.-","location":"SARIBEYLER-SAVASTEPE (BALIKESIR)"},{"date":"2020.08.25","time":"12:16:52","latitude":"39.9235","longitude":"28.8842","depth":"0.0","md":"-.-","ml":"1.6","mw":"-.-","location":"GIRENCIK-ORHANELI (BURSA)"},{"date":"2020.08.25","time":"12:12:50","latitude":"37.1823","longitude":"28.1587","depth":"0.0","md":"-.-","ml":"1.7","mw":"-.-","location":"CIFTLIKKOY-(MUGLA)"},{"date":"2020.08.25","time":"12:06:39","latitude":"39.3950","longitude":"27.6598","depth":"8.0","md":"-.-","ml":"1.8","mw":"-.-","location":"SAVASTEPE (BALIKESIR)"},{"date":"2020.08.25","time":"11:59:23","latitude":"37.2573","longitude":"27.9117","depth":"0.0","md":"-.-","ml":"1.6","mw":"-.-","location":"CAMLIBELEN-MILAS (MUGLA)"},{"date":"2020.08.25","time":"11:40:33","latitude":"34.9862","longitude":"27.1857","depth":"5.0","md":"-.-","ml":"2.9","mw":"-.-","location":"GIRIT ADASI ACIKLARI (AKDENIZ)"},{"date":"2020.08.25","time":"11:25:20","latitude":"39.9207","longitude":"28.8990","depth":"10.2","md":"-.-","ml":"1.8","mw":"-.-","location":"GIRENCIK-ORHANELI (BURSA)"},{"date":"2020.08.25","time":"11:18:11","latitude":"36.8535","longitude":"29.2827","depth":"22.0","md":"-.-","ml":"1.6","mw":"-.-","location":"SOGUTLU-FETHIYE (MUGLA)"},{"date":"2020.08.25","time":"07:02:29","latitude":"39.8540","longitude":"33.2700","depth":"3.6","md":"-.-","ml":"2.0","mw":"-.-","location":"EDIGE-ELMADAG (ANKARA)"},{"date":"2020.08.25","time":"06:44:01","latitude":"39.1657","longitude":"32.5857","depth":"7.2","md":"-.-","ml":"2.1","mw":"-.-","location":"YURTBEYLI-HAYMANA (ANKARA)"},{"date":"2020.08.25","time":"05:14:07","latitude":"37.3855","longitude":"29.4433","depth":"6.7","md":"-.-","ml":"2.1","mw":"-.-","location":"YENIKOY-ACIPAYAM (DENIZLI)"},{"date":"2020.08.25","time":"01:03:44","latitude":"36.6575","longitude":"36.7198","depth":"5.0","md":"-.-","ml":"2.6","mw":"-.-","location":"TURKIYE-SURIYE SINIR BOLGESI"},{"date":"2020.08.24","time":"23:10:10","latitude":"39.0862","longitude":"27.8217","depth":"5.3","md":"-.-","ml":"2.6","mw":"-.-","location":"ILYASLAR-KIRKAGAC (MANISA)"},{"date":"2020.08.24","time":"23:03:43","latitude":"36.6148","longitude":"28.2892","depth":"39.6","md":"-.-","ml":"1.4","mw":"-.-","location":"AKDENIZ"},{"date":"2020.08.24","time":"21:24:42","latitude":"38.2127","longitude":"38.7760","depth":"11.4","md":"-.-","ml":"2.1","mw":"-.-","location":"ORMANICI-PUTURGE (MALATYA)"},{"date":"2020.08.24","time":"21:04:30","latitude":"36.7095","longitude":"28.2533","depth":"37.0","md":"-.-","ml":"1.6","mw":"-.-","location":"OSMANIYE-MARMARIS (MUGLA)"},{"date":"2020.08.24","time":"18:37:58","latitude":"39.9023","longitude":"33.0703","depth":"9.5","md":"-.-","ml":"1.7","mw":"-.-","location":"ELMADAG (ANKARA)"},{"date":"2020.08.24","time":"16:29:07","latitude":"38.8877","longitude":"27.8993","depth":"0.0","md":"-.-","ml":"1.9","mw":"-.-","location":"KIZLARALANI-AKHISAR (MANISA)"},{"date":"2020.08.24","time":"16:23:01","latitude":"38.9498","longitude":"35.7390","depth":"1.9","md":"-.-","ml":"2.6","mw":"-.-","location":"KARAKAYA-BUNYAN (KAYSERI)"},{"date":"2020.08.24","time":"13:12:51","latitude":"35.8260","longitude":"30.4380","depth":"24.0","md":"-.-","ml":"2.3","mw":"-.-","location":"AKDENIZ"},{"date":"2020.08.24","time":"13:08:44","latitude":"39.9377","longitude":"28.7847","depth":"0.0","md":"-.-","ml":"1.8","mw":"-.-","location":"OMERALTI-MUSTAFAKEMALPASA (BURSA)"},{"date":"2020.08.24","time":"12:50:15","latitude":"38.9658","longitude":"27.3718","depth":"20.2","md":"-.-","ml":"1.3","mw":"-.-","location":"ORTULU-KINIK (IZMIR)"},{"date":"2020.08.24","time":"12:34:59","latitude":"39.4808","longitude":"28.2897","depth":"17.2","md":"-.-","ml":"1.4","mw":"-.-","location":"TURFULLAR-BIGADIC (BALIKESIR)"},{"date":"2020.08.24","time":"12:25:47","latitude":"39.4117","longitude":"30.2502","depth":"12.2","md":"-.-","ml":"1.7","mw":"-.-","location":"YUMAKLI-(KUTAHYA)"},{"date":"2020.08.24","time":"12:12:55","latitude":"37.2413","longitude":"28.2915","depth":"10.0","md":"-.-","ml":"2.0","mw":"-.-","location":"AKCAOVA-(MUGLA)"},{"date":"2020.08.24","time":"12:00:43","latitude":"37.3105","longitude":"27.9392","depth":"0.0","md":"-.-","ml":"1.2","mw":"-.-","location":"KOZAGAC-YATAGAN (MUGLA)"},{"date":"2020.08.24","time":"11:50:15","latitude":"37.2762","longitude":"27.8672","depth":"3.1","md":"-.-","ml":"1.6","mw":"-.-","location":"KALINAGIL-MILAS (MUGLA)"},{"date":"2020.08.24","time":"11:02:47","latitude":"41.0818","longitude":"26.7588","depth":"16.2","md":"-.-","ml":"1.1","mw":"-.-","location":"CAVUSLU-UZUNKOPRU (EDIRNE)"},{"date":"2020.08.24","time":"10:39:20","latitude":"39.0908","longitude":"41.8433","depth":"11.6","md":"-.-","ml":"1.9","mw":"-.-","location":"AKCATEPE-VARTO (MUS)"},{"date":"2020.08.24","time":"10:32:18","latitude":"38.1275","longitude":"38.5927","depth":"6.0","md":"-.-","ml":"2.2","mw":"-.-","location":"TEKEDERESI-PUTURGE (MALATYA)"},{"date":"2020.08.24","time":"10:27:42","latitude":"39.0062","longitude":"35.8728","depth":"5.0","md":"-.-","ml":"3.4","mw":"3.3","location":"PALAS-SARIOGLAN (KAYSERI)"},{"date":"2020.08.24","time":"10:16:05","latitude":"38.9768","longitude":"35.8488","depth":"5.7","md":"-.-","ml":"2.4","mw":"-.-","location":"BUYUKTUZHISAR-BUNYAN (KAYSERI)"},{"date":"2020.08.24","time":"08:55:43","latitude":"38.9397","longitude":"35.8538","depth":"11.9","md":"-.-","ml":"1.6","mw":"-.-","location":"BUYUKTUZHISAR-BUNYAN (KAYSERI)"},{"date":"2020.08.24","time":"08:37:59","latitude":"38.2750","longitude":"38.9005","depth":"12.5","md":"-.-","ml":"2.2","mw":"-.-","location":"TATLICAK-PUTURGE (MALATYA)"},{"date":"2020.08.24","time":"07:55:58","latitude":"39.5067","longitude":"24.9015","depth":"8.7","md":"-.-","ml":"2.2","mw":"-.-","location":"EGE DENIZI"},{"date":"2020.08.24","time":"07:21:51","latitude":"38.9988","longitude":"35.8588","depth":"6.9","md":"-.-","ml":"2.6","mw":"-.-","location":"PALAS-SARIOGLAN (KAYSERI)"}]
