[{"date":"2020.12.24","time":"03:43:41","latitude":"37.1435","longitude":"36.9803","depth":"8.9","md":"-.-","ml":"1.8","mw":"-.-","location":"IKIZKUYU-NURDAGI (GAZIANTEP)"},{"date":"2020.12.24","time":"03:39:51","latitude":"38.4283","longitude":"44.3865","depth":"5.0","md":"-.-","ml":"1.8","mw":"-.-","location":"TURKIYE-IRAN SINIR BOLGESI"},{"date":"2020.12.24","time":"03:11:00","latitude":"40.5692","longitude":"27.9990","depth":"9.1","md":"-.-","ml":"1.6","mw":"-.-","location":"KESTANELIK-ERDEK (BALIKESIR)"},{"date":"2020.12.24","time":"03:08:49","latitude":"37.9405","longitude":"27.1120","depth":"5.4","md":"-.-","ml":"1.7","mw":"-.-","location":"KUSADASI KORFEZI (EGE DENIZI)"},{"date":"2020.12.24","time":"02:58:38","latitude":"37.9200","longitude":"27.0783","depth":"5.3","md":"-.-","ml":"1.5","mw":"-.-","location":"KUSADASI KORFEZI (EGE DENIZI)"},{"date":"2020.12.24","time":"02:53:42","latitude":"37.9345","longitude":"27.1110","depth":"7.7","md":"-.-","ml":"3.2","mw":"3.0","location":"KUSADASI KORFEZI (EGE DENIZI)"},{"date":"2020.12.24","time":"02:29:00","latitude":"36.4970","longitude":"27.7795","depth":"10.5","md":"-.-","ml":"2.6","mw":"-.-","location":"AKDENIZ"},{"date":"2020.12.24","time":"01:46:34","latitude":"39.0078","longitude":"27.9015","depth":"8.0","md":"-.-","ml":"1.6","mw":"-.-","location":"YENICE-AKHISAR (MANISA)"},{"date":"2020.12.24","time":"01:34:27","latitude":"39.0097","longitude":"27.8785","depth":"6.5","md":"-.-","ml":"2.0","mw":"-.-","location":"DINGILLER-AKHISAR (MANISA)"},{"date":"2020.12.24","time":"00:47:06","latitude":"36.4952","longitude":"28.7158","depth":"12.7","md":"-.-","ml":"1.6","mw":"-.-","location":"AKDENIZ"},{"date":"2020.12.24","time":"00:45:20","latitude":"36.5642","longitude":"28.7453","depth":"15.1","md":"-.-","ml":"1.3","mw":"-.-","location":"DALAMAN ACIKLARI-MUGLA (AKDENIZ)"},{"date":"2020.12.24","time":"00:28:27","latitude":"36.5083","longitude":"28.7260","depth":"9.8","md":"-.-","ml":"1.4","mw":"-.-","location":"AKDENIZ"},{"date":"2020.12.24","time":"00:20:49","latitude":"36.5238","longitude":"28.7093","depth":"16.9","md":"-.-","ml":"1.5","mw":"-.-","location":"AKDENIZ"},{"date":"2020.12.24","time":"00:20:03","latitude":"37.7815","longitude":"26.8180","depth":"12.6","md":"-.-","ml":"1.7","mw":"-.-","location":"SISAM ADASI (EGE DENIZI)"},{"date":"2020.12.24","time":"00:14:48","latitude":"36.5075","longitude":"28.6750","depth":"15.3","md":"-.-","ml":"2.8","mw":"-.-","location":"AKDENIZ"},{"date":"2020.12.24","time":"00:13:42","latitude":"36.5157","longitude":"28.6877","depth":"14.0","md":"-.-","ml":"3.8","mw":"3.7","location":"AKDENIZ"},{"date":"2020.12.24","time":"00:09:18","latitude":"36.5405","longitude":"28.6725","depth":"9.0","md":"-.-","ml":"2.4","mw":"-.-","location":"AKDENIZ"},{"date":"2020.12.24","time":"00:08:07","latitude":"36.6515","longitude":"28.5108","depth":"8.8","md":"-.-","ml":"2.2","mw":"-.-","location":"DALYAN ACIKLARI-MUGLA (AKDENIZ)"},{"date":"2020.12.24","time":"00:07:15","latitude":"36.5338","longitude":"28.7005","depth":"12.2","md":"-.-","ml":"2.6","mw":"-.-","location":"AKDENIZ"},{"date":"2020.12.24","time":"00:06:55","latitude":"37.8012","longitude":"26.8475","depth":"15.5","md":"-.-","ml":"2.0","mw":"-.-","location":"SISAM ADASI (EGE DENIZI)"},{"date":"2020.12.24","time":"00:03:31","latitude":"36.5927","longitude":"28.7225","depth":"8.4","md":"-.-","ml":"1.8","mw":"-.-","location":"DALAMAN ACIKLARI-MUGLA (AKDENIZ)"},{"date":"2020.12.24","time":"00:01:39","latitude":"37.8547","longitude":"26.9500","depth":"3.0","md":"-.-","ml":"1.7","mw":"-.-","location":"KUSADASI KORFEZI (EGE DENIZI)"},{"date":"2020.12.23","time":"23:55:49","latitude":"37.8155","longitude":"26.8708","depth":"7.7","md":"-.-","ml":"2.3","mw":"-.-","location":"SISAM ADASI (EGE DENIZI)"},{"date":"2020.12.23","time":"23:46:54","latitude":"37.9098","longitude":"26.6078","depth":"5.7","md":"-.-","ml":"2.0","mw":"-.-","location":"EGE DENIZI"},{"date":"2020.12.23","time":"23:22:45","latitude":"37.9478","longitude":"26.3752","depth":"1.7","md":"-.-","ml":"2.9","mw":"-.-","location":"EGE DENIZI"},{"date":"2020.12.23","time":"22:42:04","latitude":"37.8260","longitude":"26.7217","depth":"5.0","md":"-.-","ml":"2.2","mw":"-.-","location":"EGE DENIZI"},{"date":"2020.12.23","time":"22:41:16","latitude":"37.9350","longitude":"27.1083","depth":"8.6","md":"-.-","ml":"1.8","mw":"-.-","location":"KUSADASI KORFEZI (EGE DENIZI)"},{"date":"2020.12.23","time":"22:37:27","latitude":"36.5570","longitude":"28.7110","depth":"16.1","md":"-.-","ml":"1.9","mw":"-.-","location":"AKDENIZ"},{"date":"2020.12.23","time":"22:25:15","latitude":"39.1032","longitude":"41.9838","depth":"8.5","md":"-.-","ml":"2.0","mw":"-.-","location":"BOSTANCILAR-BULANIK (MUS)"},{"date":"2020.12.23","time":"22:20:42","latitude":"37.9185","longitude":"27.1082","depth":"3.6","md":"-.-","ml":"1.5","mw":"-.-","location":"KUSADASI KORFEZI (EGE DENIZI)"},{"date":"2020.12.23","time":"22:09:08","latitude":"36.5572","longitude":"28.6952","depth":"10.0","md":"-.-","ml":"2.5","mw":"-.-","location":"AKDENIZ"},{"date":"2020.12.23","time":"22:07:54","latitude":"36.4820","longitude":"28.6258","depth":"6.9","md":"-.-","ml":"1.9","mw":"-.-","location":"AKDENIZ"},{"date":"2020.12.23","time":"21:52:46","latitude":"38.8223","longitude":"33.5928","depth":"9.2","md":"-.-","ml":"1.6","mw":"-.-","location":"KARANDERE-SEREFLIKOCHISAR (ANKARA)"},{"date":"2020.12.23","time":"21:25:37","latitude":"37.8168","longitude":"26.7720","depth":"5.0","md":"-.-","ml":"2.7","mw":"-.-","location":"EGE DENIZI"},{"date":"2020.12.23","time":"18:29:46","latitude":"39.4075","longitude":"31.5562","depth":"0.0","md":"-.-","ml":"1.6","mw":"-.-","location":"TEKOREN-SIVRIHISAR (ESKISEHIR)"},{"date":"2020.12.23","time":"17:25:10","latitude":"37.8303","longitude":"26.5827","depth":"13.3","md":"-.-","ml":"1.9","mw":"-.-","location":"SISAM ADASI (EGE DENIZI)"},{"date":"2020.12.23","time":"17:12:30","latitude":"38.7607","longitude":"39.5615","depth":"17.0","md":"-.-","ml":"1.7","mw":"-.-","location":"FAHRIBEYMEZREASI-KOVANCILAR (ELAZIG)"},{"date":"2020.12.23","time":"16:26:54","latitude":"37.8672","longitude":"27.0492","depth":"4.9","md":"-.-","ml":"2.2","mw":"-.-","location":"KUSADASI KORFEZI (EGE DENIZI)"},{"date":"2020.12.23","time":"15:50:10","latitude":"36.1530","longitude":"33.5612","depth":"0.0","md":"-.-","ml":"1.4","mw":"-.-","location":"BUYUKECELI-GULNAR (MERSIN)"},{"date":"2020.12.23","time":"15:45:42","latitude":"39.2803","longitude":"40.2212","depth":"18.7","md":"-.-","ml":"2.1","mw":"-.-","location":"ACIKGUNEY-KIGI (BINGOL)"},{"date":"2020.12.23","time":"15:39:46","latitude":"38.7152","longitude":"28.2088","depth":"5.0","md":"-.-","ml":"1.1","mw":"-.-","location":"HACIHIDIR-SALIHLI (MANISA)"},{"date":"2020.12.23","time":"14:46:37","latitude":"40.0945","longitude":"42.9083","depth":"5.0","md":"-.-","ml":"2.8","mw":"-.-","location":"DENIZGOLU-KAGIZMAN (KARS)"},{"date":"2020.12.23","time":"14:43:15","latitude":"37.8162","longitude":"26.8978","depth":"5.0","md":"-.-","ml":"1.9","mw":"-.-","location":"SISAM ADASI (EGE DENIZI)"},{"date":"2020.12.23","time":"14:40:34","latitude":"37.9138","longitude":"27.6155","depth":"5.0","md":"-.-","ml":"2.3","mw":"-.-","location":"DAGKARAAGAC-GERMENCIK (AYDIN)"},{"date":"2020.12.23","time":"14:22:37","latitude":"37.8492","longitude":"27.0210","depth":"10.4","md":"-.-","ml":"2.1","mw":"-.-","location":"KUSADASI KORFEZI (EGE DENIZI)"},{"date":"2020.12.23","time":"14:19:49","latitude":"36.1463","longitude":"33.5708","depth":"0.0","md":"-.-","ml":"1.3","mw":"-.-","location":"BUYUKECELI-GULNAR (MERSIN)"},{"date":"2020.12.23","time":"14:13:59","latitude":"37.9517","longitude":"27.5765","depth":"5.1","md":"-.-","ml":"1.9","mw":"-.-","location":"CAMKOY-GERMENCIK (AYDIN)"},{"date":"2020.12.23","time":"14:11:53","latitude":"40.8000","longitude":"27.8717","depth":"8.9","md":"-.-","ml":"2.2","mw":"-.-","location":"MARMARA DENIZI"},{"date":"2020.12.23","time":"14:06:29","latitude":"37.8863","longitude":"27.6083","depth":"1.6","md":"-.-","ml":"3.5","mw":"3.7","location":"DAGKARAAGAC-GERMENCIK (AYDIN)"},{"date":"2020.12.23","time":"13:33:52","latitude":"37.1355","longitude":"34.7298","depth":"17.0","md":"-.-","ml":"1.3","mw":"-.-","location":"DARIPINARI-CAMLIYAYLA (MERSIN)"},{"date":"2020.12.23","time":"12:56:17","latitude":"37.6557","longitude":"27.1532","depth":"5.2","md":"-.-","ml":"1.4","mw":"-.-","location":"DOGANBEY-SOKE (AYDIN)"},{"date":"2020.12.23","time":"12:55:59","latitude":"37.7303","longitude":"27.0883","depth":"2.5","md":"-.-","ml":"1.4","mw":"-.-","location":"KUSADASI KORFEZI (EGE DENIZI)"},{"date":"2020.12.23","time":"12:37:46","latitude":"37.0980","longitude":"27.8207","depth":"0.0","md":"-.-","ml":"1.6","mw":"-.-","location":"CIFTLIKKOY-MILAS (MUGLA)"},{"date":"2020.12.23","time":"12:33:27","latitude":"40.1988","longitude":"30.8132","depth":"8.0","md":"-.-","ml":"1.6","mw":"-.-","location":"SOGUKCAM-GOYNUK (BOLU)"},{"date":"2020.12.23","time":"12:31:42","latitude":"40.2133","longitude":"30.8268","depth":"6.8","md":"-.-","ml":"1.8","mw":"-.-","location":"AHMETBEYLER-GOYNUK (BOLU)"},{"date":"2020.12.23","time":"12:15:35","latitude":"39.9293","longitude":"28.7987","depth":"0.0","md":"-.-","ml":"1.6","mw":"-.-","location":"CIVILI-ORHANELI (BURSA)"},{"date":"2020.12.23","time":"12:00:13","latitude":"37.9318","longitude":"27.1103","depth":"5.0","md":"-.-","ml":"2.1","mw":"-.-","location":"KUSADASI KORFEZI (EGE DENIZI)"},{"date":"2020.12.23","time":"11:50:10","latitude":"40.3872","longitude":"26.4955","depth":"12.6","md":"-.-","ml":"0.9","mw":"-.-","location":"TAYFURKOY-GELIBOLU (CANAKKALE)"},{"date":"2020.12.23","time":"11:44:13","latitude":"37.6160","longitude":"29.2358","depth":"0.0","md":"-.-","ml":"1.2","mw":"-.-","location":"SARIABAT-TAVAS (DENIZLI)"},{"date":"2020.12.23","time":"11:43:57","latitude":"39.0320","longitude":"30.0740","depth":"14.3","md":"-.-","ml":"1.6","mw":"-.-","location":"KARAAGAC-ALTINTAS (KUTAHYA)"},{"date":"2020.12.23","time":"11:30:20","latitude":"39.1610","longitude":"27.4143","depth":"5.0","md":"-.-","ml":"2.2","mw":"-.-","location":"BOLCEK-BERGAMA (IZMIR)"},{"date":"2020.12.23","time":"11:14:55","latitude":"37.8065","longitude":"26.9407","depth":"8.2","md":"-.-","ml":"2.6","mw":"-.-","location":"SISAM ADASI (EGE DENIZI)"},{"date":"2020.12.23","time":"10:42:31","latitude":"37.1938","longitude":"37.2263","depth":"0.0","md":"-.-","ml":"1.1","mw":"-.-","location":"BOYNO-SEHITKAMIL (GAZIANTEP)"},{"date":"2020.12.23","time":"10:00:45","latitude":"37.1142","longitude":"28.4337","depth":"0.0","md":"-.-","ml":"1.5","mw":"-.-","location":"ULA (MUGLA)"},{"date":"2020.12.23","time":"09:56:35","latitude":"37.9492","longitude":"41.7487","depth":"6.8","md":"-.-","ml":"1.7","mw":"-.-","location":"OYACIK-KURTALAN (SIIRT)"},{"date":"2020.12.23","time":"09:03:47","latitude":"39.9788","longitude":"33.1332","depth":"10.6","md":"-.-","ml":"1.9","mw":"-.-","location":"ELMADAG (ANKARA)"},{"date":"2020.12.23","time":"09:00:40","latitude":"37.6138","longitude":"28.3172","depth":"13.2","md":"-.-","ml":"1.6","mw":"-.-","location":"ALTINTAS-BOZDOGAN (AYDIN)"},{"date":"2020.12.23","time":"08:59:38","latitude":"38.0558","longitude":"27.5707","depth":"5.2","md":"-.-","ml":"1.5","mw":"-.-","location":"ALAYLI-TIRE (IZMIR)"},{"date":"2020.12.23","time":"08:25:27","latitude":"38.4930","longitude":"39.2075","depth":"11.5","md":"-.-","ml":"1.6","mw":"-.-","location":"KAVAKTEPE-(ELAZIG)"},{"date":"2020.12.23","time":"07:38:27","latitude":"37.9012","longitude":"26.8702","depth":"3.3","md":"-.-","ml":"2.0","mw":"-.-","location":"KUSADASI KORFEZI (EGE DENIZI)"},{"date":"2020.12.23","time":"07:36:41","latitude":"39.3397","longitude":"40.7048","depth":"5.0","md":"-.-","ml":"3.1","mw":"3.2","location":"DINARBEY-YEDISU (BINGOL)"},{"date":"2020.12.23","time":"07:33:12","latitude":"35.8455","longitude":"30.4175","depth":"20.2","md":"-.-","ml":"2.9","mw":"-.-","location":"AKDENIZ"},{"date":"2020.12.23","time":"06:08:09","latitude":"37.8163","longitude":"26.8772","depth":"13.9","md":"-.-","ml":"1.5","mw":"-.-","location":"SISAM ADASI (EGE DENIZI)"},{"date":"2020.12.23","time":"05:15:26","latitude":"37.6597","longitude":"28.3647","depth":"11.1","md":"-.-","ml":"2.4","mw":"-.-","location":"YAKAKOY-BOZDOGAN (AYDIN)"},{"date":"2020.12.23","time":"03:13:29","latitude":"38.7345","longitude":"39.1767","depth":"7.2","md":"-.-","ml":"1.6","mw":"-.-","location":"NURALI-(ELAZIG)"},{"date":"2020.12.23","time":"02:45:49","latitude":"37.9133","longitude":"26.8970","depth":"13.3","md":"-.-","ml":"1.5","mw":"-.-","location":"KUSADASI KORFEZI (EGE DENIZI)"},{"date":"2020.12.23","time":"02:41:22","latitude":"37.9147","longitude":"26.8948","depth":"13.9","md":"-.-","ml":"1.5","mw":"-.-","location":"KUSADASI KORFEZI (EGE DENIZI)"},{"date":"2020.12.23","time":"02:09:14","latitude":"37.7768","longitude":"27.2302","depth":"9.4","md":"-.-","ml":"1.2","mw":"-.-","location":"KUSADASI KORFEZI (EGE DENIZI)"},{"date":"2020.12.23","time":"01:29:18","latitude":"37.7197","longitude":"26.8315","depth":"12.9","md":"-.-","ml":"2.1","mw":"-.-","location":"SISAM ADASI (EGE DENIZI)"},{"date":"2020.12.23","time":"01:18:17","latitude":"37.6075","longitude":"26.9238","depth":"12.9","md":"-.-","ml":"1.4","mw":"-.-","location":"EGE DENIZI"},{"date":"2020.12.23","time":"01:13:33","latitude":"37.7750","longitude":"27.0218","depth":"9.9","md":"-.-","ml":"2.3","mw":"-.-","location":"KUSADASI KORFEZI (EGE DENIZI)"},{"date":"2020.12.23","time":"01:02:19","latitude":"37.7938","longitude":"27.0193","depth":"7.8","md":"-.-","ml":"2.0","mw":"-.-","location":"KUSADASI KORFEZI (EGE DENIZI)"},{"date":"2020.12.23","time":"01:00:40","latitude":"38.3032","longitude":"38.7292","depth":"24.1","md":"-.-","ml":"1.7","mw":"-.-","location":"KAMISTAS-(MALATYA)"},{"date":"2020.12.23","time":"00:56:36","latitude":"38.1795","longitude":"27.7818","depth":"7.2","md":"-.-","ml":"2.0","mw":"-.-","location":"DEREBASI-TIRE (IZMIR)"},{"date":"2020.12.23","time":"00:51:15","latitude":"37.8770","longitude":"26.8243","depth":"9.5","md":"-.-","ml":"1.3","mw":"-.-","location":"EGE DENIZI"},{"date":"2020.12.23","time":"00:37:44","latitude":"38.0380","longitude":"26.1658","depth":"3.1","md":"-.-","ml":"1.8","mw":"-.-","location":"EGE DENIZI"},{"date":"2020.12.23","time":"00:28:03","latitude":"37.7898","longitude":"27.0405","depth":"5.4","md":"-.-","ml":"1.7","mw":"-.-","location":"KUSADASI KORFEZI (EGE DENIZI)"},{"date":"2020.12.23","time":"00:23:03","latitude":"37.7938","longitude":"26.8585","depth":"5.3","md":"-.-","ml":"1.6","mw":"-.-","location":"SISAM ADASI (EGE DENIZI)"},{"date":"2020.12.22","time":"23:42:04","latitude":"36.5475","longitude":"27.8982","depth":"5.9","md":"-.-","ml":"2.3","mw":"-.-","location":"BOZBURUN ACIKLARI-MUGLA (AKDENIZ)"},{"date":"2020.12.22","time":"23:16:52","latitude":"39.7770","longitude":"32.5732","depth":"5.8","md":"-.-","ml":"1.4","mw":"-.-","location":"DEVECI-HAYMANA (ANKARA)"},{"date":"2020.12.22","time":"23:06:39","latitude":"40.1038","longitude":"42.8578","depth":"5.3","md":"-.-","ml":"1.6","mw":"-.-","location":"URKER-KAGIZMAN (KARS)"},{"date":"2020.12.22","time":"21:54:34","latitude":"38.2488","longitude":"38.6942","depth":"5.0","md":"-.-","ml":"2.6","mw":"-.-","location":"CAYKOY-PUTURGE (MALATYA)"},{"date":"2020.12.22","time":"21:10:17","latitude":"36.7108","longitude":"36.4013","depth":"7.5","md":"-.-","ml":"1.2","mw":"-.-","location":"GUVENC-HASSA (HATAY)"},{"date":"2020.12.22","time":"20:33:53","latitude":"40.0157","longitude":"42.6325","depth":"9.0","md":"-.-","ml":"2.0","mw":"-.-","location":"GULLUCE-SARIKAMIS (KARS)"},{"date":"2020.12.22","time":"19:57:03","latitude":"39.7063","longitude":"26.4663","depth":"4.5","md":"-.-","ml":"2.1","mw":"-.-","location":"ALIKABAKLAR-BAYRAMIC (CANAKKALE)"},{"date":"2020.12.22","time":"19:07:44","latitude":"37.8247","longitude":"26.9855","depth":"24.6","md":"-.-","ml":"1.3","mw":"-.-","location":"KUSADASI KORFEZI (EGE DENIZI)"},{"date":"2020.12.22","time":"19:03:53","latitude":"38.8207","longitude":"41.8532","depth":"4.5","md":"-.-","ml":"1.9","mw":"-.-","location":"TANKOY-KORKUT (MUS)"},{"date":"2020.12.22","time":"18:00:55","latitude":"37.7810","longitude":"26.8947","depth":"6.7","md":"-.-","ml":"1.4","mw":"-.-","location":"SISAM ADASI (EGE DENIZI)"},{"date":"2020.12.22","time":"17:40:32","latitude":"37.7540","longitude":"26.8965","depth":"17.5","md":"-.-","ml":"1.4","mw":"-.-","location":"SISAM ADASI (EGE DENIZI)"},{"date":"2020.12.22","time":"17:38:15","latitude":"38.7357","longitude":"43.1707","depth":"5.0","md":"-.-","ml":"2.5","mw":"-.-","location":"VAN GOLU"},{"date":"2020.12.22","time":"17:17:59","latitude":"37.8947","longitude":"27.0007","depth":"5.5","md":"-.-","ml":"2.1","mw":"-.-","location":"KUSADASI KORFEZI (EGE DENIZI)"},{"date":"2020.12.22","time":"16:34:34","latitude":"37.9077","longitude":"27.2487","depth":"8.3","md":"-.-","ml":"1.7","mw":"-.-","location":"KUSADASI KORFEZI (EGE DENIZI)"},{"date":"2020.12.22","time":"15:45:13","latitude":"35.7782","longitude":"36.4470","depth":"14.5","md":"-.-","ml":"3.9","mw":"-.-","location":"SURIYE"},{"date":"2020.12.22","time":"15:33:10","latitude":"38.5947","longitude":"38.0055","depth":"3.8","md":"-.-","ml":"1.8","mw":"-.-","location":"BOGURTLEN-YAZIHAN (MALATYA)"},{"date":"2020.12.22","time":"15:31:25","latitude":"37.9565","longitude":"26.9882","depth":"4.9","md":"-.-","ml":"1.9","mw":"-.-","location":"KUSADASI KORFEZI (EGE DENIZI)"},{"date":"2020.12.22","time":"14:46:12","latitude":"38.7825","longitude":"26.4867","depth":"3.9","md":"-.-","ml":"2.1","mw":"-.-","location":"EGE DENIZI"},{"date":"2020.12.22","time":"14:08:55","latitude":"37.2553","longitude":"37.4943","depth":"0.0","md":"-.-","ml":"1.6","mw":"-.-","location":"ORENLI-YAVUZELI (GAZIANTEP)"},{"date":"2020.12.22","time":"14:07:19","latitude":"37.8432","longitude":"27.0457","depth":"7.0","md":"-.-","ml":"2.0","mw":"-.-","location":"KUSADASI KORFEZI (EGE DENIZI)"},{"date":"2020.12.22","time":"12:58:31","latitude":"39.3035","longitude":"37.9195","depth":"5.0","md":"-.-","ml":"2.4","mw":"-.-","location":"HOBEK-DIVRIGI (SIVAS)"},{"date":"2020.12.22","time":"12:52:12","latitude":"35.4147","longitude":"22.3238","depth":"10.2","md":"-.-","ml":"2.6","mw":"-.-","location":"YUNANISTAN"},{"date":"2020.12.22","time":"12:38:04","latitude":"37.8865","longitude":"26.9428","depth":"5.5","md":"-.-","ml":"2.3","mw":"-.-","location":"KUSADASI KORFEZI (EGE DENIZI)"},{"date":"2020.12.22","time":"12:29:17","latitude":"37.2898","longitude":"31.9125","depth":"0.0","md":"-.-","ml":"2.1","mw":"-.-","location":"SUSUZ-SEYDISEHIR (KONYA)"},{"date":"2020.12.22","time":"12:27:17","latitude":"36.9232","longitude":"28.6562","depth":"7.5","md":"-.-","ml":"1.2","mw":"-.-","location":"HAMITKOY-KOYCEGIZ (MUGLA)"},{"date":"2020.12.22","time":"12:22:13","latitude":"37.9225","longitude":"26.9945","depth":"5.2","md":"-.-","ml":"2.0","mw":"-.-","location":"KUSADASI KORFEZI (EGE DENIZI)"},{"date":"2020.12.22","time":"12:04:05","latitude":"37.8442","longitude":"27.2070","depth":"10.1","md":"-.-","ml":"1.9","mw":"-.-","location":"KUSADASI KORFEZI (EGE DENIZI)"},{"date":"2020.12.22","time":"11:32:05","latitude":"37.8682","longitude":"37.4342","depth":"13.9","md":"-.-","ml":"2.2","mw":"-.-","location":"BICIN-NURHAK (KAHRAMANMARAS)"},{"date":"2020.12.22","time":"10:53:33","latitude":"37.9368","longitude":"27.1100","depth":"1.5","md":"-.-","ml":"2.9","mw":"-.-","location":"KUSADASI KORFEZI (EGE DENIZI)"},{"date":"2020.12.22","time":"10:03:33","latitude":"37.8967","longitude":"27.2020","depth":"9.6","md":"-.-","ml":"1.9","mw":"-.-","location":"KUSADASI KORFEZI (EGE DENIZI)"},{"date":"2020.12.22","time":"09:30:04","latitude":"38.8035","longitude":"27.7783","depth":"0.0","md":"-.-","ml":"2.2","mw":"-.-","location":"BEYOBA-AKHISAR (MANISA)"},{"date":"2020.12.22","time":"09:12:52","latitude":"39.2720","longitude":"29.2417","depth":"0.0","md":"-.-","ml":"1.5","mw":"-.-","location":"IGDEKOY-EMET (KUTAHYA)"},{"date":"2020.12.22","time":"08:55:06","latitude":"34.6928","longitude":"24.3372","depth":"5.0","md":"-.-","ml":"2.6","mw":"-.-","location":"GIRIT ADASI ACIKLARI (AKDENIZ)"},{"date":"2020.12.22","time":"08:17:49","latitude":"37.9607","longitude":"43.7573","depth":"7.5","md":"-.-","ml":"1.8","mw":"-.-","location":"TUTAK-GURPINAR (VAN)"},{"date":"2020.12.22","time":"07:36:36","latitude":"37.8583","longitude":"26.8273","depth":"3.0","md":"-.-","ml":"2.7","mw":"-.-","location":"EGE DENIZI"},{"date":"2020.12.22","time":"06:43:28","latitude":"37.8327","longitude":"26.9430","depth":"9.4","md":"-.-","ml":"1.8","mw":"-.-","location":"KUSADASI KORFEZI (EGE DENIZI)"},{"date":"2020.12.22","time":"05:34:42","latitude":"37.9322","longitude":"27.1145","depth":"9.8","md":"-.-","ml":"1.6","mw":"-.-","location":"KUSADASI KORFEZI (EGE DENIZI)"},{"date":"2020.12.22","time":"04:27:26","latitude":"34.9033","longitude":"23.8207","depth":"27.6","md":"-.-","ml":"2.5","mw":"-.-","location":"GIRIT ADASI (AKDENIZ)"},{"date":"2020.12.22","time":"04:18:08","latitude":"37.8987","longitude":"26.9242","depth":"9.2","md":"-.-","ml":"1.7","mw":"-.-","location":"KUSADASI KORFEZI (EGE DENIZI)"},{"date":"2020.12.22","time":"04:03:14","latitude":"38.7610","longitude":"42.5920","depth":"5.0","md":"-.-","ml":"1.7","mw":"-.-","location":"SOGANLI-AHLAT (BITLIS)"},{"date":"2020.12.22","time":"03:44:11","latitude":"38.4307","longitude":"26.6605","depth":"13.7","md":"-.-","ml":"1.6","mw":"-.-","location":"IZMIR KORFEZI (EGE DENIZI)"},{"date":"2020.12.22","time":"03:38:42","latitude":"39.2405","longitude":"33.4793","depth":"8.7","md":"-.-","ml":"1.0","mw":"-.-","location":"BUYUKBIYIK-BALA (ANKARA)"},{"date":"2020.12.22","time":"02:55:16","latitude":"38.9423","longitude":"30.0442","depth":"16.1","md":"-.-","ml":"1.4","mw":"-.-","location":"ZAFERTEPECALKOY-ALTINTAS (KUTAHYA)"},{"date":"2020.12.22","time":"02:52:31","latitude":"37.9435","longitude":"26.7205","depth":"10.4","md":"-.-","ml":"1.4","mw":"-.-","location":"EGE DENIZI"},{"date":"2020.12.22","time":"02:13:54","latitude":"39.3780","longitude":"40.5560","depth":"6.0","md":"-.-","ml":"1.3","mw":"-.-","location":"SENKOY-YEDISU (BINGOL)"},{"date":"2020.12.22","time":"01:52:38","latitude":"38.3830","longitude":"38.7708","depth":"9.4","md":"-.-","ml":"1.9","mw":"-.-","location":"TEPEKOY-KALE (MALATYA)"},{"date":"2020.12.22","time":"01:52:23","latitude":"37.8015","longitude":"26.8968","depth":"9.9","md":"-.-","ml":"1.6","mw":"-.-","location":"SISAM ADASI (EGE DENIZI)"},{"date":"2020.12.22","time":"01:51:05","latitude":"37.7867","longitude":"26.8690","depth":"6.1","md":"-.-","ml":"2.2","mw":"-.-","location":"SISAM ADASI (EGE DENIZI)"},{"date":"2020.12.22","time":"01:24:11","latitude":"37.9243","longitude":"27.0273","depth":"7.9","md":"-.-","ml":"1.3","mw":"-.-","location":"KUSADASI KORFEZI (EGE DENIZI)"},{"date":"2020.12.22","time":"01:09:45","latitude":"37.7902","longitude":"26.7723","depth":"9.6","md":"-.-","ml":"1.4","mw":"-.-","location":"SISAM ADASI (EGE DENIZI)"},{"date":"2020.12.22","time":"01:07:21","latitude":"38.7402","longitude":"27.9633","depth":"5.8","md":"-.-","ml":"2.4","mw":"-.-","location":"HIROGLU-GOLMARMARA (MANISA)"},{"date":"2020.12.22","time":"01:04:46","latitude":"39.3968","longitude":"41.1640","depth":"5.3","md":"-.-","ml":"2.1","mw":"-.-","location":"CIMENOZU-CAT (ERZURUM)"},{"date":"2020.12.22","time":"00:51:35","latitude":"35.5313","longitude":"27.0365","depth":"25.3","md":"-.-","ml":"3.2","mw":"3.3","location":"AKDENIZ"},{"date":"2020.12.22","time":"00:41:59","latitude":"38.9597","longitude":"30.0380","depth":"5.5","md":"-.-","ml":"1.7","mw":"-.-","location":"EYIDEMIR-DUMLUPINAR (KUTAHYA)"},{"date":"2020.12.21","time":"23:44:29","latitude":"38.2423","longitude":"38.7343","depth":"4.4","md":"-.-","ml":"1.3","mw":"-.-","location":"BALPINARI-PUTURGE (MALATYA)"},{"date":"2020.12.21","time":"23:27:10","latitude":"37.8193","longitude":"26.9297","depth":"20.3","md":"-.-","ml":"1.5","mw":"-.-","location":"SISAM ADASI (EGE DENIZI)"},{"date":"2020.12.21","time":"22:03:53","latitude":"37.0018","longitude":"27.7305","depth":"4.9","md":"-.-","ml":"1.5","mw":"-.-","location":"MAZIKOY-BODRUM (MUGLA)"},{"date":"2020.12.21","time":"21:58:07","latitude":"37.8885","longitude":"26.8775","depth":"20.7","md":"-.-","ml":"1.4","mw":"-.-","location":"KUSADASI KORFEZI (EGE DENIZI)"},{"date":"2020.12.21","time":"21:47:29","latitude":"37.8480","longitude":"26.9278","depth":"9.2","md":"-.-","ml":"1.5","mw":"-.-","location":"KUSADASI KORFEZI (EGE DENIZI)"},{"date":"2020.12.21","time":"21:29:56","latitude":"37.8448","longitude":"26.8458","depth":"5.0","md":"-.-","ml":"1.4","mw":"-.-","location":"SISAM ADASI (EGE DENIZI)"},{"date":"2020.12.21","time":"18:38:43","latitude":"37.6502","longitude":"26.7937","depth":"5.0","md":"-.-","ml":"1.9","mw":"-.-","location":"EGE DENIZI"},{"date":"2020.12.21","time":"18:31:47","latitude":"37.9247","longitude":"27.1002","depth":"5.1","md":"-.-","ml":"3.3","mw":"3.3","location":"KUSADASI KORFEZI (EGE DENIZI)"},{"date":"2020.12.21","time":"18:22:45","latitude":"37.6012","longitude":"26.7840","depth":"7.4","md":"-.-","ml":"1.8","mw":"-.-","location":"EGE DENIZI"},{"date":"2020.12.21","time":"18:15:07","latitude":"37.8928","longitude":"26.4785","depth":"5.0","md":"-.-","ml":"1.8","mw":"-.-","location":"EGE DENIZI"},{"date":"2020.12.21","time":"18:13:59","latitude":"37.8798","longitude":"27.0900","depth":"5.2","md":"-.-","ml":"1.7","mw":"-.-","location":"KUSADASI KORFEZI (EGE DENIZI)"},{"date":"2020.12.21","time":"16:56:01","latitude":"37.9388","longitude":"26.9410","depth":"5.1","md":"-.-","ml":"1.7","mw":"-.-","location":"KUSADASI KORFEZI (EGE DENIZI)"},{"date":"2020.12.21","time":"16:41:47","latitude":"37.9075","longitude":"26.9582","depth":"15.6","md":"-.-","ml":"1.4","mw":"-.-","location":"KUSADASI KORFEZI (EGE DENIZI)"},{"date":"2020.12.21","time":"16:37:34","latitude":"37.2902","longitude":"27.8860","depth":"0.0","md":"-.-","ml":"1.3","mw":"-.-","location":"TUZABAT-MILAS (MUGLA)"},{"date":"2020.12.21","time":"16:36:52","latitude":"37.2625","longitude":"27.8730","depth":"24.0","md":"-.-","ml":"1.2","mw":"-.-","location":"KALINAGIL-MILAS (MUGLA)"},{"date":"2020.12.21","time":"16:33:31","latitude":"37.8815","longitude":"27.4585","depth":"14.7","md":"-.-","ml":"1.5","mw":"-.-","location":"NAIPLI-GERMENCIK (AYDIN)"},{"date":"2020.12.21","time":"16:28:26","latitude":"37.8957","longitude":"27.5605","depth":"8.9","md":"-.-","ml":"2.2","mw":"-.-","location":"ABDURRAHMANLAR-GERMENCIK (AYDIN)"},{"date":"2020.12.21","time":"16:23:36","latitude":"37.8740","longitude":"26.9162","depth":"7.8","md":"-.-","ml":"1.6","mw":"-.-","location":"KUSADASI KORFEZI (EGE DENIZI)"},{"date":"2020.12.21","time":"15:50:33","latitude":"38.5398","longitude":"29.1445","depth":"14.0","md":"-.-","ml":"1.1","mw":"-.-","location":"KUCUKILYASLI-ULUBEY (USAK)"},{"date":"2020.12.21","time":"15:31:22","latitude":"37.9758","longitude":"26.7650","depth":"2.2","md":"-.-","ml":"1.8","mw":"-.-","location":"EGE DENIZI"},{"date":"2020.12.21","time":"15:11:10","latitude":"38.4748","longitude":"39.5760","depth":"54.9","md":"-.-","ml":"1.9","mw":"-.-","location":"CITLIKOY-MADEN (ELAZIG)"},{"date":"2020.12.21","time":"15:10:31","latitude":"40.6298","longitude":"29.0568","depth":"7.4","md":"-.-","ml":"1.8","mw":"-.-","location":"KOCADERE-CINARCIK (YALOVA)"},{"date":"2020.12.21","time":"14:45:18","latitude":"37.8455","longitude":"26.9945","depth":"9.6","md":"-.-","ml":"1.6","mw":"-.-","location":"KUSADASI KORFEZI (EGE DENIZI)"},{"date":"2020.12.21","time":"14:34:28","latitude":"40.6240","longitude":"29.0575","depth":"8.7","md":"-.-","ml":"1.4","mw":"-.-","location":"TESVIKIYE-CINARCIK (YALOVA)"},{"date":"2020.12.21","time":"14:01:15","latitude":"39.9252","longitude":"33.2812","depth":"0.0","md":"-.-","ml":"1.3","mw":"-.-","location":"ELMADAG (ANKARA)"},{"date":"2020.12.21","time":"13:41:58","latitude":"36.9762","longitude":"34.8007","depth":"0.0","md":"-.-","ml":"1.8","mw":"-.-","location":"DEDELER-TARSUS (MERSIN)"},{"date":"2020.12.21","time":"13:30:38","latitude":"38.0698","longitude":"32.6238","depth":"0.0","md":"-.-","ml":"0.9","mw":"-.-","location":"SARICALAR-SELCUKLU (KONYA)"},{"date":"2020.12.21","time":"13:25:43","latitude":"40.1475","longitude":"27.1022","depth":"18.8","md":"-.-","ml":"1.6","mw":"-.-","location":"CELTIK-BIGA (CANAKKALE)"},{"date":"2020.12.21","time":"11:40:35","latitude":"37.9112","longitude":"26.9158","depth":"7.7","md":"-.-","ml":"2.3","mw":"-.-","location":"KUSADASI KORFEZI (EGE DENIZI)"},{"date":"2020.12.21","time":"10:49:20","latitude":"39.8822","longitude":"28.9105","depth":"0.0","md":"-.-","ml":"2.1","mw":"-.-","location":"SADAGI-ORHANELI (BURSA)"},{"date":"2020.12.21","time":"10:37:32","latitude":"38.3347","longitude":"38.9507","depth":"20.1","md":"-.-","ml":"1.5","mw":"-.-","location":"TOPALUSAGI-SIVRICE (ELAZIG)"},{"date":"2020.12.21","time":"10:07:56","latitude":"38.0135","longitude":"26.5712","depth":"4.9","md":"-.-","ml":"1.7","mw":"-.-","location":"EGE DENIZI"},{"date":"2020.12.21","time":"10:07:04","latitude":"39.5057","longitude":"28.0948","depth":"18.1","md":"-.-","ml":"1.8","mw":"-.-","location":"DEGIRMENLI-BIGADIC (BALIKESIR)"},{"date":"2020.12.21","time":"10:05:42","latitude":"37.8782","longitude":"26.5197","depth":"16.5","md":"-.-","ml":"1.8","mw":"-.-","location":"EGE DENIZI"},{"date":"2020.12.21","time":"09:53:53","latitude":"37.5868","longitude":"32.0343","depth":"26.8","md":"-.-","ml":"1.2","mw":"-.-","location":"DIKILITAS-SEYDISEHIR (KONYA)"},{"date":"2020.12.21","time":"09:29:30","latitude":"38.0580","longitude":"27.0400","depth":"12.6","md":"-.-","ml":"0.8","mw":"-.-","location":"KUSADASI KORFEZI (EGE DENIZI)"},{"date":"2020.12.21","time":"09:19:49","latitude":"38.4538","longitude":"39.0507","depth":"6.2","md":"-.-","ml":"1.9","mw":"-.-","location":"KULLUK-(ELAZIG)"},{"date":"2020.12.21","time":"09:19:29","latitude":"38.5822","longitude":"31.8977","depth":"5.3","md":"-.-","ml":"1.7","mw":"-.-","location":"HURSUNLU-YUNAK (KONYA)"},{"date":"2020.12.21","time":"09:17:04","latitude":"37.8967","longitude":"26.8110","depth":"4.5","md":"-.-","ml":"1.5","mw":"-.-","location":"EGE DENIZI"},{"date":"2020.12.21","time":"08:39:18","latitude":"37.8265","longitude":"26.9533","depth":"6.9","md":"-.-","ml":"1.7","mw":"-.-","location":"KUSADASI KORFEZI (EGE DENIZI)"},{"date":"2020.12.21","time":"07:57:21","latitude":"37.8558","longitude":"26.9725","depth":"5.3","md":"-.-","ml":"2.2","mw":"-.-","location":"KUSADASI KORFEZI (EGE DENIZI)"},{"date":"2020.12.21","time":"07:37:05","latitude":"37.8322","longitude":"26.8615","depth":"9.0","md":"-.-","ml":"1.5","mw":"-.-","location":"SISAM ADASI (EGE DENIZI)"},{"date":"2020.12.21","time":"07:20:32","latitude":"38.4337","longitude":"45.1278","depth":"11.4","md":"-.-","ml":"2.9","mw":"2.9","location":"IRAN"},{"date":"2020.12.21","time":"07:12:03","latitude":"37.9300","longitude":"26.9303","depth":"15.1","md":"-.-","ml":"1.2","mw":"-.-","location":"KUSADASI KORFEZI (EGE DENIZI)"},{"date":"2020.12.21","time":"07:00:19","latitude":"37.9273","longitude":"26.5498","depth":"19.9","md":"-.-","ml":"1.4","mw":"-.-","location":"EGE DENIZI"},{"date":"2020.12.21","time":"06:35:34","latitude":"37.5835","longitude":"32.0867","depth":"8.8","md":"-.-","ml":"2.3","mw":"-.-","location":"MESUDIYE-SEYDISEHIR (KONYA)"},{"date":"2020.12.21","time":"06:33:25","latitude":"37.8492","longitude":"26.9750","depth":"14.7","md":"-.-","ml":"2.0","mw":"-.-","location":"KUSADASI KORFEZI (EGE DENIZI)"},{"date":"2020.12.21","time":"06:12:44","latitude":"37.8258","longitude":"26.8128","depth":"10.5","md":"-.-","ml":"1.7","mw":"-.-","location":"SISAM ADASI (EGE DENIZI)"},{"date":"2020.12.21","time":"06:10:41","latitude":"37.8193","longitude":"26.8065","depth":"1.5","md":"-.-","ml":"2.5","mw":"-.-","location":"SISAM ADASI (EGE DENIZI)"},{"date":"2020.12.21","time":"05:33:57","latitude":"37.7613","longitude":"27.0852","depth":"12.3","md":"-.-","ml":"2.1","mw":"-.-","location":"KUSADASI KORFEZI (EGE DENIZI)"},{"date":"2020.12.21","time":"04:47:19","latitude":"37.8082","longitude":"26.9490","depth":"12.4","md":"-.-","ml":"2.7","mw":"-.-","location":"SISAM ADASI (EGE DENIZI)"},{"date":"2020.12.21","time":"04:18:55","latitude":"37.8778","longitude":"26.5563","depth":"5.8","md":"-.-","ml":"1.3","mw":"-.-","location":"SISAM ADASI (EGE DENIZI)"},{"date":"2020.12.21","time":"04:13:03","latitude":"37.8642","longitude":"26.9887","depth":"12.3","md":"-.-","ml":"1.5","mw":"-.-","location":"KUSADASI KORFEZI (EGE DENIZI)"},{"date":"2020.12.21","time":"03:06:07","latitude":"38.3018","longitude":"25.3290","depth":"7.0","md":"-.-","ml":"2.9","mw":"-.-","location":"EGE DENIZI"},{"date":"2020.12.21","time":"02:58:20","latitude":"37.9293","longitude":"27.0737","depth":"4.8","md":"-.-","ml":"1.4","mw":"-.-","location":"KUSADASI KORFEZI (EGE DENIZI)"},{"date":"2020.12.21","time":"02:50:29","latitude":"37.8113","longitude":"26.9025","depth":"11.9","md":"-.-","ml":"1.4","mw":"-.-","location":"SISAM ADASI (EGE DENIZI)"},{"date":"2020.12.21","time":"02:39:42","latitude":"37.8608","longitude":"26.4893","depth":"14.1","md":"-.-","ml":"1.5","mw":"-.-","location":"SISAM ADASI (EGE DENIZI)"},{"date":"2020.12.21","time":"02:25:53","latitude":"37.8348","longitude":"26.9390","depth":"18.3","md":"-.-","ml":"1.7","mw":"-.-","location":"KUSADASI KORFEZI (EGE DENIZI)"},{"date":"2020.12.21","time":"02:21:20","latitude":"37.8377","longitude":"27.0167","depth":"11.6","md":"-.-","ml":"1.7","mw":"-.-","location":"KUSADASI KORFEZI (EGE DENIZI)"},{"date":"2020.12.21","time":"02:19:35","latitude":"38.3882","longitude":"44.3797","depth":"5.0","md":"-.-","ml":"2.4","mw":"-.-","location":"KASKOL-BASKALE (VAN)"},{"date":"2020.12.21","time":"02:17:00","latitude":"38.0485","longitude":"27.0612","depth":"14.0","md":"-.-","ml":"1.1","mw":"-.-","location":"KUSADASI KORFEZI (EGE DENIZI)"},{"date":"2020.12.21","time":"02:07:45","latitude":"38.3058","longitude":"38.8435","depth":"3.2","md":"-.-","ml":"2.6","mw":"-.-","location":"GUNDEGER-PUTURGE (MALATYA)"},{"date":"2020.12.21","time":"01:51:24","latitude":"37.9228","longitude":"26.5745","depth":"13.8","md":"-.-","ml":"1.3","mw":"-.-","location":"EGE DENIZI"},{"date":"2020.12.21","time":"01:46:47","latitude":"37.8332","longitude":"26.2720","depth":"8.4","md":"-.-","ml":"2.4","mw":"-.-","location":"ONIKI ADALAR (AKDENIZ)"},{"date":"2020.12.21","time":"01:29:41","latitude":"37.9207","longitude":"26.5388","depth":"14.9","md":"-.-","ml":"1.5","mw":"-.-","location":"EGE DENIZI"},{"date":"2020.12.21","time":"01:23:11","latitude":"40.4230","longitude":"28.9155","depth":"10.6","md":"-.-","ml":"1.5","mw":"-.-","location":"GEMLIK KORFEZI (MARMARA DENIZI)"},{"date":"2020.12.21","time":"01:15:11","latitude":"39.4712","longitude":"40.6127","depth":"1.2","md":"-.-","ml":"3.1","mw":"3.1","location":"KARACA-CAT (ERZURUM)"},{"date":"2020.12.21","time":"01:06:16","latitude":"38.3342","longitude":"38.8878","depth":"5.4","md":"-.-","ml":"1.8","mw":"-.-","location":"UZUNHUSEYIN-KALE (MALATYA)"},{"date":"2020.12.21","time":"01:02:55","latitude":"37.8602","longitude":"26.8937","depth":"5.2","md":"-.-","ml":"1.4","mw":"-.-","location":"KUSADASI KORFEZI (EGE DENIZI)"},{"date":"2020.12.21","time":"00:56:53","latitude":"37.8158","longitude":"26.3233","depth":"5.9","md":"-.-","ml":"1.8","mw":"-.-","location":"ONIKI ADALAR (AKDENIZ)"},{"date":"2020.12.21","time":"00:43:18","latitude":"36.7963","longitude":"27.6092","depth":"28.2","md":"-.-","ml":"1.2","mw":"-.-","location":"KARAKOY-DATCA (MUGLA)"},{"date":"2020.12.21","time":"00:38:21","latitude":"36.7422","longitude":"27.6252","depth":"13.4","md":"-.-","ml":"1.2","mw":"-.-","location":"KARAKOY-DATCA (MUGLA)"},{"date":"2020.12.21","time":"00:27:39","latitude":"37.8963","longitude":"26.7785","depth":"9.0","md":"-.-","ml":"1.7","mw":"-.-","location":"EGE DENIZI"},{"date":"2020.12.21","time":"00:02:44","latitude":"38.9460","longitude":"23.2150","depth":"7.2","md":"-.-","ml":"3.7","mw":"3.9","location":"YUNANISTAN"},{"date":"2020.12.20","time":"23:33:16","latitude":"40.4322","longitude":"28.9245","depth":"7.3","md":"-.-","ml":"1.4","mw":"-.-","location":"GEMLIK KORFEZI (MARMARA DENIZI)"},{"date":"2020.12.20","time":"23:27:38","latitude":"37.8907","longitude":"26.7613","depth":"4.2","md":"-.-","ml":"1.4","mw":"-.-","location":"EGE DENIZI"},{"date":"2020.12.20","time":"21:54:18","latitude":"38.3480","longitude":"28.1803","depth":"5.0","md":"-.-","ml":"1.3","mw":"-.-","location":"CATAK-KIRAZ (IZMIR)"},{"date":"2020.12.20","time":"21:34:32","latitude":"40.5015","longitude":"34.2787","depth":"5.0","md":"-.-","ml":"2.4","mw":"-.-","location":"KARAKISIK-UGURLUDAG (CORUM)"},{"date":"2020.12.20","time":"21:11:05","latitude":"40.4278","longitude":"28.9328","depth":"5.4","md":"-.-","ml":"2.8","mw":"-.-","location":"GEMLIK KORFEZI (MARMARA DENIZI)"},{"date":"2020.12.20","time":"20:42:39","latitude":"40.4260","longitude":"28.9210","depth":"5.8","md":"-.-","ml":"2.9","mw":"-.-","location":"GEMLIK KORFEZI (MARMARA DENIZI)"},{"date":"2020.12.20","time":"19:49:52","latitude":"39.9608","longitude":"40.2182","depth":"1.5","md":"-.-","ml":"2.0","mw":"-.-","location":"DOLUCA-CAYIRLI (ERZINCAN)"},{"date":"2020.12.20","time":"18:44:13","latitude":"38.4353","longitude":"39.1867","depth":"5.0","md":"-.-","ml":"2.7","mw":"-.-","location":"YEDIPINAR-SIVRICE (ELAZIG)"},{"date":"2020.12.20","time":"18:42:59","latitude":"38.2972","longitude":"38.6658","depth":"4.1","md":"-.-","ml":"2.0","mw":"-.-","location":"KAMISTAS-(MALATYA)"},{"date":"2020.12.20","time":"18:07:37","latitude":"37.8765","longitude":"26.9545","depth":"9.4","md":"-.-","ml":"1.9","mw":"-.-","location":"KUSADASI KORFEZI (EGE DENIZI)"},{"date":"2020.12.20","time":"17:35:24","latitude":"39.3177","longitude":"27.9217","depth":"5.7","md":"-.-","ml":"2.6","mw":"-.-","location":"KOCAISKAN-KIRKAGAC (MANISA)"},{"date":"2020.12.20","time":"17:12:59","latitude":"38.3283","longitude":"38.9412","depth":"5.5","md":"-.-","ml":"1.5","mw":"-.-","location":"KARAHUSEYIN-KALE (MALATYA)"},{"date":"2020.12.20","time":"16:54:18","latitude":"37.7627","longitude":"26.4407","depth":"3.9","md":"-.-","ml":"1.4","mw":"-.-","location":"ONIKI ADALAR (AKDENIZ)"},{"date":"2020.12.20","time":"16:45:37","latitude":"37.5807","longitude":"32.0477","depth":"11.0","md":"-.-","ml":"2.0","mw":"-.-","location":"MESUDIYE-SEYDISEHIR (KONYA)"},{"date":"2020.12.20","time":"16:26:59","latitude":"37.9590","longitude":"27.1103","depth":"8.4","md":"-.-","ml":"1.5","mw":"-.-","location":"KUSADASI KORFEZI (EGE DENIZI)"},{"date":"2020.12.20","time":"16:19:16","latitude":"38.2390","longitude":"37.2932","depth":"10.8","md":"-.-","ml":"1.5","mw":"-.-","location":"SOGUTLU-ELBISTAN (KAHRAMANMARAS)"},{"date":"2020.12.20","time":"16:11:16","latitude":"40.0502","longitude":"35.2238","depth":"5.0","md":"-.-","ml":"1.8","mw":"-.-","location":"YAYLALIK-SORGUN (YOZGAT)"},{"date":"2020.12.20","time":"15:41:02","latitude":"37.9253","longitude":"27.0632","depth":"9.2","md":"-.-","ml":"1.4","mw":"-.-","location":"KUSADASI KORFEZI (EGE DENIZI)"},{"date":"2020.12.20","time":"15:37:17","latitude":"38.3088","longitude":"38.9132","depth":"9.4","md":"-.-","ml":"3.1","mw":"3.1","location":"CIGIRLI-PUTURGE (MALATYA)"},{"date":"2020.12.20","time":"15:29:59","latitude":"37.9465","longitude":"43.8673","depth":"2.6","md":"-.-","ml":"2.3","mw":"-.-","location":"KOPRUAGZI-BASKALE (VAN)"},{"date":"2020.12.20","time":"15:18:13","latitude":"38.4103","longitude":"38.9308","depth":"12.7","md":"-.-","ml":"1.7","mw":"-.-","location":"HACIHUSEYINLER-BASKIL (ELAZIG)"},{"date":"2020.12.20","time":"14:48:05","latitude":"37.8425","longitude":"27.1590","depth":"7.9","md":"-.-","ml":"1.7","mw":"-.-","location":"KUSADASI KORFEZI (EGE DENIZI)"},{"date":"2020.12.20","time":"14:11:32","latitude":"38.6485","longitude":"37.9415","depth":"3.1","md":"-.-","ml":"2.2","mw":"-.-","location":"ERECEK-YAZIHAN (MALATYA)"},{"date":"2020.12.20","time":"13:35:02","latitude":"38.3685","longitude":"25.9483","depth":"6.1","md":"-.-","ml":"2.1","mw":"-.-","location":"SAKIZ ADASI (EGE DENIZI)"},{"date":"2020.12.20","time":"13:30:00","latitude":"37.8500","longitude":"27.1653","depth":"5.5","md":"-.-","ml":"1.8","mw":"-.-","location":"KUSADASI KORFEZI (EGE DENIZI)"},{"date":"2020.12.20","time":"13:23:13","latitude":"37.9843","longitude":"26.1628","depth":"5.0","md":"-.-","ml":"2.4","mw":"-.-","location":"EGE DENIZI"},{"date":"2020.12.20","time":"13:16:45","latitude":"37.8225","longitude":"26.8825","depth":"7.8","md":"-.-","ml":"1.6","mw":"-.-","location":"SISAM ADASI (EGE DENIZI)"},{"date":"2020.12.20","time":"13:15:10","latitude":"37.8485","longitude":"27.1777","depth":"8.7","md":"-.-","ml":"1.3","mw":"-.-","location":"KUSADASI KORFEZI (EGE DENIZI)"},{"date":"2020.12.20","time":"13:11:44","latitude":"37.8760","longitude":"26.9165","depth":"12.4","md":"-.-","ml":"1.6","mw":"-.-","location":"KUSADASI KORFEZI (EGE DENIZI)"},{"date":"2020.12.20","time":"13:08:39","latitude":"38.6870","longitude":"43.1753","depth":"12.9","md":"-.-","ml":"1.6","mw":"-.-","location":"MOLLAKASIM-(VAN)"},{"date":"2020.12.20","time":"12:51:01","latitude":"37.8415","longitude":"27.0312","depth":"5.4","md":"-.-","ml":"2.6","mw":"-.-","location":"KUSADASI KORFEZI (EGE DENIZI)"},{"date":"2020.12.20","time":"12:43:33","latitude":"36.5358","longitude":"36.8262","depth":"5.3","md":"-.-","ml":"1.7","mw":"-.-","location":"SURIYE"},{"date":"2020.12.20","time":"12:42:53","latitude":"38.1653","longitude":"27.6230","depth":"5.2","md":"-.-","ml":"1.3","mw":"-.-","location":"TOKATBASI-BAYINDIR (IZMIR)"},{"date":"2020.12.20","time":"12:22:30","latitude":"37.9267","longitude":"26.9687","depth":"23.0","md":"-.-","ml":"1.5","mw":"-.-","location":"KUSADASI KORFEZI (EGE DENIZI)"},{"date":"2020.12.20","time":"12:10:25","latitude":"40.5778","longitude":"28.9153","depth":"8.8","md":"-.-","ml":"1.8","mw":"-.-","location":"ESENKOY-CINARCIK (YALOVA)"},{"date":"2020.12.20","time":"11:52:06","latitude":"37.8050","longitude":"26.8577","depth":"5.3","md":"-.-","ml":"1.7","mw":"-.-","location":"SISAM ADASI (EGE DENIZI)"},{"date":"2020.12.20","time":"10:14:11","latitude":"37.9217","longitude":"43.7400","depth":"6.8","md":"-.-","ml":"2.9","mw":"-.-","location":"AYDEMIR-BASKALE (VAN)"},{"date":"2020.12.20","time":"09:27:52","latitude":"37.9145","longitude":"27.0213","depth":"4.4","md":"-.-","ml":"1.8","mw":"-.-","location":"KUSADASI KORFEZI (EGE DENIZI)"},{"date":"2020.12.20","time":"07:47:49","latitude":"39.4205","longitude":"40.2025","depth":"5.0","md":"-.-","ml":"1.6","mw":"-.-","location":"SAMPASAKARADERBENDI-PULUMUR (TUNCELI)"},{"date":"2020.12.20","time":"07:45:27","latitude":"39.5030","longitude":"40.2193","depth":"5.0","md":"-.-","ml":"2.0","mw":"-.-","location":"DERINDERE-PULUMUR (TUNCELI)"},{"date":"2020.12.20","time":"07:32:53","latitude":"37.9005","longitude":"43.8218","depth":"5.8","md":"-.-","ml":"4.4","mw":"4.5","location":"AYDEMIR-BASKALE (VAN)"},{"date":"2020.12.20","time":"07:28:46","latitude":"39.5895","longitude":"33.2895","depth":"5.3","md":"-.-","ml":"1.3","mw":"-.-","location":"SEHRIBAN-BALA (ANKARA)"},{"date":"2020.12.20","time":"07:09:27","latitude":"37.8187","longitude":"26.7895","depth":"5.3","md":"-.-","ml":"2.1","mw":"-.-","location":"EGE DENIZI"},{"date":"2020.12.20","time":"07:01:22","latitude":"37.7000","longitude":"26.9952","depth":"5.3","md":"-.-","ml":"2.1","mw":"-.-","location":"SISAM ADASI (EGE DENIZI)"},{"date":"2020.12.20","time":"06:54:41","latitude":"37.8692","longitude":"26.9792","depth":"24.0","md":"-.-","ml":"1.5","mw":"-.-","location":"KUSADASI KORFEZI (EGE DENIZI)"},{"date":"2020.12.20","time":"06:31:42","latitude":"38.6040","longitude":"40.1252","depth":"9.4","md":"-.-","ml":"1.4","mw":"-.-","location":"ARICAK (ELAZIG)"},{"date":"2020.12.20","time":"06:16:38","latitude":"37.1062","longitude":"28.5993","depth":"7.7","md":"-.-","ml":"3.5","mw":"3.4","location":"ARICILAR-ULA (MUGLA)"},{"date":"2020.12.20","time":"06:14:39","latitude":"37.1232","longitude":"28.5885","depth":"7.9","md":"-.-","ml":"3.9","mw":"3.9","location":"ARICILAR-ULA (MUGLA)"},{"date":"2020.12.20","time":"06:12:13","latitude":"39.7858","longitude":"41.7713","depth":"11.5","md":"-.-","ml":"1.3","mw":"-.-","location":"EYUPLER-KOPRUKOY (ERZURUM)"},{"date":"2020.12.20","time":"05:41:28","latitude":"36.2977","longitude":"25.5275","depth":"6.1","md":"-.-","ml":"2.3","mw":"-.-","location":"AKDENIZ"},{"date":"2020.12.20","time":"05:39:09","latitude":"36.0572","longitude":"36.3278","depth":"24.6","md":"-.-","ml":"2.0","mw":"-.-","location":"YOLAGZI-ALTINOZU (HATAY)"},{"date":"2020.12.20","time":"05:31:58","latitude":"37.8257","longitude":"26.4313","depth":"13.9","md":"-.-","ml":"1.3","mw":"-.-","location":"ONIKI ADALAR (AKDENIZ)"},{"date":"2020.12.20","time":"05:26:23","latitude":"38.2677","longitude":"38.6847","depth":"5.0","md":"-.-","ml":"1.2","mw":"-.-","location":"CAYKOY-PUTURGE (MALATYA)"},{"date":"2020.12.20","time":"05:24:03","latitude":"37.8655","longitude":"29.0903","depth":"8.8","md":"-.-","ml":"1.7","mw":"-.-","location":"CELTIKCI-(DENIZLI)"},{"date":"2020.12.20","time":"05:04:01","latitude":"39.5038","longitude":"26.2533","depth":"5.4","md":"-.-","ml":"1.6","mw":"-.-","location":"KURUOBA-AYVACIK (CANAKKALE)"},{"date":"2020.12.20","time":"04:57:50","latitude":"37.7958","longitude":"27.3110","depth":"3.9","md":"-.-","ml":"1.6","mw":"-.-","location":"SOGUCAK-KUSADASI (AYDIN)"},{"date":"2020.12.20","time":"04:56:29","latitude":"37.8037","longitude":"26.8673","depth":"16.9","md":"-.-","ml":"1.4","mw":"-.-","location":"SISAM ADASI (EGE DENIZI)"},{"date":"2020.12.20","time":"04:36:33","latitude":"37.9127","longitude":"27.0102","depth":"16.7","md":"-.-","ml":"1.0","mw":"-.-","location":"KUSADASI KORFEZI (EGE DENIZI)"},{"date":"2020.12.20","time":"04:31:50","latitude":"40.5705","longitude":"35.5440","depth":"5.0","md":"-.-","ml":"1.8","mw":"-.-","location":"KALEBOGAZI-(AMASYA)"},{"date":"2020.12.20","time":"04:29:35","latitude":"38.7648","longitude":"26.5508","depth":"3.2","md":"-.-","ml":"1.7","mw":"-.-","location":"EGE DENIZI"},{"date":"2020.12.20","time":"04:10:46","latitude":"37.8027","longitude":"27.3078","depth":"5.1","md":"-.-","ml":"1.7","mw":"-.-","location":"SOGUCAK-KUSADASI (AYDIN)"},{"date":"2020.12.20","time":"04:02:05","latitude":"37.9883","longitude":"26.2807","depth":"5.0","md":"-.-","ml":"1.1","mw":"-.-","location":"EGE DENIZI"},{"date":"2020.12.20","time":"03:45:07","latitude":"36.2130","longitude":"28.1715","depth":"23.1","md":"-.-","ml":"1.7","mw":"-.-","location":"AKDENIZ"},{"date":"2020.12.20","time":"03:35:05","latitude":"39.0602","longitude":"27.8220","depth":"4.6","md":"-.-","ml":"1.6","mw":"-.-","location":"MUSALAR-AKHISAR (MANISA)"},{"date":"2020.12.20","time":"03:29:51","latitude":"40.6143","longitude":"29.0935","depth":"11.8","md":"-.-","ml":"1.5","mw":"-.-","location":"TESVIKIYE-CINARCIK (YALOVA)"},{"date":"2020.12.20","time":"03:02:37","latitude":"39.4927","longitude":"26.2545","depth":"5.4","md":"-.-","ml":"1.5","mw":"-.-","location":"KURUOBA-AYVACIK (CANAKKALE)"},{"date":"2020.12.20","time":"02:53:39","latitude":"41.3828","longitude":"24.7065","depth":"4.9","md":"-.-","ml":"2.0","mw":"-.-","location":"YUNANISTAN"},{"date":"2020.12.20","time":"02:53:29","latitude":"38.7423","longitude":"30.7227","depth":"9.4","md":"-.-","ml":"1.1","mw":"-.-","location":"SULUMENLI-(AFYONKARAHISAR)"},{"date":"2020.12.20","time":"02:50:03","latitude":"40.6305","longitude":"29.0645","depth":"9.9","md":"-.-","ml":"2.2","mw":"-.-","location":"TESVIKIYE-CINARCIK (YALOVA)"},{"date":"2020.12.20","time":"02:49:20","latitude":"37.8240","longitude":"29.4533","depth":"9.6","md":"-.-","ml":"1.4","mw":"-.-","location":"ALIKURT-BOZKURT (DENIZLI)"},{"date":"2020.12.20","time":"02:45:14","latitude":"37.7768","longitude":"26.9672","depth":"5.8","md":"-.-","ml":"1.7","mw":"-.-","location":"SISAM ADASI (EGE DENIZI)"},{"date":"2020.12.20","time":"02:31:30","latitude":"35.6272","longitude":"26.3043","depth":"21.6","md":"-.-","ml":"1.8","mw":"-.-","location":"AKDENIZ"},{"date":"2020.12.20","time":"02:25:36","latitude":"37.0435","longitude":"27.8868","depth":"7.6","md":"-.-","ml":"1.7","mw":"-.-","location":"TURKEVLERI-MILAS (MUGLA)"},{"date":"2020.12.20","time":"02:05:45","latitude":"38.9453","longitude":"41.4338","depth":"5.3","md":"-.-","ml":"0.9","mw":"-.-","location":"YESILOVA-(MUS)"},{"date":"2020.12.20","time":"01:40:38","latitude":"37.9748","longitude":"27.1082","depth":"5.3","md":"-.-","ml":"1.8","mw":"-.-","location":"KUSADASI KORFEZI (EGE DENIZI)"},{"date":"2020.12.20","time":"01:37:23","latitude":"37.9475","longitude":"26.9798","depth":"6.1","md":"-.-","ml":"1.7","mw":"-.-","location":"KUSADASI KORFEZI (EGE DENIZI)"},{"date":"2020.12.20","time":"01:13:17","latitude":"34.8047","longitude":"24.1493","depth":"5.5","md":"-.-","ml":"2.1","mw":"-.-","location":"GIRIT ADASI ACIKLARI (AKDENIZ)"},{"date":"2020.12.20","time":"01:10:46","latitude":"34.8925","longitude":"24.1488","depth":"5.0","md":"-.-","ml":"2.2","mw":"-.-","location":"GIRIT ADASI (AKDENIZ)"},{"date":"2020.12.20","time":"01:01:14","latitude":"37.0675","longitude":"28.4632","depth":"21.5","md":"-.-","ml":"0.8","mw":"-.-","location":"ELMALI-ULA (MUGLA)"},{"date":"2020.12.20","time":"00:58:39","latitude":"37.8433","longitude":"26.8408","depth":"12.5","md":"-.-","ml":"1.2","mw":"-.-","location":"SISAM ADASI (EGE DENIZI)"},{"date":"2020.12.20","time":"00:55:02","latitude":"37.8520","longitude":"26.8230","depth":"5.8","md":"-.-","ml":"1.5","mw":"-.-","location":"EGE DENIZI"},{"date":"2020.12.20","time":"00:24:25","latitude":"37.8793","longitude":"26.5818","depth":"16.5","md":"-.-","ml":"2.5","mw":"-.-","location":"SISAM ADASI (EGE DENIZI)"},{"date":"2020.12.20","time":"00:20:07","latitude":"36.4565","longitude":"28.7388","depth":"4.3","md":"-.-","ml":"1.8","mw":"-.-","location":"AKDENIZ"},{"date":"2020.12.19","time":"23:54:35","latitude":"38.4832","longitude":"26.8122","depth":"13.8","md":"-.-","ml":"1.2","mw":"-.-","location":"IZMIR KORFEZI (EGE DENIZI)"},{"date":"2020.12.19","time":"23:42:58","latitude":"38.0685","longitude":"41.6623","depth":"5.0","md":"-.-","ml":"0.9","mw":"-.-","location":"ATABAGI-BAYKAN (SIIRT)"},{"date":"2020.12.19","time":"23:27:11","latitude":"37.8972","longitude":"26.9565","depth":"6.5","md":"-.-","ml":"1.6","mw":"-.-","location":"KUSADASI KORFEZI (EGE DENIZI)"},{"date":"2020.12.19","time":"23:19:28","latitude":"37.8560","longitude":"29.0928","depth":"5.0","md":"-.-","ml":"3.0","mw":"-.-","location":"CELTIKCI-(DENIZLI)"},{"date":"2020.12.19","time":"22:52:42","latitude":"39.4302","longitude":"26.0370","depth":"12.6","md":"-.-","ml":"1.8","mw":"-.-","location":"BADEMLI ACIKLARI-CANAKKALE (EGE DENIZI)"},{"date":"2020.12.19","time":"22:44:15","latitude":"37.7563","longitude":"26.4282","depth":"16.1","md":"-.-","ml":"1.6","mw":"-.-","location":"ONIKI ADALAR (AKDENIZ)"},{"date":"2020.12.19","time":"22:35:37","latitude":"37.8557","longitude":"26.9170","depth":"14.9","md":"-.-","ml":"1.4","mw":"-.-","location":"KUSADASI KORFEZI (EGE DENIZI)"},{"date":"2020.12.19","time":"22:29:34","latitude":"38.6458","longitude":"38.0208","depth":"5.8","md":"-.-","ml":"3.1","mw":"3.1","location":"ALICAN-YAZIHAN (MALATYA)"},{"date":"2020.12.19","time":"22:18:03","latitude":"37.9005","longitude":"26.9623","depth":"5.1","md":"-.-","ml":"1.5","mw":"-.-","location":"KUSADASI KORFEZI (EGE DENIZI)"},{"date":"2020.12.19","time":"21:45:13","latitude":"37.8657","longitude":"26.5410","depth":"7.7","md":"-.-","ml":"1.6","mw":"-.-","location":"SISAM ADASI (EGE DENIZI)"},{"date":"2020.12.19","time":"21:17:50","latitude":"37.8522","longitude":"26.9038","depth":"1.0","md":"-.-","ml":"1.9","mw":"-.-","location":"KUSADASI KORFEZI (EGE DENIZI)"},{"date":"2020.12.19","time":"21:14:22","latitude":"37.9657","longitude":"27.0902","depth":"12.6","md":"-.-","ml":"2.8","mw":"-.-","location":"KUSADASI KORFEZI (EGE DENIZI)"},{"date":"2020.12.19","time":"21:09:58","latitude":"37.8555","longitude":"26.9025","depth":"13.0","md":"-.-","ml":"1.1","mw":"-.-","location":"KUSADASI KORFEZI (EGE DENIZI)"},{"date":"2020.12.19","time":"21:01:05","latitude":"38.8853","longitude":"43.5865","depth":"9.6","md":"-.-","ml":"1.9","mw":"-.-","location":"SAGLAMTAS-(VAN)"},{"date":"2020.12.19","time":"20:50:54","latitude":"38.9275","longitude":"30.0427","depth":"6.8","md":"-.-","ml":"2.2","mw":"-.-","location":"ZAFERTEPECALKOY-ALTINTAS (KUTAHYA)"},{"date":"2020.12.19","time":"20:06:14","latitude":"39.0280","longitude":"27.9082","depth":"4.4","md":"-.-","ml":"1.8","mw":"-.-","location":"KARAKOY-AKHISAR (MANISA)"},{"date":"2020.12.19","time":"19:46:37","latitude":"37.8518","longitude":"26.4767","depth":"2.3","md":"-.-","ml":"1.7","mw":"-.-","location":"SISAM ADASI (EGE DENIZI)"},{"date":"2020.12.19","time":"19:40:58","latitude":"36.5657","longitude":"28.7913","depth":"12.8","md":"-.-","ml":"2.3","mw":"-.-","location":"DALAMAN ACIKLARI-MUGLA (AKDENIZ)"},{"date":"2020.12.19","time":"19:39:18","latitude":"37.8008","longitude":"26.8842","depth":"19.7","md":"-.-","ml":"1.3","mw":"-.-","location":"SISAM ADASI (EGE DENIZI)"},{"date":"2020.12.19","time":"19:00:44","latitude":"39.7098","longitude":"27.6413","depth":"2.9","md":"-.-","ml":"1.9","mw":"-.-","location":"HACIHUSEYIN-BALYA (BALIKESIR)"},{"date":"2020.12.19","time":"18:58:56","latitude":"39.7323","longitude":"27.6393","depth":"4.7","md":"-.-","ml":"0.9","mw":"-.-","location":"PATLAK-BALYA (BALIKESIR)"},{"date":"2020.12.19","time":"18:40:38","latitude":"36.5122","longitude":"36.5175","depth":"8.5","md":"-.-","ml":"3.0","mw":"-.-","location":"ADALAR-KIRIKHAN (HATAY)"},{"date":"2020.12.19","time":"18:18:09","latitude":"37.9528","longitude":"27.1218","depth":"9.7","md":"-.-","ml":"1.7","mw":"-.-","location":"KUSADASI KORFEZI (EGE DENIZI)"},{"date":"2020.12.19","time":"18:17:45","latitude":"37.9825","longitude":"27.1652","depth":"23.1","md":"-.-","ml":"1.4","mw":"-.-","location":"KUSADASI KORFEZI (EGE DENIZI)"},{"date":"2020.12.19","time":"18:17:01","latitude":"39.0018","longitude":"27.8740","depth":"7.3","md":"-.-","ml":"2.8","mw":"-.-","location":"DINGILLER-AKHISAR (MANISA)"},{"date":"2020.12.19","time":"18:13:19","latitude":"37.9317","longitude":"27.1002","depth":"7.4","md":"-.-","ml":"1.5","mw":"-.-","location":"KUSADASI KORFEZI (EGE DENIZI)"},{"date":"2020.12.19","time":"17:38:28","latitude":"37.1112","longitude":"27.3617","depth":"3.2","md":"-.-","ml":"1.5","mw":"-.-","location":"GUNDOGAN-BODRUM (MUGLA)"},{"date":"2020.12.19","time":"17:13:30","latitude":"39.7625","longitude":"23.5662","depth":"24.7","md":"-.-","ml":"3.8","mw":"-.-","location":"YUNANISTAN"},{"date":"2020.12.19","time":"16:40:24","latitude":"37.8885","longitude":"26.8927","depth":"18.3","md":"-.-","ml":"2.0","mw":"-.-","location":"KUSADASI KORFEZI (EGE DENIZI)"},{"date":"2020.12.19","time":"16:36:36","latitude":"39.3297","longitude":"25.5657","depth":"12.4","md":"-.-","ml":"2.6","mw":"-.-","location":"EGE DENIZI"},{"date":"2020.12.19","time":"14:06:18","latitude":"38.8663","longitude":"43.5207","depth":"5.0","md":"-.-","ml":"2.7","mw":"-.-","location":"ERMISLER-(VAN)"},{"date":"2020.12.19","time":"14:00:42","latitude":"38.8605","longitude":"43.5820","depth":"9.4","md":"-.-","ml":"2.1","mw":"-.-","location":"AKCIFT-(VAN)"},{"date":"2020.12.19","time":"13:38:58","latitude":"36.8907","longitude":"27.3540","depth":"12.8","md":"-.-","ml":"1.6","mw":"-.-","location":"GOKOVA KORFEZI (AKDENIZ)"},{"date":"2020.12.19","time":"13:21:52","latitude":"36.1447","longitude":"33.5390","depth":"0.0","md":"-.-","ml":"0.6","mw":"-.-","location":"BUYUKECELI-GULNAR (MERSIN)"},{"date":"2020.12.19","time":"13:15:44","latitude":"39.3767","longitude":"25.7968","depth":"9.0","md":"-.-","ml":"2.2","mw":"-.-","location":"EGE DENIZI"},{"date":"2020.12.19","time":"12:14:04","latitude":"39.2278","longitude":"29.2825","depth":"0.0","md":"-.-","ml":"1.6","mw":"-.-","location":"YUKARIYONCAAGAC-HISARCIK (KUTAHYA)"},{"date":"2020.12.19","time":"11:46:05","latitude":"39.3375","longitude":"25.8787","depth":"7.8","md":"-.-","ml":"2.2","mw":"-.-","location":"MIDILLI ADASI (EGE DENIZI)"},{"date":"2020.12.19","time":"09:54:56","latitude":"37.7450","longitude":"27.0543","depth":"4.9","md":"-.-","ml":"1.6","mw":"-.-","location":"SISAM ADASI (EGE DENIZI)"},{"date":"2020.12.19","time":"09:39:54","latitude":"37.9077","longitude":"29.3387","depth":"0.0","md":"-.-","ml":"1.7","mw":"-.-","location":"KARAPINAR-CAL (DENIZLI)"},{"date":"2020.12.19","time":"09:37:29","latitude":"37.9057","longitude":"26.9918","depth":"3.8","md":"-.-","ml":"1.6","mw":"-.-","location":"KUSADASI KORFEZI (EGE DENIZI)"},{"date":"2020.12.19","time":"08:37:11","latitude":"37.8875","longitude":"28.7563","depth":"9.0","md":"-.-","ml":"2.6","mw":"-.-","location":"TIRKAZ-SARAYKOY (DENIZLI)"},{"date":"2020.12.19","time":"08:34:29","latitude":"37.9498","longitude":"27.1167","depth":"5.4","md":"-.-","ml":"1.6","mw":"-.-","location":"KUSADASI KORFEZI (EGE DENIZI)"},{"date":"2020.12.19","time":"07:52:53","latitude":"40.4450","longitude":"41.9670","depth":"17.8","md":"-.-","ml":"1.9","mw":"-.-","location":"UNLUKAYA-OLTU (ERZURUM)"},{"date":"2020.12.19","time":"06:55:32","latitude":"36.6445","longitude":"27.9875","depth":"73.0","md":"-.-","ml":"2.2","mw":"-.-","location":"BOZBURUN ACIKLARI-MUGLA (AKDENIZ)"},{"date":"2020.12.19","time":"06:24:36","latitude":"39.0337","longitude":"27.8127","depth":"6.0","md":"-.-","ml":"2.7","mw":"-.-","location":"KADIDAGI-AKHISAR (MANISA)"},{"date":"2020.12.19","time":"06:23:38","latitude":"38.2477","longitude":"38.8168","depth":"5.6","md":"-.-","ml":"2.5","mw":"-.-","location":"KARSIYAKA-PUTURGE (MALATYA)"},{"date":"2020.12.19","time":"06:22:42","latitude":"37.7480","longitude":"27.0667","depth":"3.1","md":"-.-","ml":"1.4","mw":"-.-","location":"SISAM ADASI (EGE DENIZI)"},{"date":"2020.12.19","time":"05:34:20","latitude":"39.0378","longitude":"27.8245","depth":"5.3","md":"-.-","ml":"2.0","mw":"-.-","location":"MUSALAR-AKHISAR (MANISA)"},{"date":"2020.12.19","time":"05:13:08","latitude":"37.5100","longitude":"35.8073","depth":"21.4","md":"-.-","ml":"1.6","mw":"-.-","location":"TURGUTLU-KOZAN (ADANA)"},{"date":"2020.12.19","time":"04:38:24","latitude":"38.2798","longitude":"38.7405","depth":"5.4","md":"-.-","ml":"2.0","mw":"-.-","location":"BALPINARI-PUTURGE (MALATYA)"},{"date":"2020.12.19","time":"04:28:20","latitude":"40.3828","longitude":"27.2010","depth":"5.4","md":"-.-","ml":"2.4","mw":"-.-","location":"ORTULUCE-BIGA (CANAKKALE)"},{"date":"2020.12.19","time":"04:17:35","latitude":"38.6173","longitude":"27.5813","depth":"5.5","md":"-.-","ml":"1.6","mw":"-.-","location":"HACIHALILLER-(MANISA)"},{"date":"2020.12.19","time":"04:06:13","latitude":"39.8320","longitude":"39.0588","depth":"12.3","md":"-.-","ml":"1.9","mw":"-.-","location":"CALIKLAR-KEMAH (ERZINCAN)"},{"date":"2020.12.19","time":"04:01:46","latitude":"37.6860","longitude":"27.0422","depth":"5.4","md":"-.-","ml":"1.3","mw":"-.-","location":"MILLI PARK-KUSADASI (AYDIN)"},{"date":"2020.12.19","time":"03:42:23","latitude":"37.8562","longitude":"26.8590","depth":"9.4","md":"-.-","ml":"1.4","mw":"-.-","location":"KUSADASI KORFEZI (EGE DENIZI)"},{"date":"2020.12.19","time":"03:14:48","latitude":"40.2592","longitude":"29.2153","depth":"12.3","md":"-.-","ml":"2.0","mw":"-.-","location":"IGDIR-GURSU (BURSA)"},{"date":"2020.12.19","time":"03:11:50","latitude":"35.6740","longitude":"26.2765","depth":"7.6","md":"-.-","ml":"2.6","mw":"-.-","location":"AKDENIZ"},{"date":"2020.12.19","time":"02:14:07","latitude":"40.4887","longitude":"26.3213","depth":"9.7","md":"-.-","ml":"1.7","mw":"-.-","location":"SAROS KORFEZI (EGE DENIZI)"},{"date":"2020.12.19","time":"02:09:44","latitude":"38.0347","longitude":"26.0800","depth":"5.0","md":"-.-","ml":"2.1","mw":"-.-","location":"EGE DENIZI"},{"date":"2020.12.19","time":"02:07:29","latitude":"37.8747","longitude":"29.3192","depth":"8.6","md":"-.-","ml":"1.5","mw":"-.-","location":"KARAPINAR-CAL (DENIZLI)"},{"date":"2020.12.19","time":"02:03:54","latitude":"38.2977","longitude":"38.8097","depth":"5.0","md":"-.-","ml":"2.6","mw":"-.-","location":"BOLUKKAYA-PUTURGE (MALATYA)"},{"date":"2020.12.19","time":"01:58:40","latitude":"38.9435","longitude":"30.0543","depth":"5.8","md":"-.-","ml":"2.7","mw":"-.-","location":"ZAFERTEPECALKOY-ALTINTAS (KUTAHYA)"},{"date":"2020.12.19","time":"01:04:05","latitude":"40.7317","longitude":"27.4090","depth":"10.0","md":"-.-","ml":"1.2","mw":"-.-","location":"GUZELKOY ACIKLARI-TEKIRDAG (MARMARA DENIZI)"},{"date":"2020.12.19","time":"00:25:01","latitude":"37.9245","longitude":"26.9395","depth":"5.9","md":"-.-","ml":"1.7","mw":"-.-","location":"KUSADASI KORFEZI (EGE DENIZI)"},{"date":"2020.12.19","time":"00:16:35","latitude":"37.8075","longitude":"26.9400","depth":"10.0","md":"-.-","ml":"2.2","mw":"-.-","location":"SISAM ADASI (EGE DENIZI)"},{"date":"2020.12.19","time":"00:12:36","latitude":"37.9065","longitude":"26.9573","depth":"12.3","md":"-.-","ml":"1.7","mw":"-.-","location":"KUSADASI KORFEZI (EGE DENIZI)"},{"date":"2020.12.19","time":"00:09:41","latitude":"37.8768","longitude":"27.0115","depth":"5.1","md":"-.-","ml":"1.5","mw":"-.-","location":"KUSADASI KORFEZI (EGE DENIZI)"},{"date":"2020.12.18","time":"22:42:47","latitude":"37.8660","longitude":"26.9210","depth":"5.2","md":"-.-","ml":"2.1","mw":"-.-","location":"KUSADASI KORFEZI (EGE DENIZI)"},{"date":"2020.12.18","time":"22:39:34","latitude":"41.6178","longitude":"32.5400","depth":"5.0","md":"-.-","ml":"2.1","mw":"-.-","location":"CERDE-ULUS (BARTIN)"},{"date":"2020.12.18","time":"22:33:52","latitude":"39.4627","longitude":"39.9997","depth":"5.0","md":"-.-","ml":"2.3","mw":"-.-","location":"HASANGAZI-PULUMUR (TUNCELI)"},{"date":"2020.12.18","time":"21:43:33","latitude":"37.7508","longitude":"37.4267","depth":"4.9","md":"-.-","ml":"2.1","mw":"-.-","location":"BOZLAR-CAGLAYANCERIT (KAHRAMANMARAS)"},{"date":"2020.12.18","time":"21:37:36","latitude":"38.8668","longitude":"43.5102","depth":"7.6","md":"-.-","ml":"1.9","mw":"-.-","location":"ERMISLER-(VAN)"},{"date":"2020.12.18","time":"21:10:31","latitude":"37.8748","longitude":"27.0347","depth":"4.7","md":"-.-","ml":"1.5","mw":"-.-","location":"KUSADASI KORFEZI (EGE DENIZI)"},{"date":"2020.12.18","time":"20:32:21","latitude":"39.6887","longitude":"42.1057","depth":"6.0","md":"-.-","ml":"2.8","mw":"-.-","location":"BEZIRHANE-KARAYAZI (ERZURUM)"},{"date":"2020.12.18","time":"20:24:35","latitude":"37.8823","longitude":"26.9602","depth":"17.6","md":"-.-","ml":"2.4","mw":"-.-","location":"KUSADASI KORFEZI (EGE DENIZI)"},{"date":"2020.12.18","time":"20:18:41","latitude":"37.8567","longitude":"26.9305","depth":"9.7","md":"-.-","ml":"2.6","mw":"-.-","location":"KUSADASI KORFEZI (EGE DENIZI)"},{"date":"2020.12.18","time":"19:49:56","latitude":"39.5423","longitude":"26.0990","depth":"13.0","md":"-.-","ml":"1.6","mw":"-.-","location":"GULPINAR-AYVACIK (CANAKKALE)"},{"date":"2020.12.18","time":"19:34:06","latitude":"37.7647","longitude":"26.1358","depth":"11.4","md":"-.-","ml":"2.0","mw":"-.-","location":"ONIKI ADALAR (AKDENIZ)"},{"date":"2020.12.18","time":"19:19:50","latitude":"37.7903","longitude":"27.0927","depth":"8.4","md":"-.-","ml":"1.8","mw":"-.-","location":"KUSADASI KORFEZI (EGE DENIZI)"},{"date":"2020.12.18","time":"19:09:19","latitude":"37.7383","longitude":"27.0800","depth":"10.2","md":"-.-","ml":"1.8","mw":"-.-","location":"KUSADASI KORFEZI (EGE DENIZI)"},{"date":"2020.12.18","time":"19:08:29","latitude":"38.3328","longitude":"38.8428","depth":"22.0","md":"-.-","ml":"2.1","mw":"-.-","location":"UYANIK-KALE (MALATYA)"},{"date":"2020.12.18","time":"18:57:03","latitude":"36.9682","longitude":"27.6010","depth":"7.9","md":"-.-","ml":"1.7","mw":"-.-","location":"GOKOVA KORFEZI (AKDENIZ)"},{"date":"2020.12.18","time":"18:54:26","latitude":"38.9777","longitude":"30.0172","depth":"5.4","md":"-.-","ml":"1.8","mw":"-.-","location":"EYIDEMIR-DUMLUPINAR (KUTAHYA)"},{"date":"2020.12.18","time":"18:31:47","latitude":"37.7643","longitude":"27.1062","depth":"5.0","md":"-.-","ml":"1.9","mw":"-.-","location":"KUSADASI KORFEZI (EGE DENIZI)"},{"date":"2020.12.18","time":"18:23:40","latitude":"37.8243","longitude":"26.8307","depth":"8.9","md":"-.-","ml":"2.4","mw":"-.-","location":"SISAM ADASI (EGE DENIZI)"},{"date":"2020.12.18","time":"18:07:10","latitude":"38.7978","longitude":"26.8038","depth":"5.0","md":"-.-","ml":"1.5","mw":"-.-","location":"CANDARLI KORFEZI (EGE DENIZI)"},{"date":"2020.12.18","time":"17:50:33","latitude":"39.9937","longitude":"42.6232","depth":"5.0","md":"-.-","ml":"1.4","mw":"-.-","location":"KOCOGLU-SARIKAMIS (KARS)"},{"date":"2020.12.18","time":"17:48:09","latitude":"37.5007","longitude":"37.6878","depth":"5.0","md":"-.-","ml":"1.7","mw":"-.-","location":"HAYDAREMIR-ARABAN (GAZIANTEP)"},{"date":"2020.12.18","time":"17:38:32","latitude":"42.3688","longitude":"26.1080","depth":"1.3","md":"-.-","ml":"1.6","mw":"-.-","location":"BULGARISTAN"},{"date":"2020.12.18","time":"15:59:34","latitude":"35.6600","longitude":"29.6783","depth":"6.0","md":"-.-","ml":"1.8","mw":"-.-","location":"AKDENIZ"},{"date":"2020.12.18","time":"15:44:22","latitude":"37.9017","longitude":"26.9555","depth":"22.5","md":"-.-","ml":"2.1","mw":"-.-","location":"KUSADASI KORFEZI (EGE DENIZI)"},{"date":"2020.12.18","time":"14:47:17","latitude":"40.3827","longitude":"27.1192","depth":"16.6","md":"-.-","ml":"1.9","mw":"-.-","location":"KARAPURCEK-BIGA (CANAKKALE)"},{"date":"2020.12.18","time":"14:33:25","latitude":"39.3137","longitude":"25.6570","depth":"7.8","md":"-.-","ml":"1.7","mw":"-.-","location":"EGE DENIZI"},{"date":"2020.12.18","time":"14:27:38","latitude":"39.3547","longitude":"25.8630","depth":"2.8","md":"-.-","ml":"2.8","mw":"-.-","location":"EGE DENIZI"},{"date":"2020.12.18","time":"14:14:46","latitude":"37.7710","longitude":"27.1750","depth":"5.5","md":"-.-","ml":"2.3","mw":"-.-","location":"KUSADASI KORFEZI (EGE DENIZI)"},{"date":"2020.12.18","time":"13:59:24","latitude":"37.8343","longitude":"27.0605","depth":"22.3","md":"-.-","ml":"1.6","mw":"-.-","location":"KUSADASI KORFEZI (EGE DENIZI)"},{"date":"2020.12.18","time":"13:47:23","latitude":"41.0892","longitude":"35.2673","depth":"5.1","md":"-.-","ml":"2.0","mw":"-.-","location":"KIRMA-VEZIRKOPRU (SAMSUN)"},{"date":"2020.12.18","time":"13:35:24","latitude":"39.4705","longitude":"26.0268","depth":"5.0","md":"-.-","ml":"2.1","mw":"-.-","location":"BABAKALE-AYVACIK (CANAKKALE)"},{"date":"2020.12.18","time":"13:32:43","latitude":"39.6002","longitude":"26.0670","depth":"5.0","md":"-.-","ml":"1.9","mw":"-.-","location":"TAVAKLI ACIKLARI-CANAKKALE (EGE DENIZI)"},{"date":"2020.12.18","time":"13:19:59","latitude":"37.9042","longitude":"26.9118","depth":"5.4","md":"-.-","ml":"1.9","mw":"-.-","location":"KUSADASI KORFEZI (EGE DENIZI)"},{"date":"2020.12.18","time":"13:09:50","latitude":"37.9410","longitude":"26.9310","depth":"14.0","md":"-.-","ml":"1.9","mw":"-.-","location":"KUSADASI KORFEZI (EGE DENIZI)"},{"date":"2020.12.18","time":"12:51:31","latitude":"37.2358","longitude":"28.1812","depth":"0.0","md":"-.-","ml":"1.6","mw":"-.-","location":"CAYBUKU-(MUGLA)"},{"date":"2020.12.18","time":"12:38:09","latitude":"37.2623","longitude":"31.8218","depth":"0.0","md":"-.-","ml":"1.9","mw":"-.-","location":"DEGIRMENLIK-AKSEKI (ANTALYA)"},{"date":"2020.12.18","time":"12:24:10","latitude":"37.1175","longitude":"31.0832","depth":"104.9","md":"-.-","ml":"3.7","mw":"3.5","location":"ETLER-SERIK (ANTALYA)"},{"date":"2020.12.18","time":"12:15:43","latitude":"37.9402","longitude":"26.9540","depth":"1.9","md":"-.-","ml":"1.8","mw":"-.-","location":"KUSADASI KORFEZI (EGE DENIZI)"},{"date":"2020.12.18","time":"12:10:07","latitude":"37.4265","longitude":"35.2738","depth":"5.4","md":"-.-","ml":"2.2","mw":"-.-","location":"KALEDAGI-KARAISALI (ADANA)"},{"date":"2020.12.18","time":"11:52:58","latitude":"38.7362","longitude":"38.0415","depth":"5.3","md":"-.-","ml":"1.5","mw":"-.-","location":"YESILPINAR-HEKIMHAN (MALATYA)"},{"date":"2020.12.18","time":"11:51:43","latitude":"34.5233","longitude":"24.2543","depth":"23.6","md":"-.-","ml":"3.2","mw":"3.0","location":"GIRIT ADASI ACIKLARI (AKDENIZ)"},{"date":"2020.12.18","time":"11:47:15","latitude":"37.5807","longitude":"29.2077","depth":"0.0","md":"-.-","ml":"1.3","mw":"-.-","location":"SARIABAT-TAVAS (DENIZLI)"},{"date":"2020.12.18","time":"11:45:41","latitude":"37.1815","longitude":"37.0930","depth":"0.0","md":"-.-","ml":"1.4","mw":"-.-","location":"YAMACOBA-SEHITKAMIL (GAZIANTEP)"},{"date":"2020.12.18","time":"11:42:03","latitude":"37.8232","longitude":"26.7233","depth":"2.6","md":"-.-","ml":"2.3","mw":"-.-","location":"EGE DENIZI"},{"date":"2020.12.18","time":"11:13:43","latitude":"37.7320","longitude":"27.0498","depth":"5.4","md":"-.-","ml":"2.3","mw":"-.-","location":"SISAM ADASI (EGE DENIZI)"},{"date":"2020.12.18","time":"11:10:43","latitude":"37.7522","longitude":"27.0848","depth":"5.8","md":"-.-","ml":"2.3","mw":"-.-","location":"KUSADASI KORFEZI (EGE DENIZI)"},{"date":"2020.12.18","time":"10:53:07","latitude":"37.9128","longitude":"26.8388","depth":"8.2","md":"-.-","ml":"2.2","mw":"-.-","location":"KUSADASI KORFEZI (EGE DENIZI)"},{"date":"2020.12.18","time":"10:38:23","latitude":"40.4358","longitude":"28.9330","depth":"5.4","md":"-.-","ml":"2.2","mw":"-.-","location":"GEMLIK KORFEZI (MARMARA DENIZI)"},{"date":"2020.12.18","time":"10:19:04","latitude":"39.5607","longitude":"38.1345","depth":"5.0","md":"-.-","ml":"2.2","mw":"-.-","location":"CAKIRTARLA-DIVRIGI (SIVAS)"},{"date":"2020.12.18","time":"09:25:25","latitude":"41.1198","longitude":"35.2683","depth":"8.9","md":"-.-","ml":"2.4","mw":"-.-","location":"GOLLUALAN-VEZIRKOPRU (SAMSUN)"},{"date":"2020.12.18","time":"09:10:10","latitude":"38.8737","longitude":"38.0908","depth":"4.1","md":"-.-","ml":"2.0","mw":"-.-","location":"BALLIKAYA-HEKIMHAN (MALATYA)"},{"date":"2020.12.18","time":"08:56:06","latitude":"37.8747","longitude":"26.8648","depth":"3.6","md":"-.-","ml":"2.8","mw":"-.-","location":"KUSADASI KORFEZI (EGE DENIZI)"},{"date":"2020.12.18","time":"08:37:11","latitude":"36.6818","longitude":"27.4907","depth":"108.8","md":"-.-","ml":"3.2","mw":"-.-","location":"YAKAKOY-DATCA (MUGLA)"},{"date":"2020.12.18","time":"08:21:45","latitude":"40.4663","longitude":"29.2282","depth":"0.0","md":"-.-","ml":"1.3","mw":"-.-","location":"SAHINYURDU-GEMLIK (BURSA)"},{"date":"2020.12.18","time":"07:53:57","latitude":"39.1592","longitude":"27.8078","depth":"6.6","md":"-.-","ml":"2.0","mw":"-.-","location":"GEBELER-KIRKAGAC (MANISA)"},{"date":"2020.12.18","time":"07:40:15","latitude":"37.8730","longitude":"26.8723","depth":"19.6","md":"-.-","ml":"1.8","mw":"-.-","location":"KUSADASI KORFEZI (EGE DENIZI)"},{"date":"2020.12.18","time":"07:18:55","latitude":"40.4682","longitude":"28.9107","depth":"3.6","md":"-.-","ml":"1.8","mw":"-.-","location":"FISTIKLI-ARMUTLU (YALOVA)"},{"date":"2020.12.18","time":"06:46:48","latitude":"37.7493","longitude":"27.0850","depth":"5.7","md":"-.-","ml":"1.6","mw":"-.-","location":"KUSADASI KORFEZI (EGE DENIZI)"},{"date":"2020.12.18","time":"06:40:31","latitude":"34.7747","longitude":"25.3382","depth":"23.7","md":"-.-","ml":"2.3","mw":"-.-","location":"GIRIT ADASI (AKDENIZ)"},{"date":"2020.12.18","time":"05:53:54","latitude":"37.7918","longitude":"27.1377","depth":"5.0","md":"-.-","ml":"1.0","mw":"-.-","location":"KUSADASI KORFEZI (EGE DENIZI)"},{"date":"2020.12.18","time":"05:47:49","latitude":"37.8327","longitude":"26.9642","depth":"9.7","md":"-.-","ml":"2.7","mw":"-.-","location":"KUSADASI KORFEZI (EGE DENIZI)"},{"date":"2020.12.18","time":"05:26:47","latitude":"37.8382","longitude":"26.9587","depth":"9.3","md":"-.-","ml":"2.5","mw":"-.-","location":"KUSADASI KORFEZI (EGE DENIZI)"},{"date":"2020.12.18","time":"05:20:51","latitude":"37.8855","longitude":"26.8562","depth":"5.5","md":"-.-","ml":"1.6","mw":"-.-","location":"KUSADASI KORFEZI (EGE DENIZI)"},{"date":"2020.12.18","time":"04:33:30","latitude":"39.0330","longitude":"27.8535","depth":"10.2","md":"-.-","ml":"2.0","mw":"-.-","location":"MUSALAR-AKHISAR (MANISA)"},{"date":"2020.12.18","time":"04:32:27","latitude":"37.8705","longitude":"26.8887","depth":"14.3","md":"-.-","ml":"1.6","mw":"-.-","location":"KUSADASI KORFEZI (EGE DENIZI)"},{"date":"2020.12.18","time":"04:27:54","latitude":"37.8647","longitude":"27.1892","depth":"11.2","md":"-.-","ml":"1.5","mw":"-.-","location":"KUSADASI KORFEZI (EGE DENIZI)"},{"date":"2020.12.18","time":"04:25:54","latitude":"37.7502","longitude":"27.1232","depth":"12.7","md":"-.-","ml":"1.5","mw":"-.-","location":"KUSADASI KORFEZI (EGE DENIZI)"},{"date":"2020.12.18","time":"04:25:07","latitude":"39.7258","longitude":"24.0738","depth":"22.4","md":"-.-","ml":"3.0","mw":"-.-","location":"YUNANISTAN"},{"date":"2020.12.18","time":"04:22:54","latitude":"37.7438","longitude":"27.1045","depth":"11.7","md":"-.-","ml":"2.8","mw":"-.-","location":"KUSADASI KORFEZI (EGE DENIZI)"},{"date":"2020.12.18","time":"04:21:01","latitude":"37.7425","longitude":"27.0590","depth":"5.5","md":"-.-","ml":"1.4","mw":"-.-","location":"SISAM ADASI (EGE DENIZI)"},{"date":"2020.12.18","time":"04:19:02","latitude":"37.7760","longitude":"27.1102","depth":"5.1","md":"-.-","ml":"1.9","mw":"-.-","location":"KUSADASI KORFEZI (EGE DENIZI)"},{"date":"2020.12.18","time":"04:10:37","latitude":"37.7640","longitude":"27.1202","depth":"5.3","md":"-.-","ml":"1.7","mw":"-.-","location":"KUSADASI KORFEZI (EGE DENIZI)"},{"date":"2020.12.18","time":"04:09:10","latitude":"37.7950","longitude":"27.2153","depth":"5.0","md":"-.-","ml":"1.3","mw":"-.-","location":"KUSADASI KORFEZI (EGE DENIZI)"},{"date":"2020.12.18","time":"04:08:09","latitude":"39.0538","longitude":"27.8387","depth":"8.0","md":"-.-","ml":"1.7","mw":"-.-","location":"MUSALAR-AKHISAR (MANISA)"},{"date":"2020.12.18","time":"04:04:04","latitude":"35.7022","longitude":"26.2577","depth":"5.1","md":"-.-","ml":"3.6","mw":"-.-","location":"AKDENIZ"},{"date":"2020.12.18","time":"04:03:29","latitude":"37.7953","longitude":"27.0957","depth":"3.4","md":"-.-","ml":"1.7","mw":"-.-","location":"KUSADASI KORFEZI (EGE DENIZI)"},{"date":"2020.12.18","time":"03:58:16","latitude":"37.7585","longitude":"27.0808","depth":"5.6","md":"-.-","ml":"1.4","mw":"-.-","location":"KUSADASI KORFEZI (EGE DENIZI)"},{"date":"2020.12.18","time":"03:57:38","latitude":"37.7842","longitude":"27.1143","depth":"4.3","md":"-.-","ml":"1.7","mw":"-.-","location":"KUSADASI KORFEZI (EGE DENIZI)"},{"date":"2020.12.18","time":"03:55:41","latitude":"37.7767","longitude":"27.1322","depth":"5.0","md":"-.-","ml":"1.5","mw":"-.-","location":"KUSADASI KORFEZI (EGE DENIZI)"},{"date":"2020.12.18","time":"03:54:34","latitude":"37.7872","longitude":"27.0837","depth":"5.0","md":"-.-","ml":"1.7","mw":"-.-","location":"KUSADASI KORFEZI (EGE DENIZI)"},{"date":"2020.12.18","time":"03:52:02","latitude":"37.7515","longitude":"27.0718","depth":"10.3","md":"-.-","ml":"3.3","mw":"3.2","location":"KUSADASI KORFEZI (EGE DENIZI)"},{"date":"2020.12.18","time":"03:49:57","latitude":"37.7715","longitude":"27.0807","depth":"5.2","md":"-.-","ml":"1.9","mw":"-.-","location":"KUSADASI KORFEZI (EGE DENIZI)"},{"date":"2020.12.18","time":"03:42:36","latitude":"37.7282","longitude":"27.0543","depth":"5.3","md":"-.-","ml":"2.8","mw":"-.-","location":"SISAM ADASI (EGE DENIZI)"},{"date":"2020.12.18","time":"03:31:31","latitude":"37.7653","longitude":"27.0675","depth":"2.6","md":"-.-","ml":"1.6","mw":"-.-","location":"KUSADASI KORFEZI (EGE DENIZI)"},{"date":"2020.12.18","time":"03:25:53","latitude":"37.7787","longitude":"27.0733","depth":"4.9","md":"-.-","ml":"1.9","mw":"-.-","location":"KUSADASI KORFEZI (EGE DENIZI)"},{"date":"2020.12.18","time":"02:30:42","latitude":"40.4338","longitude":"28.9310","depth":"5.4","md":"-.-","ml":"2.4","mw":"-.-","location":"GEMLIK KORFEZI (MARMARA DENIZI)"},{"date":"2020.12.18","time":"02:27:56","latitude":"39.8112","longitude":"33.1572","depth":"3.7","md":"-.-","ml":"2.4","mw":"-.-","location":"TABURLAR-ELMADAG (ANKARA)"},{"date":"2020.12.18","time":"01:22:33","latitude":"37.8617","longitude":"26.5213","depth":"21.6","md":"-.-","ml":"1.6","mw":"-.-","location":"SISAM ADASI (EGE DENIZI)"},{"date":"2020.12.18","time":"01:01:46","latitude":"37.7452","longitude":"27.0998","depth":"4.7","md":"-.-","ml":"1.7","mw":"-.-","location":"KUSADASI KORFEZI (EGE DENIZI)"},{"date":"2020.12.18","time":"00:10:17","latitude":"37.8515","longitude":"26.9433","depth":"19.7","md":"-.-","ml":"1.1","mw":"-.-","location":"KUSADASI KORFEZI (EGE DENIZI)"},{"date":"2020.12.17","time":"23:45:06","latitude":"37.7578","longitude":"26.9885","depth":"10.9","md":"-.-","ml":"1.6","mw":"-.-","location":"SISAM ADASI (EGE DENIZI)"},{"date":"2020.12.17","time":"23:41:21","latitude":"37.9165","longitude":"27.1758","depth":"17.4","md":"-.-","ml":"1.2","mw":"-.-","location":"KUSADASI KORFEZI (EGE DENIZI)"},{"date":"2020.12.17","time":"23:38:01","latitude":"37.8362","longitude":"26.9685","depth":"29.3","md":"-.-","ml":"1.4","mw":"-.-","location":"KUSADASI KORFEZI (EGE DENIZI)"},{"date":"2020.12.17","time":"23:31:53","latitude":"37.8037","longitude":"26.7725","depth":"22.2","md":"-.-","ml":"1.3","mw":"-.-","location":"EGE DENIZI"},{"date":"2020.12.17","time":"23:17:19","latitude":"37.6642","longitude":"26.7150","depth":"11.0","md":"-.-","ml":"1.9","mw":"-.-","location":"SISAM ADASI (EGE DENIZI)"},{"date":"2020.12.17","time":"23:03:11","latitude":"37.6563","longitude":"27.0238","depth":"13.0","md":"-.-","ml":"1.7","mw":"-.-","location":"MILLI PARK-KUSADASI (AYDIN)"},{"date":"2020.12.17","time":"21:59:29","latitude":"35.6928","longitude":"26.2755","depth":"9.8","md":"-.-","ml":"2.6","mw":"-.-","location":"AKDENIZ"},{"date":"2020.12.17","time":"21:04:53","latitude":"36.4588","longitude":"28.7665","depth":"6.7","md":"-.-","ml":"2.0","mw":"-.-","location":"AKDENIZ"},{"date":"2020.12.17","time":"20:58:08","latitude":"38.6225","longitude":"27.6190","depth":"18.6","md":"-.-","ml":"2.0","mw":"-.-","location":"YESILKOY-(MANISA)"},{"date":"2020.12.17","time":"20:09:37","latitude":"37.8655","longitude":"26.8123","depth":"23.0","md":"-.-","ml":"1.8","mw":"-.-","location":"EGE DENIZI"},{"date":"2020.12.17","time":"19:40:04","latitude":"38.0247","longitude":"27.5125","depth":"7.7","md":"-.-","ml":"2.8","mw":"-.-","location":"UZUMLER-TIRE (IZMIR)"},{"date":"2020.12.17","time":"19:23:35","latitude":"37.9393","longitude":"26.7220","depth":"11.7","md":"-.-","ml":"2.1","mw":"-.-","location":"EGE DENIZI"},{"date":"2020.12.17","time":"19:22:07","latitude":"37.8483","longitude":"26.9630","depth":"14.5","md":"-.-","ml":"1.9","mw":"-.-","location":"KUSADASI KORFEZI (EGE DENIZI)"},{"date":"2020.12.17","time":"18:46:17","latitude":"35.6892","longitude":"26.2453","depth":"8.7","md":"-.-","ml":"2.7","mw":"-.-","location":"AKDENIZ"},{"date":"2020.12.17","time":"17:46:58","latitude":"38.0153","longitude":"27.5218","depth":"7.4","md":"-.-","ml":"2.0","mw":"-.-","location":"KUCUKKALE-TIRE (IZMIR)"},{"date":"2020.12.17","time":"17:32:35","latitude":"35.6288","longitude":"26.2908","depth":"4.8","md":"-.-","ml":"2.8","mw":"-.-","location":"AKDENIZ"},{"date":"2020.12.17","time":"17:08:19","latitude":"35.6112","longitude":"26.2982","depth":"5.0","md":"-.-","ml":"2.4","mw":"-.-","location":"AKDENIZ"},{"date":"2020.12.17","time":"16:43:26","latitude":"35.2418","longitude":"26.4667","depth":"67.1","md":"-.-","ml":"2.5","mw":"-.-","location":"GIRIT ADASI (AKDENIZ)"},{"date":"2020.12.17","time":"16:36:44","latitude":"35.7018","longitude":"26.2370","depth":"4.8","md":"-.-","ml":"4.5","mw":"4.6","location":"AKDENIZ"},{"date":"2020.12.17","time":"16:24:47","latitude":"35.1827","longitude":"28.0565","depth":"3.2","md":"-.-","ml":"2.6","mw":"-.-","location":"AKDENIZ"},{"date":"2020.12.17","time":"16:19:18","latitude":"37.7770","longitude":"27.1073","depth":"10.9","md":"-.-","ml":"2.0","mw":"-.-","location":"KUSADASI KORFEZI (EGE DENIZI)"},{"date":"2020.12.17","time":"15:51:41","latitude":"41.4487","longitude":"28.3220","depth":"0.0","md":"-.-","ml":"1.1","mw":"-.-","location":"YALIKOY-CATALCA (ISTANBUL)"},{"date":"2020.12.17","time":"15:36:07","latitude":"38.7580","longitude":"43.4735","depth":"20.6","md":"-.-","ml":"1.9","mw":"-.-","location":"YEMLICE-(VAN)"},{"date":"2020.12.17","time":"15:33:42","latitude":"40.3855","longitude":"31.5745","depth":"5.0","md":"-.-","ml":"1.6","mw":"-.-","location":"TEPEKOY-SEBEN (BOLU)"},{"date":"2020.12.17","time":"15:07:01","latitude":"38.8260","longitude":"26.8603","depth":"12.9","md":"-.-","ml":"1.8","mw":"-.-","location":"CANDARLI KORFEZI (EGE DENIZI)"},{"date":"2020.12.17","time":"14:41:00","latitude":"37.0887","longitude":"27.8977","depth":"0.0","md":"-.-","ml":"2.1","mw":"-.-","location":"BAYIRKOY-MILAS (MUGLA)"},{"date":"2020.12.17","time":"14:08:28","latitude":"38.7172","longitude":"33.8822","depth":"5.0","md":"-.-","ml":"1.7","mw":"-.-","location":"OYMAAGAC-AGACOREN (AKSARAY)"},{"date":"2020.12.17","time":"13:49:50","latitude":"36.9798","longitude":"27.3760","depth":"11.5","md":"-.-","ml":"2.2","mw":"-.-","location":"GOKOVA KORFEZI (AKDENIZ)"},{"date":"2020.12.17","time":"13:29:13","latitude":"39.4913","longitude":"33.4902","depth":"4.0","md":"-.-","ml":"1.9","mw":"-.-","location":"HACIYUSUFLU-CELEBI (KIRIKKALE)"},{"date":"2020.12.17","time":"13:17:23","latitude":"37.6122","longitude":"31.3248","depth":"5.0","md":"-.-","ml":"1.3","mw":"-.-","location":"YUKARIYAYLABEL-AKSU (ISPARTA)"},{"date":"2020.12.17","time":"12:45:25","latitude":"36.8473","longitude":"27.3647","depth":"5.3","md":"-.-","ml":"1.4","mw":"-.-","location":"GOKOVA KORFEZI (AKDENIZ)"},{"date":"2020.12.17","time":"12:32:09","latitude":"35.9810","longitude":"27.7645","depth":"2.4","md":"-.-","ml":"1.4","mw":"-.-","location":"RODOS ADASI (AKDENIZ)"},{"date":"2020.12.17","time":"12:02:55","latitude":"36.0335","longitude":"27.6578","depth":"8.8","md":"-.-","ml":"2.1","mw":"-.-","location":"AKDENIZ"},{"date":"2020.12.17","time":"11:49:52","latitude":"37.7867","longitude":"27.0035","depth":"24.8","md":"-.-","ml":"1.6","mw":"-.-","location":"KUSADASI KORFEZI (EGE DENIZI)"},{"date":"2020.12.17","time":"11:07:26","latitude":"39.0883","longitude":"42.5892","depth":"16.7","md":"-.-","ml":"1.8","mw":"-.-","location":"GULKORU-MALAZGIRT (MUS)"},{"date":"2020.12.17","time":"11:00:04","latitude":"38.6338","longitude":"43.3628","depth":"11.9","md":"-.-","ml":"2.8","mw":"-.-","location":"ASIT-(VAN)"},{"date":"2020.12.17","time":"10:56:26","latitude":"37.9383","longitude":"34.7858","depth":"0.0","md":"-.-","ml":"1.7","mw":"-.-","location":"GUMUSLER-(NIGDE)"},{"date":"2020.12.17","time":"10:48:02","latitude":"38.9265","longitude":"26.2003","depth":"10.7","md":"-.-","ml":"3.0","mw":"2.8","location":"MIDILLI ADASI (EGE DENIZI)"},{"date":"2020.12.17","time":"10:19:11","latitude":"34.7010","longitude":"23.1628","depth":"14.6","md":"-.-","ml":"4.0","mw":"4.0","location":"GIRIT ADASI (AKDENIZ)"},{"date":"2020.12.17","time":"09:19:57","latitude":"37.9037","longitude":"26.8742","depth":"6.7","md":"-.-","ml":"1.9","mw":"-.-","location":"KUSADASI KORFEZI (EGE DENIZI)"},{"date":"2020.12.17","time":"08:52:01","latitude":"39.8827","longitude":"27.8962","depth":"4.3","md":"-.-","ml":"2.0","mw":"-.-","location":"YAGCILAR-(BALIKESIR)"},{"date":"2020.12.17","time":"08:50:24","latitude":"37.8667","longitude":"26.9018","depth":"28.0","md":"-.-","ml":"2.0","mw":"-.-","location":"KUSADASI KORFEZI (EGE DENIZI)"},{"date":"2020.12.17","time":"07:36:37","latitude":"37.7403","longitude":"27.0507","depth":"11.9","md":"-.-","ml":"1.7","mw":"-.-","location":"SISAM ADASI (EGE DENIZI)"},{"date":"2020.12.17","time":"07:23:46","latitude":"37.7358","longitude":"27.0800","depth":"7.0","md":"-.-","ml":"1.5","mw":"-.-","location":"KUSADASI KORFEZI (EGE DENIZI)"}]
