[{"date":"2020.10.28","time":"09:59:19","latitude":"38.4283","longitude":"39.2503","depth":"8.6","md":"-.-","ml":"2.9","mw":"-.-","location":"KURKKOY-SIVRICE (ELAZIG)"},{"date":"2020.10.28","time":"09:12:12","latitude":"39.1255","longitude":"29.0627","depth":"6.8","md":"-.-","ml":"1.7","mw":"-.-","location":"SOGUT-SIMAV (KUTAHYA)"},{"date":"2020.10.28","time":"08:52:02","latitude":"35.8553","longitude":"36.5427","depth":"12.2","md":"-.-","ml":"3.3","mw":"3.3","location":"SURIYE"},{"date":"2020.10.28","time":"08:31:30","latitude":"36.9603","longitude":"27.5438","depth":"12.7","md":"-.-","ml":"1.5","mw":"-.-","location":"GOKOVA KORFEZI (AKDENIZ)"},{"date":"2020.10.28","time":"06:24:11","latitude":"37.9777","longitude":"38.4770","depth":"5.0","md":"-.-","ml":"2.0","mw":"-.-","location":"HASANLI-SINCIK (ADIYAMAN)"},{"date":"2020.10.28","time":"06:18:10","latitude":"40.6207","longitude":"29.2232","depth":"20.1","md":"-.-","ml":"1.1","mw":"-.-","location":"KADIKOY-(YALOVA)"},{"date":"2020.10.28","time":"06:12:20","latitude":"39.9485","longitude":"39.7928","depth":"10.6","md":"-.-","ml":"2.3","mw":"-.-","location":"DAMLICA-DEMIROZU (BAYBURT)"},{"date":"2020.10.28","time":"06:09:29","latitude":"39.1385","longitude":"41.6907","depth":"15.0","md":"-.-","ml":"1.6","mw":"-.-","location":"UNALDI-VARTO (MUS)"},{"date":"2020.10.28","time":"06:08:43","latitude":"38.8155","longitude":"26.4397","depth":"12.4","md":"-.-","ml":"2.2","mw":"-.-","location":"EGE DENIZI"},{"date":"2020.10.28","time":"05:50:06","latitude":"39.1342","longitude":"29.0207","depth":"10.2","md":"-.-","ml":"1.3","mw":"-.-","location":"HACIAHMETOGLU-SIMAV (KUTAHYA)"},{"date":"2020.10.28","time":"05:40:45","latitude":"39.1448","longitude":"29.0645","depth":"8.0","md":"-.-","ml":"1.8","mw":"-.-","location":"AHLATLICESME-SIMAV (KUTAHYA)"},{"date":"2020.10.28","time":"05:37:41","latitude":"36.9195","longitude":"29.3040","depth":"21.1","md":"-.-","ml":"0.9","mw":"-.-","location":"GURSU-CAMELI (DENIZLI)"},{"date":"2020.10.28","time":"05:04:36","latitude":"40.5212","longitude":"32.9562","depth":"5.0","md":"-.-","ml":"3.6","mw":"3.8","location":"TUTMACBAYINDIR-ORTA (CANKIRI)"},{"date":"2020.10.28","time":"04:59:17","latitude":"37.9718","longitude":"27.2832","depth":"9.3","md":"-.-","ml":"1.4","mw":"-.-","location":"ZEYTINKOY-SELCUK (IZMIR)"},{"date":"2020.10.28","time":"04:57:28","latitude":"38.9978","longitude":"27.8338","depth":"1.8","md":"-.-","ml":"1.3","mw":"-.-","location":"GOKCEAHMET-AKHISAR (MANISA)"},{"date":"2020.10.28","time":"04:49:10","latitude":"39.5717","longitude":"26.1345","depth":"10.5","md":"-.-","ml":"1.5","mw":"-.-","location":"TUZLA-AYVACIK (CANAKKALE)"},{"date":"2020.10.28","time":"04:39:56","latitude":"35.8598","longitude":"36.4502","depth":"16.3","md":"-.-","ml":"3.3","mw":"-.-","location":"SURIYE"},{"date":"2020.10.28","time":"04:21:10","latitude":"37.8835","longitude":"27.5077","depth":"19.2","md":"-.-","ml":"1.5","mw":"-.-","location":"ORTAKLAR-GERMENCIK (AYDIN)"},{"date":"2020.10.28","time":"04:14:47","latitude":"37.8688","longitude":"29.0697","depth":"25.5","md":"-.-","ml":"1.6","mw":"-.-","location":"CELTIKCI-(DENIZLI)"},{"date":"2020.10.28","time":"03:41:20","latitude":"34.5477","longitude":"25.4357","depth":"18.4","md":"-.-","ml":"3.0","mw":"-.-","location":"GIRIT ADASI (AKDENIZ)"},{"date":"2020.10.28","time":"03:40:05","latitude":"37.9420","longitude":"27.3230","depth":"10.4","md":"-.-","ml":"1.6","mw":"-.-","location":"SELCUK (IZMIR)"},{"date":"2020.10.28","time":"03:18:09","latitude":"39.0088","longitude":"27.8778","depth":"16.3","md":"-.-","ml":"1.4","mw":"-.-","location":"DINGILLER-AKHISAR (MANISA)"},{"date":"2020.10.28","time":"01:46:56","latitude":"36.3145","longitude":"28.7877","depth":"22.2","md":"-.-","ml":"1.6","mw":"-.-","location":"AKDENIZ"},{"date":"2020.10.28","time":"01:33:31","latitude":"36.8940","longitude":"27.3753","depth":"16.0","md":"-.-","ml":"1.3","mw":"-.-","location":"GOKOVA KORFEZI (AKDENIZ)"},{"date":"2020.10.28","time":"00:55:29","latitude":"38.8157","longitude":"27.0318","depth":"15.6","md":"-.-","ml":"1.8","mw":"-.-","location":"CALTILIDERE-ALIAGA (IZMIR)"},{"date":"2020.10.27","time":"23:05:12","latitude":"34.8562","longitude":"31.9628","depth":"3.7","md":"-.-","ml":"2.3","mw":"-.-","location":"AKDENIZ"},{"date":"2020.10.27","time":"22:45:40","latitude":"38.1692","longitude":"27.1697","depth":"5.0","md":"-.-","ml":"2.4","mw":"-.-","location":"CILEME-MENDERES (IZMIR)"},{"date":"2020.10.27","time":"21:00:40","latitude":"38.4523","longitude":"27.9877","depth":"8.6","md":"-.-","ml":"1.4","mw":"-.-","location":"BASLIOGLU-SALIHLI (MANISA)"},{"date":"2020.10.27","time":"17:14:19","latitude":"38.9870","longitude":"27.8510","depth":"6.0","md":"-.-","ml":"3.3","mw":"3.1","location":"KARABORKLU-AKHISAR (MANISA)"},{"date":"2020.10.27","time":"17:04:22","latitude":"38.7412","longitude":"39.6258","depth":"7.8","md":"-.-","ml":"2.9","mw":"-.-","location":"EKINBAGI-KOVANCILAR (ELAZIG)"},{"date":"2020.10.27","time":"16:57:55","latitude":"39.3550","longitude":"25.6890","depth":"5.3","md":"-.-","ml":"2.8","mw":"-.-","location":"EGE DENIZI"},{"date":"2020.10.27","time":"15:52:20","latitude":"38.7578","longitude":"39.6798","depth":"5.0","md":"-.-","ml":"2.4","mw":"-.-","location":"YUKARIKAZANLAR-KOVANCILAR (ELAZIG)"},{"date":"2020.10.27","time":"15:26:40","latitude":"39.5750","longitude":"26.0883","depth":"10.6","md":"-.-","ml":"1.4","mw":"-.-","location":"GULPINAR-AYVACIK (CANAKKALE)"},{"date":"2020.10.27","time":"15:13:08","latitude":"40.4485","longitude":"29.2177","depth":"0.0","md":"-.-","ml":"1.4","mw":"-.-","location":"CIHATLI-GEMLIK (BURSA)"},{"date":"2020.10.27","time":"14:56:40","latitude":"38.8590","longitude":"27.5933","depth":"6.1","md":"-.-","ml":"1.6","mw":"-.-","location":"GOKCE-SARUHANLI (MANISA)"},{"date":"2020.10.27","time":"13:55:36","latitude":"38.9010","longitude":"37.8628","depth":"1.8","md":"-.-","ml":"1.3","mw":"-.-","location":"DEREKOY-HEKIMHAN (MALATYA)"},{"date":"2020.10.27","time":"13:25:02","latitude":"39.1283","longitude":"42.2655","depth":"22.1","md":"-.-","ml":"1.6","mw":"-.-","location":"KOTANLI-BULANIK (MUS)"},{"date":"2020.10.27","time":"13:24:59","latitude":"39.2608","longitude":"42.1533","depth":"25.0","md":"-.-","ml":"1.6","mw":"-.-","location":"SATIRLAR-BULANIK (MUS)"},{"date":"2020.10.27","time":"12:52:11","latitude":"35.0215","longitude":"27.1183","depth":"5.0","md":"-.-","ml":"3.1","mw":"3.3","location":"GIRIT ADASI ACIKLARI (AKDENIZ)"},{"date":"2020.10.27","time":"12:49:21","latitude":"40.2250","longitude":"30.7770","depth":"1.0","md":"-.-","ml":"1.7","mw":"-.-","location":"HIMMETOGLU-GOYNUK (BOLU)"},{"date":"2020.10.27","time":"12:47:05","latitude":"40.2220","longitude":"30.7957","depth":"7.3","md":"-.-","ml":"1.9","mw":"-.-","location":"HIMMETOGLU-GOYNUK (BOLU)"},{"date":"2020.10.27","time":"12:39:06","latitude":"39.4927","longitude":"28.0970","depth":"7.9","md":"-.-","ml":"1.6","mw":"-.-","location":"DEGIRMENLI-BIGADIC (BALIKESIR)"},{"date":"2020.10.27","time":"12:28:48","latitude":"39.4480","longitude":"28.1372","depth":"7.8","md":"-.-","ml":"1.4","mw":"-.-","location":"SALMANLI-BIGADIC (BALIKESIR)"},{"date":"2020.10.27","time":"12:24:04","latitude":"39.9323","longitude":"28.7937","depth":"0.0","md":"-.-","ml":"1.8","mw":"-.-","location":"CIVILI-ORHANELI (BURSA)"},{"date":"2020.10.27","time":"12:05:12","latitude":"36.9343","longitude":"37.5997","depth":"6.6","md":"-.-","ml":"2.0","mw":"-.-","location":"TINAZDERE-OGUZELI (GAZIANTEP)"},{"date":"2020.10.27","time":"11:55:27","latitude":"37.2058","longitude":"28.2172","depth":"0.0","md":"-.-","ml":"1.7","mw":"-.-","location":"KAFACA-(MUGLA)"},{"date":"2020.10.27","time":"11:39:52","latitude":"40.5070","longitude":"29.2598","depth":"0.0","md":"-.-","ml":"1.1","mw":"-.-","location":"FINDIKLI-ORHANGAZI (BURSA)"},{"date":"2020.10.27","time":"11:32:55","latitude":"35.8888","longitude":"31.3337","depth":"17.6","md":"-.-","ml":"3.5","mw":"-.-","location":"AKDENIZ"},{"date":"2020.10.27","time":"11:02:14","latitude":"38.4322","longitude":"28.0628","depth":"5.3","md":"-.-","ml":"1.4","mw":"-.-","location":"GOKKOY-SALIHLI (MANISA)"},{"date":"2020.10.27","time":"10:29:13","latitude":"38.1023","longitude":"38.6320","depth":"5.0","md":"-.-","ml":"2.2","mw":"-.-","location":"KOZLUK-PUTURGE (MALATYA)"},{"date":"2020.10.27","time":"10:08:25","latitude":"36.6640","longitude":"30.3872","depth":"11.0","md":"-.-","ml":"2.0","mw":"-.-","location":"GOLCUK-KUMLUCA (ANTALYA)"},{"date":"2020.10.27","time":"09:26:31","latitude":"39.2767","longitude":"27.7340","depth":"0.0","md":"-.-","ml":"1.8","mw":"-.-","location":"KOZLUOREN-SOMA (MANISA)"},{"date":"2020.10.27","time":"09:08:37","latitude":"37.4247","longitude":"36.9672","depth":"1.9","md":"-.-","ml":"1.4","mw":"-.-","location":"NEVRUZLU-(KAHRAMANMARAS)"},{"date":"2020.10.27","time":"08:48:30","latitude":"39.4015","longitude":"24.9402","depth":"5.8","md":"-.-","ml":"2.1","mw":"-.-","location":"EGE DENIZI"},{"date":"2020.10.27","time":"07:49:00","latitude":"36.8768","longitude":"27.4773","depth":"8.6","md":"-.-","ml":"2.0","mw":"-.-","location":"GOKOVA KORFEZI (AKDENIZ)"},{"date":"2020.10.27","time":"05:18:52","latitude":"39.9360","longitude":"39.3613","depth":"5.0","md":"-.-","ml":"2.0","mw":"-.-","location":"AYDOGDU-KELKIT (GUMUSHANE)"},{"date":"2020.10.27","time":"05:04:17","latitude":"36.8712","longitude":"27.4635","depth":"9.1","md":"-.-","ml":"2.1","mw":"-.-","location":"GOKOVA KORFEZI (AKDENIZ)"},{"date":"2020.10.27","time":"04:53:30","latitude":"38.6868","longitude":"41.9455","depth":"12.5","md":"-.-","ml":"1.9","mw":"-.-","location":"ALTINOVA-KORKUT (MUS)"},{"date":"2020.10.27","time":"04:04:57","latitude":"36.8780","longitude":"27.4872","depth":"10.2","md":"-.-","ml":"2.6","mw":"-.-","location":"GOKOVA KORFEZI (AKDENIZ)"},{"date":"2020.10.27","time":"02:50:26","latitude":"40.7707","longitude":"29.0947","depth":"12.1","md":"-.-","ml":"2.0","mw":"-.-","location":"CINARCIK ACIKLARI-YALOVA (MARMARA DENIZI)"},{"date":"2020.10.27","time":"02:29:06","latitude":"40.7652","longitude":"29.0125","depth":"5.0","md":"-.-","ml":"2.0","mw":"-.-","location":"CINARCIK ACIKLARI-YALOVA (MARMARA DENIZI)"},{"date":"2020.10.27","time":"02:18:41","latitude":"40.7807","longitude":"29.0767","depth":"14.0","md":"-.-","ml":"1.5","mw":"-.-","location":"CINARCIK ACIKLARI-YALOVA (MARMARA DENIZI)"},{"date":"2020.10.27","time":"02:18:30","latitude":"36.8640","longitude":"27.6618","depth":"5.0","md":"-.-","ml":"1.1","mw":"-.-","location":"GOKOVA KORFEZI (AKDENIZ)"},{"date":"2020.10.27","time":"02:16:54","latitude":"40.7532","longitude":"29.0940","depth":"11.3","md":"-.-","ml":"1.2","mw":"-.-","location":"CINARCIK ACIKLARI-YALOVA (MARMARA DENIZI)"},{"date":"2020.10.27","time":"00:46:55","latitude":"36.8768","longitude":"27.4972","depth":"10.4","md":"-.-","ml":"2.3","mw":"-.-","location":"GOKOVA KORFEZI (AKDENIZ)"},{"date":"2020.10.27","time":"00:46:39","latitude":"36.8818","longitude":"27.5385","depth":"4.8","md":"-.-","ml":"2.3","mw":"-.-","location":"GOKOVA KORFEZI (AKDENIZ)"},{"date":"2020.10.27","time":"00:21:15","latitude":"38.6933","longitude":"41.9437","depth":"3.6","md":"-.-","ml":"2.2","mw":"-.-","location":"ALTINOVA-KORKUT (MUS)"},{"date":"2020.10.26","time":"22:28:24","latitude":"39.7583","longitude":"30.6373","depth":"5.1","md":"-.-","ml":"1.3","mw":"-.-","location":"SULTANDERE-ODUNPAZARI (ESKISEHIR)"},{"date":"2020.10.26","time":"22:27:00","latitude":"40.2188","longitude":"28.9033","depth":"9.1","md":"-.-","ml":"1.8","mw":"-.-","location":"DOGANKOY-NILUFER (BURSA)"},{"date":"2020.10.26","time":"22:23:32","latitude":"35.6467","longitude":"26.2770","depth":"6.2","md":"-.-","ml":"3.2","mw":"3.2","location":"AKDENIZ"},{"date":"2020.10.26","time":"22:09:38","latitude":"38.3875","longitude":"39.3307","depth":"9.6","md":"-.-","ml":"1.3","mw":"-.-","location":"ALAATTINKOY-SIVRICE (ELAZIG)"},{"date":"2020.10.26","time":"21:51:21","latitude":"38.3907","longitude":"39.3493","depth":"4.5","md":"-.-","ml":"1.6","mw":"-.-","location":"BASKAYNAK-SIVRICE (ELAZIG)"},{"date":"2020.10.26","time":"21:37:18","latitude":"36.6832","longitude":"30.4355","depth":"6.2","md":"-.-","ml":"2.4","mw":"-.-","location":"UCOLUK-KONYAALTI (ANTALYA)"},{"date":"2020.10.26","time":"21:31:41","latitude":"39.3910","longitude":"34.9420","depth":"5.4","md":"-.-","ml":"1.8","mw":"-.-","location":"COPLUCIFTLIGI-YENIFAKILI (YOZGAT)"},{"date":"2020.10.26","time":"21:12:22","latitude":"35.5822","longitude":"26.2793","depth":"8.0","md":"-.-","ml":"2.7","mw":"-.-","location":"AKDENIZ"},{"date":"2020.10.26","time":"20:07:47","latitude":"40.8045","longitude":"33.1225","depth":"7.1","md":"-.-","ml":"1.6","mw":"-.-","location":"CARDAKLI-ATKARACALAR (CANKIRI)"},{"date":"2020.10.26","time":"19:52:04","latitude":"36.9495","longitude":"28.4520","depth":"5.0","md":"-.-","ml":"1.6","mw":"-.-","location":"YESILCAM-ULA (MUGLA)"},{"date":"2020.10.26","time":"19:22:02","latitude":"40.7610","longitude":"29.0788","depth":"13.7","md":"-.-","ml":"2.3","mw":"-.-","location":"CINARCIK ACIKLARI-YALOVA (MARMARA DENIZI)"},{"date":"2020.10.26","time":"19:14:18","latitude":"40.7493","longitude":"29.0872","depth":"6.7","md":"-.-","ml":"1.6","mw":"-.-","location":"CINARCIK ACIKLARI-YALOVA (MARMARA DENIZI)"},{"date":"2020.10.26","time":"19:13:31","latitude":"40.7808","longitude":"29.0835","depth":"18.5","md":"-.-","ml":"1.9","mw":"-.-","location":"ADALAR (ISTANBUL)"},{"date":"2020.10.26","time":"19:10:23","latitude":"40.7920","longitude":"29.0655","depth":"10.5","md":"-.-","ml":"1.3","mw":"-.-","location":"ADALAR (ISTANBUL)"},{"date":"2020.10.26","time":"18:08:21","latitude":"39.4318","longitude":"24.9268","depth":"5.0","md":"-.-","ml":"3.2","mw":"3.3","location":"EGE DENIZI"},{"date":"2020.10.26","time":"17:54:46","latitude":"36.6482","longitude":"26.6535","depth":"9.3","md":"-.-","ml":"2.1","mw":"-.-","location":"AKDENIZ"},{"date":"2020.10.26","time":"17:15:46","latitude":"38.9703","longitude":"27.1480","depth":"11.0","md":"-.-","ml":"1.7","mw":"-.-","location":"KOYUNELI-BERGAMA (IZMIR)"},{"date":"2020.10.26","time":"16:59:51","latitude":"37.2760","longitude":"30.5905","depth":"83.6","md":"-.-","ml":"1.9","mw":"-.-","location":"KARAOT-BUCAK (BURDUR)"},{"date":"2020.10.26","time":"15:16:48","latitude":"39.4597","longitude":"24.9622","depth":"5.0","md":"-.-","ml":"3.2","mw":"3.3","location":"EGE DENIZI"},{"date":"2020.10.26","time":"13:31:39","latitude":"39.9455","longitude":"27.1767","depth":"5.4","md":"-.-","ml":"2.2","mw":"-.-","location":"CINARCIK-YENICE (CANAKKALE)"},{"date":"2020.10.26","time":"11:39:06","latitude":"40.7137","longitude":"32.9013","depth":"10.7","md":"-.-","ml":"1.6","mw":"-.-","location":"YAKUPLAR-CERKES (CANKIRI)"},{"date":"2020.10.26","time":"11:15:40","latitude":"37.5242","longitude":"32.0275","depth":"1.9","md":"-.-","ml":"2.6","mw":"-.-","location":"CAT-SEYDISEHIR (KONYA)"},{"date":"2020.10.26","time":"10:48:43","latitude":"40.3870","longitude":"27.1193","depth":"5.2","md":"-.-","ml":"2.2","mw":"-.-","location":"KARAPURCEK-BIGA (CANAKKALE)"},{"date":"2020.10.26","time":"10:39:50","latitude":"38.7563","longitude":"26.4758","depth":"6.8","md":"-.-","ml":"2.2","mw":"-.-","location":"EGE DENIZI"},{"date":"2020.10.26","time":"09:41:59","latitude":"38.9143","longitude":"25.9803","depth":"5.0","md":"-.-","ml":"2.2","mw":"-.-","location":"EGE DENIZI"},{"date":"2020.10.26","time":"09:13:13","latitude":"34.4685","longitude":"25.2590","depth":"26.8","md":"-.-","ml":"3.5","mw":"3.7","location":"GIRIT ADASI ACIKLARI (AKDENIZ)"},{"date":"2020.10.26","time":"08:34:20","latitude":"38.6823","longitude":"25.3872","depth":"10.4","md":"-.-","ml":"3.4","mw":"3.3","location":"EGE DENIZI"},{"date":"2020.10.26","time":"08:06:02","latitude":"38.8617","longitude":"26.9478","depth":"7.8","md":"-.-","ml":"1.9","mw":"-.-","location":"CANDARLI KORFEZI (EGE DENIZI)"},{"date":"2020.10.26","time":"07:56:07","latitude":"39.1235","longitude":"41.2372","depth":"8.6","md":"-.-","ml":"2.8","mw":"-.-","location":"BAGLIISA-KARLIOVA (BINGOL)"},{"date":"2020.10.26","time":"07:06:00","latitude":"36.9150","longitude":"27.6183","depth":"7.5","md":"-.-","ml":"1.2","mw":"-.-","location":"GOKOVA KORFEZI (AKDENIZ)"},{"date":"2020.10.26","time":"07:03:17","latitude":"36.9655","longitude":"27.5440","depth":"6.8","md":"-.-","ml":"2.0","mw":"-.-","location":"GOKOVA KORFEZI (AKDENIZ)"},{"date":"2020.10.26","time":"07:02:45","latitude":"36.8845","longitude":"27.4403","depth":"25.7","md":"-.-","ml":"1.5","mw":"-.-","location":"GOKOVA KORFEZI (AKDENIZ)"},{"date":"2020.10.26","time":"06:14:55","latitude":"40.7745","longitude":"29.0717","depth":"12.5","md":"-.-","ml":"2.1","mw":"-.-","location":"CINARCIK ACIKLARI-YALOVA (MARMARA DENIZI)"},{"date":"2020.10.26","time":"06:11:23","latitude":"40.7565","longitude":"28.9377","depth":"3.1","md":"-.-","ml":"1.3","mw":"-.-","location":"CINARCIK ACIKLARI-YALOVA (MARMARA DENIZI)"},{"date":"2020.10.26","time":"06:02:06","latitude":"40.1418","longitude":"27.3877","depth":"13.7","md":"-.-","ml":"2.7","mw":"-.-","location":"YOLINDI-BIGA (CANAKKALE)"},{"date":"2020.10.26","time":"05:47:36","latitude":"36.9578","longitude":"27.5665","depth":"7.1","md":"-.-","ml":"1.3","mw":"-.-","location":"GOKOVA KORFEZI (AKDENIZ)"},{"date":"2020.10.26","time":"05:34:22","latitude":"38.8650","longitude":"44.4388","depth":"5.0","md":"-.-","ml":"2.7","mw":"-.-","location":"TURKIYE-IRAN SINIR BOLGESI"},{"date":"2020.10.26","time":"05:24:42","latitude":"38.9122","longitude":"27.9682","depth":"11.7","md":"-.-","ml":"2.5","mw":"-.-","location":"ULUPINAR-AKHISAR (MANISA)"},{"date":"2020.10.26","time":"05:21:19","latitude":"39.0378","longitude":"27.8680","depth":"1.9","md":"-.-","ml":"2.0","mw":"-.-","location":"MUSALAR-AKHISAR (MANISA)"},{"date":"2020.10.26","time":"03:49:47","latitude":"38.3383","longitude":"26.5060","depth":"10.6","md":"-.-","ml":"1.8","mw":"-.-","location":"KADIOVACIK-URLA (IZMIR)"},{"date":"2020.10.26","time":"01:11:52","latitude":"40.7643","longitude":"29.0738","depth":"9.1","md":"-.-","ml":"2.8","mw":"-.-","location":"CINARCIK ACIKLARI-YALOVA (MARMARA DENIZI)"},{"date":"2020.10.26","time":"00:48:42","latitude":"39.9455","longitude":"39.5252","depth":"5.1","md":"-.-","ml":"2.0","mw":"-.-","location":"BELENLI-KELKIT (GUMUSHANE)"},{"date":"2020.10.26","time":"00:35:34","latitude":"39.0833","longitude":"27.8643","depth":"7.0","md":"-.-","ml":"1.7","mw":"-.-","location":"SELCIKLI-AKHISAR (MANISA)"},{"date":"2020.10.26","time":"00:27:33","latitude":"40.8907","longitude":"28.2258","depth":"6.0","md":"-.-","ml":"1.6","mw":"-.-","location":"SILIVRI ACIKLARI-ISTANBUL (MARMARA DENIZI)"},{"date":"2020.10.26","time":"00:22:20","latitude":"35.9882","longitude":"28.8540","depth":"8.1","md":"-.-","ml":"1.5","mw":"-.-","location":"AKDENIZ"},{"date":"2020.10.26","time":"00:04:27","latitude":"36.9758","longitude":"28.2073","depth":"24.4","md":"-.-","ml":"1.1","mw":"-.-","location":"CAMLI-MARMARIS (MUGLA)"},{"date":"2020.10.26","time":"00:03:04","latitude":"39.8472","longitude":"43.4248","depth":"29.3","md":"-.-","ml":"1.7","mw":"-.-","location":"KANDILLI-TUZLUCA (IGDIR)"},{"date":"2020.10.25","time":"23:51:11","latitude":"41.3160","longitude":"29.1913","depth":"18.0","md":"-.-","ml":"1.4","mw":"-.-","location":"RIVA-BEYKOZ (ISTANBUL)"},{"date":"2020.10.25","time":"23:42:07","latitude":"39.1220","longitude":"29.0398","depth":"5.4","md":"-.-","ml":"2.2","mw":"-.-","location":"KAPIKAYA-SIMAV (KUTAHYA)"},{"date":"2020.10.25","time":"23:34:42","latitude":"38.8308","longitude":"30.0993","depth":"5.3","md":"-.-","ml":"1.7","mw":"-.-","location":"KARACAOREN-SINANPASA (AFYONKARAHISAR)"},{"date":"2020.10.25","time":"23:34:37","latitude":"38.5088","longitude":"39.2972","depth":"6.6","md":"-.-","ml":"2.1","mw":"-.-","location":"BEKCITEPE-SIVRICE (ELAZIG)"},{"date":"2020.10.25","time":"23:26:39","latitude":"35.8603","longitude":"28.1358","depth":"5.0","md":"-.-","ml":"1.3","mw":"-.-","location":"AKDENIZ"},{"date":"2020.10.25","time":"23:17:22","latitude":"38.4023","longitude":"39.1222","depth":"12.4","md":"-.-","ml":"2.0","mw":"-.-","location":"KAMISLIK-SIVRICE (ELAZIG)"},{"date":"2020.10.25","time":"22:54:39","latitude":"39.1297","longitude":"29.0943","depth":"4.2","md":"-.-","ml":"1.7","mw":"-.-","location":"SOGUT-SIMAV (KUTAHYA)"},{"date":"2020.10.25","time":"22:15:18","latitude":"36.9690","longitude":"27.4860","depth":"13.4","md":"-.-","ml":"1.3","mw":"-.-","location":"GOKOVA KORFEZI (AKDENIZ)"},{"date":"2020.10.25","time":"22:06:53","latitude":"38.3917","longitude":"39.2852","depth":"5.2","md":"-.-","ml":"2.0","mw":"-.-","location":"ALAATTINKOY-SIVRICE (ELAZIG)"},{"date":"2020.10.25","time":"22:04:39","latitude":"36.9160","longitude":"27.6778","depth":"4.9","md":"-.-","ml":"1.0","mw":"-.-","location":"GOKOVA KORFEZI (AKDENIZ)"},{"date":"2020.10.25","time":"22:01:20","latitude":"36.9185","longitude":"27.6510","depth":"5.5","md":"-.-","ml":"1.0","mw":"-.-","location":"GOKOVA KORFEZI (AKDENIZ)"},{"date":"2020.10.25","time":"21:57:12","latitude":"39.6105","longitude":"38.5948","depth":"5.4","md":"-.-","ml":"2.2","mw":"-.-","location":"LEVENTPINARI-ILIC (ERZINCAN)"},{"date":"2020.10.25","time":"20:52:54","latitude":"39.4573","longitude":"40.3823","depth":"2.7","md":"-.-","ml":"2.9","mw":"-.-","location":"GELINPERTEK-YEDISU (BINGOL)"},{"date":"2020.10.25","time":"20:33:45","latitude":"38.5110","longitude":"39.3042","depth":"4.4","md":"-.-","ml":"3.3","mw":"3.4","location":"GUNEYKOY-SIVRICE (ELAZIG)"},{"date":"2020.10.25","time":"19:08:58","latitude":"38.5147","longitude":"39.3042","depth":"5.9","md":"-.-","ml":"3.3","mw":"3.3","location":"ACIPAYAM-(ELAZIG)"},{"date":"2020.10.25","time":"18:54:15","latitude":"40.7600","longitude":"29.0402","depth":"19.8","md":"-.-","ml":"1.5","mw":"-.-","location":"CINARCIK ACIKLARI-YALOVA (MARMARA DENIZI)"},{"date":"2020.10.25","time":"18:14:30","latitude":"36.9067","longitude":"27.6373","depth":"8.3","md":"-.-","ml":"1.2","mw":"-.-","location":"GOKOVA KORFEZI (AKDENIZ)"},{"date":"2020.10.25","time":"18:13:34","latitude":"36.9640","longitude":"27.5288","depth":"3.9","md":"-.-","ml":"1.5","mw":"-.-","location":"GOKOVA KORFEZI (AKDENIZ)"},{"date":"2020.10.25","time":"16:34:32","latitude":"39.1337","longitude":"29.3772","depth":"8.9","md":"-.-","ml":"1.8","mw":"-.-","location":"YESILOVA-GEDIZ (KUTAHYA)"},{"date":"2020.10.25","time":"16:25:34","latitude":"37.5290","longitude":"29.2728","depth":"4.8","md":"-.-","ml":"2.6","mw":"-.-","location":"YASSIHUYUK-ACIPAYAM (DENIZLI)"},{"date":"2020.10.25","time":"14:13:57","latitude":"39.2837","longitude":"40.2007","depth":"5.0","md":"-.-","ml":"2.0","mw":"-.-","location":"SABIRTASI-KIGI (BINGOL)"},{"date":"2020.10.25","time":"13:35:48","latitude":"38.9870","longitude":"27.1173","depth":"2.9","md":"-.-","ml":"1.6","mw":"-.-","location":"CALIBAHCE-BERGAMA (IZMIR)"},{"date":"2020.10.25","time":"13:24:29","latitude":"36.1578","longitude":"33.5635","depth":"0.0","md":"-.-","ml":"0.8","mw":"-.-","location":"BUYUKECELI-GULNAR (MERSIN)"},{"date":"2020.10.25","time":"13:11:53","latitude":"39.3973","longitude":"29.0825","depth":"14.2","md":"-.-","ml":"1.5","mw":"-.-","location":"IHLAMUR-SIMAV (KUTAHYA)"},{"date":"2020.10.25","time":"12:37:28","latitude":"38.9412","longitude":"40.4712","depth":"1.6","md":"-.-","ml":"4.0","mw":"4.1","location":"SANCAKLI-MERKEZ (BINGOL)"},{"date":"2020.10.25","time":"12:14:07","latitude":"36.7120","longitude":"39.4893","depth":"30.2","md":"-.-","ml":"2.1","mw":"-.-","location":"NARLIOVA-AKCAKALE (SANLIURFA)"},{"date":"2020.10.25","time":"11:52:50","latitude":"36.0267","longitude":"29.0175","depth":"11.0","md":"-.-","ml":"2.2","mw":"-.-","location":"AKDENIZ"},{"date":"2020.10.25","time":"11:34:11","latitude":"38.0175","longitude":"34.0452","depth":"3.0","md":"-.-","ml":"2.2","mw":"-.-","location":"OBRUK-BOR (NIGDE)"},{"date":"2020.10.25","time":"11:07:29","latitude":"37.8587","longitude":"37.3695","depth":"9.3","md":"-.-","ml":"1.9","mw":"-.-","location":"UMUTLU-NURHAK (KAHRAMANMARAS)"},{"date":"2020.10.25","time":"09:41:54","latitude":"36.7160","longitude":"28.9702","depth":"4.8","md":"-.-","ml":"2.1","mw":"-.-","location":"FETHIYE KORFEZI (AKDENIZ)"},{"date":"2020.10.25","time":"08:57:56","latitude":"36.8580","longitude":"27.5117","depth":"4.9","md":"-.-","ml":"1.3","mw":"-.-","location":"GOKOVA KORFEZI (AKDENIZ)"},{"date":"2020.10.25","time":"08:35:37","latitude":"36.9292","longitude":"27.5423","depth":"5.3","md":"-.-","ml":"2.2","mw":"-.-","location":"GOKOVA KORFEZI (AKDENIZ)"},{"date":"2020.10.25","time":"07:41:00","latitude":"38.9973","longitude":"27.8450","depth":"18.6","md":"-.-","ml":"1.6","mw":"-.-","location":"GOKCEAHMET-AKHISAR (MANISA)"},{"date":"2020.10.25","time":"07:25:59","latitude":"36.9332","longitude":"31.2210","depth":"72.4","md":"-.-","ml":"2.3","mw":"-.-","location":"TASAGIL-MANAVGAT (ANTALYA)"},{"date":"2020.10.25","time":"07:22:53","latitude":"36.9582","longitude":"27.5302","depth":"13.7","md":"-.-","ml":"1.2","mw":"-.-","location":"GOKOVA KORFEZI (AKDENIZ)"},{"date":"2020.10.25","time":"07:20:43","latitude":"36.9593","longitude":"27.5095","depth":"16.8","md":"-.-","ml":"1.2","mw":"-.-","location":"GOKOVA KORFEZI (AKDENIZ)"},{"date":"2020.10.25","time":"06:47:47","latitude":"36.9397","longitude":"27.4983","depth":"16.2","md":"-.-","ml":"1.2","mw":"-.-","location":"GOKOVA KORFEZI (AKDENIZ)"},{"date":"2020.10.25","time":"06:44:17","latitude":"36.9592","longitude":"27.5330","depth":"2.0","md":"-.-","ml":"0.8","mw":"-.-","location":"GOKOVA KORFEZI (AKDENIZ)"},{"date":"2020.10.25","time":"06:07:44","latitude":"39.5515","longitude":"28.8190","depth":"14.9","md":"-.-","ml":"1.8","mw":"-.-","location":"AYVACIK-DURSUNBEY (BALIKESIR)"},{"date":"2020.10.25","time":"05:34:48","latitude":"36.9362","longitude":"27.5068","depth":"12.4","md":"-.-","ml":"1.5","mw":"-.-","location":"GOKOVA KORFEZI (AKDENIZ)"},{"date":"2020.10.25","time":"05:33:58","latitude":"36.9447","longitude":"27.5233","depth":"6.5","md":"-.-","ml":"1.9","mw":"-.-","location":"GOKOVA KORFEZI (AKDENIZ)"},{"date":"2020.10.25","time":"05:29:29","latitude":"36.9287","longitude":"27.4802","depth":"13.9","md":"-.-","ml":"1.4","mw":"-.-","location":"GOKOVA KORFEZI (AKDENIZ)"},{"date":"2020.10.25","time":"05:22:46","latitude":"36.9407","longitude":"27.5910","depth":"4.1","md":"-.-","ml":"1.0","mw":"-.-","location":"GOKOVA KORFEZI (AKDENIZ)"},{"date":"2020.10.25","time":"05:13:51","latitude":"36.9255","longitude":"27.5022","depth":"16.1","md":"-.-","ml":"1.4","mw":"-.-","location":"GOKOVA KORFEZI (AKDENIZ)"},{"date":"2020.10.25","time":"04:26:39","latitude":"40.6700","longitude":"32.8645","depth":"6.0","md":"-.-","ml":"1.7","mw":"-.-","location":"KISAC-CERKES (CANKIRI)"},{"date":"2020.10.25","time":"03:09:47","latitude":"39.4695","longitude":"26.3700","depth":"5.0","md":"-.-","ml":"2.5","mw":"-.-","location":"EDREMIT KORFEZI (EGE DENIZI)"},{"date":"2020.10.25","time":"02:25:03","latitude":"39.6897","longitude":"28.9205","depth":"7.1","md":"-.-","ml":"1.8","mw":"-.-","location":"KINIK-BUYUKORHAN (BURSA)"},{"date":"2020.10.25","time":"02:13:11","latitude":"35.8882","longitude":"28.2837","depth":"8.3","md":"-.-","ml":"2.2","mw":"-.-","location":"AKDENIZ"},{"date":"2020.10.25","time":"00:49:36","latitude":"40.4580","longitude":"29.1407","depth":"13.3","md":"-.-","ml":"1.5","mw":"-.-","location":"GEMLIK (BURSA)"},{"date":"2020.10.25","time":"00:49:00","latitude":"36.7450","longitude":"27.9472","depth":"7.0","md":"-.-","ml":"1.7","mw":"-.-","location":"GOKOVA KORFEZI (AKDENIZ)"},{"date":"2020.10.24","time":"22:39:17","latitude":"37.3023","longitude":"31.2032","depth":"117.1","md":"-.-","ml":"2.5","mw":"-.-","location":"CALTEPE-MANAVGAT (ANTALYA)"},{"date":"2020.10.24","time":"21:45:10","latitude":"38.3992","longitude":"30.6132","depth":"5.4","md":"-.-","ml":"1.6","mw":"-.-","location":"BADEMLI-SUHUT (AFYONKARAHISAR)"},{"date":"2020.10.24","time":"21:07:45","latitude":"36.9703","longitude":"27.5007","depth":"2.9","md":"-.-","ml":"1.6","mw":"-.-","location":"GOKOVA KORFEZI (AKDENIZ)"},{"date":"2020.10.24","time":"20:54:37","latitude":"38.4073","longitude":"39.2608","depth":"3.9","md":"-.-","ml":"2.0","mw":"-.-","location":"SOGUKPINAR-SIVRICE (ELAZIG)"},{"date":"2020.10.24","time":"20:41:05","latitude":"38.9852","longitude":"27.1143","depth":"8.3","md":"-.-","ml":"2.0","mw":"-.-","location":"BOZYERLER-BERGAMA (IZMIR)"},{"date":"2020.10.24","time":"19:30:37","latitude":"39.2033","longitude":"28.9257","depth":"11.5","md":"-.-","ml":"1.5","mw":"-.-","location":"HAMZABEY-SIMAV (KUTAHYA)"},{"date":"2020.10.24","time":"19:05:12","latitude":"41.2492","longitude":"31.6155","depth":"5.0","md":"-.-","ml":"1.6","mw":"-.-","location":"YAZICILAR-EREGLI (ZONGULDAK)"},{"date":"2020.10.24","time":"19:04:49","latitude":"36.1133","longitude":"31.9772","depth":"83.9","md":"-.-","ml":"2.0","mw":"-.-","location":"ANTALYA KORFEZI (AKDENIZ)"},{"date":"2020.10.24","time":"18:02:15","latitude":"37.3250","longitude":"33.5725","depth":"12.0","md":"-.-","ml":"1.8","mw":"-.-","location":"DOKUZYOL-AYRANCI (KARAMAN)"},{"date":"2020.10.24","time":"17:50:57","latitude":"37.1207","longitude":"37.3252","depth":"0.0","md":"-.-","ml":"1.8","mw":"-.-","location":"SAMMEZREASI-SEHITKAMIL (GAZIANTEP)"},{"date":"2020.10.24","time":"17:04:30","latitude":"39.5195","longitude":"28.8568","depth":"1.8","md":"-.-","ml":"1.9","mw":"-.-","location":"SARISIPAHILER-DURSUNBEY (BALIKESIR)"},{"date":"2020.10.24","time":"15:33:03","latitude":"37.5215","longitude":"32.0407","depth":"5.6","md":"-.-","ml":"2.7","mw":"-.-","location":"KETENLI-SEYDISEHIR (KONYA)"},{"date":"2020.10.24","time":"13:09:30","latitude":"37.9813","longitude":"27.6060","depth":"6.8","md":"-.-","ml":"2.2","mw":"-.-","location":"HABIBLER-GERMENCIK (AYDIN)"},{"date":"2020.10.24","time":"12:35:34","latitude":"40.2685","longitude":"35.2370","depth":"5.6","md":"-.-","ml":"2.1","mw":"-.-","location":"ORTAKOY (CORUM)"},{"date":"2020.10.24","time":"12:12:18","latitude":"36.9185","longitude":"27.7268","depth":"8.0","md":"-.-","ml":"2.4","mw":"-.-","location":"GOKOVA KORFEZI (AKDENIZ)"},{"date":"2020.10.24","time":"10:23:12","latitude":"37.1378","longitude":"28.1668","depth":"11.6","md":"-.-","ml":"1.4","mw":"-.-","location":"MEKE-(MUGLA)"},{"date":"2020.10.24","time":"08:52:46","latitude":"37.7733","longitude":"29.5802","depth":"16.7","md":"-.-","ml":"1.6","mw":"-.-","location":"CUMALI-BOZKURT (DENIZLI)"},{"date":"2020.10.24","time":"08:03:41","latitude":"39.5430","longitude":"28.8605","depth":"5.5","md":"-.-","ml":"2.0","mw":"-.-","location":"SARISIPAHILER-DURSUNBEY (BALIKESIR)"},{"date":"2020.10.24","time":"07:48:26","latitude":"39.5610","longitude":"28.8675","depth":"5.0","md":"-.-","ml":"3.2","mw":"3.0","location":"DEREKOY-DURSUNBEY (BALIKESIR)"},{"date":"2020.10.24","time":"07:45:35","latitude":"38.3017","longitude":"27.2568","depth":"5.4","md":"-.-","ml":"1.7","mw":"-.-","location":"BELENBASI-BUCA (IZMIR)"},{"date":"2020.10.24","time":"07:44:48","latitude":"38.2832","longitude":"27.2232","depth":"5.4","md":"-.-","ml":"1.9","mw":"-.-","location":"YESILKOY-TORBALI (IZMIR)"},{"date":"2020.10.24","time":"07:36:51","latitude":"39.5667","longitude":"28.8282","depth":"5.4","md":"-.-","ml":"2.1","mw":"-.-","location":"AYVACIK-DURSUNBEY (BALIKESIR)"},{"date":"2020.10.24","time":"07:01:05","latitude":"37.5713","longitude":"26.7373","depth":"17.8","md":"-.-","ml":"1.6","mw":"-.-","location":"EGE DENIZI"},{"date":"2020.10.24","time":"06:49:40","latitude":"39.2013","longitude":"28.9118","depth":"5.1","md":"-.-","ml":"2.1","mw":"-.-","location":"ORENLI-SIMAV (KUTAHYA)"},{"date":"2020.10.24","time":"06:12:42","latitude":"37.0292","longitude":"27.9037","depth":"13.6","md":"-.-","ml":"1.5","mw":"-.-","location":"TURKEVLERI-MILAS (MUGLA)"},{"date":"2020.10.24","time":"06:04:24","latitude":"40.2033","longitude":"24.6222","depth":"11.7","md":"-.-","ml":"2.5","mw":"-.-","location":"EGE DENIZI"},{"date":"2020.10.24","time":"05:12:32","latitude":"38.9537","longitude":"27.9267","depth":"5.4","md":"-.-","ml":"1.9","mw":"-.-","location":"CAMONU-AKHISAR (MANISA)"},{"date":"2020.10.24","time":"05:06:44","latitude":"35.6435","longitude":"26.2655","depth":"7.9","md":"-.-","ml":"3.7","mw":"3.8","location":"AKDENIZ"},{"date":"2020.10.24","time":"03:09:53","latitude":"39.2040","longitude":"28.9078","depth":"5.4","md":"-.-","ml":"1.9","mw":"-.-","location":"ORENLI-SIMAV (KUTAHYA)"},{"date":"2020.10.24","time":"00:15:41","latitude":"35.6327","longitude":"26.2878","depth":"10.1","md":"-.-","ml":"1.9","mw":"-.-","location":"AKDENIZ"},{"date":"2020.10.23","time":"22:15:11","latitude":"40.3542","longitude":"27.0767","depth":"10.6","md":"-.-","ml":"1.2","mw":"-.-","location":"OTLUKDERE-BIGA (CANAKKALE)"},{"date":"2020.10.23","time":"20:27:01","latitude":"38.6280","longitude":"26.7262","depth":"12.6","md":"-.-","ml":"1.4","mw":"-.-","location":"FOCA (IZMIR)"},{"date":"2020.10.23","time":"19:39:36","latitude":"36.1412","longitude":"27.7687","depth":"2.1","md":"-.-","ml":"2.8","mw":"-.-","location":"RODOS ADASI (AKDENIZ)"},{"date":"2020.10.23","time":"17:15:04","latitude":"36.6358","longitude":"27.1790","depth":"5.2","md":"-.-","ml":"2.1","mw":"-.-","location":"ONIKI ADALAR (AKDENIZ)"},{"date":"2020.10.23","time":"16:49:52","latitude":"40.0085","longitude":"24.4623","depth":"3.5","md":"-.-","ml":"2.3","mw":"-.-","location":"YUNANISTAN"},{"date":"2020.10.23","time":"16:34:55","latitude":"41.0753","longitude":"29.2025","depth":"0.0","md":"-.-","ml":"0.9","mw":"-.-","location":"POLONEZ-BEYKOZ (ISTANBUL)"},{"date":"2020.10.23","time":"16:21:47","latitude":"36.1067","longitude":"27.7952","depth":"5.0","md":"-.-","ml":"2.7","mw":"-.-","location":"RODOS ADASI (AKDENIZ)"},{"date":"2020.10.23","time":"16:02:36","latitude":"37.2375","longitude":"27.9605","depth":"0.0","md":"-.-","ml":"1.5","mw":"-.-","location":"CAMLICA-YATAGAN (MUGLA)"},{"date":"2020.10.23","time":"15:20:48","latitude":"36.0527","longitude":"31.2267","depth":"7.1","md":"-.-","ml":"2.4","mw":"-.-","location":"AKDENIZ"},{"date":"2020.10.23","time":"15:08:41","latitude":"38.9278","longitude":"27.5245","depth":"5.1","md":"-.-","ml":"0.9","mw":"-.-","location":"SABANCILAR-AKHISAR (MANISA)"},{"date":"2020.10.23","time":"15:02:12","latitude":"38.4460","longitude":"39.2975","depth":"4.6","md":"-.-","ml":"3.2","mw":"3.3","location":"SIVRICE (ELAZIG)"},{"date":"2020.10.23","time":"13:53:23","latitude":"35.8033","longitude":"32.1935","depth":"30.9","md":"-.-","ml":"2.3","mw":"-.-","location":"AKDENIZ"},{"date":"2020.10.23","time":"13:40:52","latitude":"38.4502","longitude":"39.2202","depth":"5.3","md":"-.-","ml":"1.9","mw":"-.-","location":"ALINCIK-SIVRICE (ELAZIG)"},{"date":"2020.10.23","time":"13:36:48","latitude":"38.4403","longitude":"39.2705","depth":"3.7","md":"-.-","ml":"3.5","mw":"-.-","location":"DUZBAHCE-SIVRICE (ELAZIG)"},{"date":"2020.10.23","time":"12:37:49","latitude":"39.3773","longitude":"40.6765","depth":"5.9","md":"-.-","ml":"2.5","mw":"-.-","location":"DINARBEY-YEDISU (BINGOL)"},{"date":"2020.10.23","time":"12:33:52","latitude":"40.6038","longitude":"26.6493","depth":"11.3","md":"-.-","ml":"1.0","mw":"-.-","location":"SAROS KORFEZI (EGE DENIZI)"},{"date":"2020.10.23","time":"12:14:19","latitude":"39.4733","longitude":"38.6150","depth":"9.0","md":"-.-","ml":"1.7","mw":"-.-","location":"CALTI-ILIC (ERZINCAN)"},{"date":"2020.10.23","time":"12:07:52","latitude":"40.4192","longitude":"29.2713","depth":"0.0","md":"-.-","ml":"1.3","mw":"-.-","location":"GEMIC-ORHANGAZI (BURSA)"},{"date":"2020.10.23","time":"12:07:17","latitude":"37.2822","longitude":"37.3645","depth":"6.2","md":"-.-","ml":"1.5","mw":"-.-","location":"TEKIRSIN-SEHITKAMIL (GAZIANTEP)"},{"date":"2020.10.23","time":"10:51:32","latitude":"39.7758","longitude":"25.6922","depth":"15.5","md":"-.-","ml":"1.8","mw":"-.-","location":"EGE DENIZI"},{"date":"2020.10.23","time":"10:04:52","latitude":"38.7682","longitude":"25.6012","depth":"7.0","md":"-.-","ml":"1.7","mw":"-.-","location":"EGE DENIZI"},{"date":"2020.10.23","time":"09:53:48","latitude":"39.5685","longitude":"26.0438","depth":"7.0","md":"-.-","ml":"2.5","mw":"-.-","location":"GULPINAR-AYVACIK (CANAKKALE)"},{"date":"2020.10.23","time":"09:30:36","latitude":"37.2607","longitude":"35.9405","depth":"15.2","md":"-.-","ml":"1.9","mw":"-.-","location":"TOZLU-KADIRLI (OSMANIYE)"},{"date":"2020.10.23","time":"09:21:34","latitude":"38.7670","longitude":"26.4623","depth":"5.2","md":"-.-","ml":"1.8","mw":"-.-","location":"EGE DENIZI"},{"date":"2020.10.23","time":"08:26:20","latitude":"38.3530","longitude":"39.2630","depth":"7.2","md":"-.-","ml":"1.9","mw":"-.-","location":"YUKARICANAKCI-SIVRICE (ELAZIG)"},{"date":"2020.10.23","time":"08:12:34","latitude":"39.1672","longitude":"28.2408","depth":"15.5","md":"-.-","ml":"2.4","mw":"-.-","location":"BAYRAKLI-SINDIRGI (BALIKESIR)"},{"date":"2020.10.23","time":"07:52:46","latitude":"37.9795","longitude":"27.6935","depth":"7.9","md":"-.-","ml":"1.6","mw":"-.-","location":"ISAFAKILAR-INCIRLIOVA (AYDIN)"},{"date":"2020.10.23","time":"05:56:00","latitude":"40.3605","longitude":"27.0627","depth":"6.2","md":"-.-","ml":"1.2","mw":"-.-","location":"AYITDERE-BIGA (CANAKKALE)"},{"date":"2020.10.23","time":"05:32:22","latitude":"40.8253","longitude":"33.6745","depth":"5.4","md":"-.-","ml":"2.0","mw":"-.-","location":"ILISILIK-ILGAZ (CANKIRI)"},{"date":"2020.10.23","time":"05:16:08","latitude":"38.1205","longitude":"44.5312","depth":"13.9","md":"-.-","ml":"2.1","mw":"-.-","location":"TURKIYE-IRAN SINIR BOLGESI"},{"date":"2020.10.23","time":"05:15:43","latitude":"35.7983","longitude":"28.2302","depth":"2.7","md":"-.-","ml":"1.3","mw":"-.-","location":"AKDENIZ"},{"date":"2020.10.23","time":"05:07:06","latitude":"39.3227","longitude":"33.1280","depth":"11.6","md":"-.-","ml":"1.1","mw":"-.-","location":"SOFULAR-BALA (ANKARA)"},{"date":"2020.10.23","time":"04:56:28","latitude":"39.7618","longitude":"42.5675","depth":"5.0","md":"-.-","ml":"2.3","mw":"-.-","location":"PIRABAT-ELESKIRT (AGRI)"},{"date":"2020.10.23","time":"04:44:48","latitude":"38.4778","longitude":"39.3005","depth":"4.1","md":"-.-","ml":"2.7","mw":"-.-","location":"BEKCITEPE-SIVRICE (ELAZIG)"},{"date":"2020.10.23","time":"04:31:40","latitude":"35.9252","longitude":"28.1917","depth":"5.0","md":"-.-","ml":"1.6","mw":"-.-","location":"AKDENIZ"},{"date":"2020.10.23","time":"04:25:55","latitude":"38.4542","longitude":"39.2728","depth":"7.5","md":"-.-","ml":"1.6","mw":"-.-","location":"SIVRICE (ELAZIG)"},{"date":"2020.10.23","time":"04:16:16","latitude":"36.9423","longitude":"28.1570","depth":"7.7","md":"-.-","ml":"1.7","mw":"-.-","location":"KARACA-MARMARIS (MUGLA)"},{"date":"2020.10.23","time":"04:15:08","latitude":"38.4542","longitude":"39.2443","depth":"4.1","md":"-.-","ml":"3.1","mw":"3.2","location":"ALINCIK-SIVRICE (ELAZIG)"},{"date":"2020.10.23","time":"03:37:12","latitude":"37.9048","longitude":"44.1898","depth":"14.7","md":"-.-","ml":"1.6","mw":"-.-","location":"YUKARIDIKMEN-BASKALE (VAN)"},{"date":"2020.10.23","time":"03:33:22","latitude":"36.9515","longitude":"28.1652","depth":"10.2","md":"-.-","ml":"1.7","mw":"-.-","location":"KARACA-MARMARIS (MUGLA)"},{"date":"2020.10.23","time":"01:37:47","latitude":"38.7372","longitude":"38.9383","depth":"7.4","md":"-.-","ml":"1.7","mw":"-.-","location":"UCAGAC-(ELAZIG)"},{"date":"2020.10.22","time":"23:04:58","latitude":"38.1867","longitude":"38.6885","depth":"5.4","md":"-.-","ml":"2.2","mw":"-.-","location":"ALIHAN-PUTURGE (MALATYA)"},{"date":"2020.10.22","time":"22:59:52","latitude":"39.1705","longitude":"40.5317","depth":"5.0","md":"-.-","ml":"3.2","mw":"3.2","location":"KOZLU-ADAKLI (BINGOL)"},{"date":"2020.10.22","time":"21:59:57","latitude":"38.1398","longitude":"38.6972","depth":"4.5","md":"-.-","ml":"1.6","mw":"-.-","location":"YAZICA-PUTURGE (MALATYA)"},{"date":"2020.10.22","time":"20:11:23","latitude":"36.0410","longitude":"34.1828","depth":"11.9","md":"-.-","ml":"2.4","mw":"-.-","location":"KURTULUS ACIKLARI-MERSIN (AKDENIZ)"},{"date":"2020.10.22","time":"19:25:42","latitude":"41.1693","longitude":"34.2360","depth":"5.3","md":"-.-","ml":"2.2","mw":"-.-","location":"BAYAT-KARGI (CORUM)"},{"date":"2020.10.22","time":"18:58:49","latitude":"36.4637","longitude":"29.0992","depth":"12.3","md":"-.-","ml":"1.6","mw":"-.-","location":"UZUNYURT-FETHIYE (MUGLA)"},{"date":"2020.10.22","time":"18:29:07","latitude":"38.7925","longitude":"43.2747","depth":"19.1","md":"-.-","ml":"2.1","mw":"-.-","location":"YESILSU-(VAN)"},{"date":"2020.10.22","time":"18:22:28","latitude":"38.8408","longitude":"43.4075","depth":"2.7","md":"-.-","ml":"3.0","mw":"-.-","location":"KUMLUCA-(VAN)"},{"date":"2020.10.22","time":"17:47:34","latitude":"39.5748","longitude":"26.0340","depth":"9.5","md":"-.-","ml":"2.1","mw":"-.-","location":"GULPINAR ACIKLARI-CANAKKALE (EGE DENIZI)"},{"date":"2020.10.22","time":"17:47:10","latitude":"39.0072","longitude":"33.4107","depth":"2.8","md":"-.-","ml":"1.9","mw":"-.-","location":"BOZAN-KULU (KONYA)"},{"date":"2020.10.22","time":"17:42:15","latitude":"39.9897","longitude":"28.9230","depth":"5.3","md":"-.-","ml":"1.4","mw":"-.-","location":"AKCABUK-ORHANELI (BURSA)"},{"date":"2020.10.22","time":"17:16:42","latitude":"38.2688","longitude":"39.3605","depth":"5.0","md":"-.-","ml":"2.0","mw":"-.-","location":"ATALAR-CUNGUS (DIYARBAKIR)"},{"date":"2020.10.22","time":"17:10:19","latitude":"39.0650","longitude":"33.4358","depth":"5.2","md":"-.-","ml":"1.3","mw":"-.-","location":"HACIBEKTASLI-SEREFLIKOCHISAR (ANKARA)"},{"date":"2020.10.22","time":"17:02:54","latitude":"41.2032","longitude":"28.7215","depth":"0.0","md":"-.-","ml":"1.0","mw":"-.-","location":"ARNAVUTKOY (ISTANBUL)"},{"date":"2020.10.22","time":"15:42:11","latitude":"36.9382","longitude":"27.7977","depth":"5.4","md":"-.-","ml":"1.6","mw":"-.-","location":"GOKOVA KORFEZI (AKDENIZ)"},{"date":"2020.10.22","time":"15:14:35","latitude":"38.4598","longitude":"25.4365","depth":"8.1","md":"-.-","ml":"3.7","mw":"3.7","location":"EGE DENIZI"},{"date":"2020.10.22","time":"14:43:29","latitude":"38.7557","longitude":"27.0645","depth":"14.5","md":"-.-","ml":"1.5","mw":"-.-","location":"CITAK-ALIAGA (IZMIR)"},{"date":"2020.10.22","time":"14:25:40","latitude":"38.7092","longitude":"38.0625","depth":"3.2","md":"-.-","ml":"2.7","mw":"-.-","location":"YESILPINAR-HEKIMHAN (MALATYA)"},{"date":"2020.10.22","time":"13:46:32","latitude":"36.1590","longitude":"33.5515","depth":"0.0","md":"-.-","ml":"1.2","mw":"-.-","location":"BUYUKECELI-GULNAR (MERSIN)"},{"date":"2020.10.22","time":"13:34:16","latitude":"36.1417","longitude":"33.5625","depth":"0.0","md":"-.-","ml":"1.2","mw":"-.-","location":"BUYUKECELI-GULNAR (MERSIN)"},{"date":"2020.10.22","time":"13:20:59","latitude":"37.9433","longitude":"44.3695","depth":"14.2","md":"-.-","ml":"2.8","mw":"-.-","location":"TURKIYE-IRAN SINIR BOLGESI"},{"date":"2020.10.22","time":"13:18:51","latitude":"38.3575","longitude":"34.2678","depth":"6.6","md":"-.-","ml":"1.7","mw":"-.-","location":"DEMIRCI-GULAGAC (AKSARAY)"},{"date":"2020.10.22","time":"12:53:44","latitude":"38.8527","longitude":"41.9370","depth":"12.4","md":"-.-","ml":"2.5","mw":"-.-","location":"KARAKALE-KORKUT (MUS)"},{"date":"2020.10.22","time":"12:40:07","latitude":"38.5060","longitude":"25.8675","depth":"2.8","md":"-.-","ml":"1.9","mw":"-.-","location":"SAKIZ ADASI (EGE DENIZI)"},{"date":"2020.10.22","time":"12:13:59","latitude":"39.5943","longitude":"29.3067","depth":"5.0","md":"-.-","ml":"1.3","mw":"-.-","location":"SAPCI-TAVSANLI (KUTAHYA)"},{"date":"2020.10.22","time":"12:01:54","latitude":"39.7242","longitude":"30.7257","depth":"0.0","md":"-.-","ml":"1.6","mw":"-.-","location":"YORUKKARACAOREN-ODUNPAZARI (ESKISEHIR)"},{"date":"2020.10.22","time":"11:49:12","latitude":"37.0930","longitude":"37.3202","depth":"0.0","md":"-.-","ml":"1.9","mw":"-.-","location":"YAMACTEPE-SAHINBEY (GAZIANTEP)"},{"date":"2020.10.22","time":"11:01:20","latitude":"39.6255","longitude":"25.9592","depth":"4.1","md":"-.-","ml":"1.2","mw":"-.-","location":"TAVAKLI ACIKLARI-CANAKKALE (EGE DENIZI)"},{"date":"2020.10.22","time":"10:46:06","latitude":"37.8137","longitude":"37.7937","depth":"16.5","md":"-.-","ml":"1.5","mw":"-.-","location":"AKCABEL-GOLBASI (ADIYAMAN)"},{"date":"2020.10.22","time":"10:11:24","latitude":"37.8593","longitude":"37.6935","depth":"9.6","md":"-.-","ml":"1.7","mw":"-.-","location":"AKTOPRAK-GOLBASI (ADIYAMAN)"},{"date":"2020.10.22","time":"10:02:15","latitude":"38.8795","longitude":"42.8375","depth":"5.4","md":"-.-","ml":"2.9","mw":"-.-","location":"YILDIZKOY-ADILCEVAZ (BITLIS)"},{"date":"2020.10.22","time":"10:00:01","latitude":"39.5550","longitude":"26.0582","depth":"15.4","md":"-.-","ml":"1.3","mw":"-.-","location":"GULPINAR-AYVACIK (CANAKKALE)"},{"date":"2020.10.22","time":"09:54:14","latitude":"37.2375","longitude":"28.3132","depth":"5.0","md":"-.-","ml":"2.7","mw":"-.-","location":"AKCAOVA-(MUGLA)"},{"date":"2020.10.22","time":"09:16:27","latitude":"38.9153","longitude":"27.1437","depth":"7.5","md":"-.-","ml":"1.6","mw":"-.-","location":"YUKSEKKOY-ALIAGA (IZMIR)"},{"date":"2020.10.22","time":"06:20:24","latitude":"35.5217","longitude":"32.4123","depth":"19.5","md":"-.-","ml":"3.0","mw":"-.-","location":"AKDENIZ"},{"date":"2020.10.22","time":"05:32:45","latitude":"39.4033","longitude":"34.8362","depth":"5.0","md":"-.-","ml":"1.8","mw":"-.-","location":"KUZAYCA-SEFAATLI (YOZGAT)"},{"date":"2020.10.22","time":"04:14:49","latitude":"39.7860","longitude":"42.6087","depth":"7.4","md":"-.-","ml":"1.7","mw":"-.-","location":"GUNEYKAYA-ELESKIRT (AGRI)"},{"date":"2020.10.22","time":"04:03:25","latitude":"38.9308","longitude":"26.9723","depth":"4.2","md":"-.-","ml":"2.2","mw":"-.-","location":"CANDARLI-DIKILI (IZMIR)"},{"date":"2020.10.22","time":"03:49:49","latitude":"40.7218","longitude":"27.4745","depth":"15.3","md":"-.-","ml":"1.7","mw":"-.-","location":"GUZELKOY ACIKLARI-TEKIRDAG (MARMARA DENIZI)"},{"date":"2020.10.22","time":"02:31:34","latitude":"37.7345","longitude":"43.9753","depth":"11.1","md":"-.-","ml":"2.0","mw":"-.-","location":"DEMIRTAS-(HAKKARI)"},{"date":"2020.10.21","time":"23:43:04","latitude":"36.3772","longitude":"34.3783","depth":"8.4","md":"-.-","ml":"1.8","mw":"-.-","location":"AKDENIZ"},{"date":"2020.10.21","time":"23:14:10","latitude":"37.0152","longitude":"30.6730","depth":"74.6","md":"-.-","ml":"3.2","mw":"3.2","location":"ODABASI-KEPEZ (ANTALYA)"},{"date":"2020.10.21","time":"23:00:50","latitude":"38.3760","longitude":"39.4907","depth":"3.1","md":"-.-","ml":"1.7","mw":"-.-","location":"EGRIKAVAK-MADEN (ELAZIG)"},{"date":"2020.10.21","time":"22:48:42","latitude":"40.7463","longitude":"25.2815","depth":"5.0","md":"-.-","ml":"2.4","mw":"-.-","location":"EGE DENIZI"},{"date":"2020.10.21","time":"22:45:58","latitude":"36.5190","longitude":"27.7168","depth":"8.4","md":"-.-","ml":"1.7","mw":"-.-","location":"AKDENIZ"},{"date":"2020.10.21","time":"22:12:04","latitude":"39.1252","longitude":"28.5998","depth":"13.7","md":"-.-","ml":"1.6","mw":"-.-","location":"MAHMUTLAR-DEMIRCI (MANISA)"},{"date":"2020.10.21","time":"21:32:24","latitude":"39.4557","longitude":"43.0747","depth":"5.4","md":"-.-","ml":"1.5","mw":"-.-","location":"KARADOGU-HAMUR (AGRI)"},{"date":"2020.10.21","time":"21:01:55","latitude":"40.7308","longitude":"25.2820","depth":"8.2","md":"-.-","ml":"2.6","mw":"-.-","location":"EGE DENIZI"},{"date":"2020.10.21","time":"20:53:54","latitude":"36.9202","longitude":"27.5102","depth":"8.5","md":"-.-","ml":"1.8","mw":"-.-","location":"GOKOVA KORFEZI (AKDENIZ)"},{"date":"2020.10.21","time":"17:32:43","latitude":"37.1968","longitude":"27.9288","depth":"8.5","md":"-.-","ml":"2.4","mw":"-.-","location":"KAYADERE-MILAS (MUGLA)"},{"date":"2020.10.21","time":"17:14:36","latitude":"37.9177","longitude":"29.2237","depth":"7.8","md":"-.-","ml":"1.6","mw":"-.-","location":"IRLIGANLI-(DENIZLI)"},{"date":"2020.10.21","time":"17:11:38","latitude":"36.9357","longitude":"27.5937","depth":"5.0","md":"-.-","ml":"2.0","mw":"-.-","location":"GOKOVA KORFEZI (AKDENIZ)"},{"date":"2020.10.21","time":"16:54:44","latitude":"38.4908","longitude":"30.7512","depth":"5.0","md":"-.-","ml":"1.3","mw":"-.-","location":"BOZAN-SUHUT (AFYONKARAHISAR)"},{"date":"2020.10.21","time":"16:19:20","latitude":"38.7482","longitude":"27.7328","depth":"14.1","md":"-.-","ml":"1.8","mw":"-.-","location":"LUTFIYE-SARUHANLI (MANISA)"},{"date":"2020.10.21","time":"16:12:43","latitude":"39.3922","longitude":"32.6992","depth":"4.7","md":"-.-","ml":"1.7","mw":"-.-","location":"CALIS-HAYMANA (ANKARA)"},{"date":"2020.10.21","time":"15:15:16","latitude":"37.0250","longitude":"29.3368","depth":"3.2","md":"-.-","ml":"1.4","mw":"-.-","location":"BICAKCI-CAMELI (DENIZLI)"},{"date":"2020.10.21","time":"15:13:47","latitude":"39.1643","longitude":"28.5035","depth":"8.1","md":"-.-","ml":"1.4","mw":"-.-","location":"BULAK-SINDIRGI (BALIKESIR)"},{"date":"2020.10.21","time":"15:04:41","latitude":"40.0873","longitude":"24.4773","depth":"9.8","md":"-.-","ml":"2.7","mw":"-.-","location":"YUNANISTAN"},{"date":"2020.10.21","time":"13:28:48","latitude":"38.1962","longitude":"38.7207","depth":"19.3","md":"-.-","ml":"1.5","mw":"-.-","location":"ALIHAN-PUTURGE (MALATYA)"},{"date":"2020.10.21","time":"13:17:55","latitude":"38.1812","longitude":"38.7195","depth":"15.7","md":"-.-","ml":"1.2","mw":"-.-","location":"KORME-PUTURGE (MALATYA)"},{"date":"2020.10.21","time":"13:00:10","latitude":"39.5483","longitude":"26.0893","depth":"4.6","md":"-.-","ml":"1.8","mw":"-.-","location":"GULPINAR-AYVACIK (CANAKKALE)"},{"date":"2020.10.21","time":"12:52:03","latitude":"36.6430","longitude":"28.2992","depth":"60.6","md":"-.-","ml":"2.8","mw":"-.-","location":"AKDENIZ"},{"date":"2020.10.21","time":"12:00:10","latitude":"37.2420","longitude":"28.2442","depth":"0.0","md":"-.-","ml":"1.3","mw":"-.-","location":"SALIHPASALAR-(MUGLA)"},{"date":"2020.10.21","time":"11:51:27","latitude":"37.2268","longitude":"28.2317","depth":"0.0","md":"-.-","ml":"1.6","mw":"-.-","location":"KAFACA-(MUGLA)"},{"date":"2020.10.21","time":"11:49:34","latitude":"36.2782","longitude":"33.6862","depth":"0.0","md":"-.-","ml":"1.4","mw":"-.-","location":"ISIKLI-SILIFKE (MERSIN)"},{"date":"2020.10.21","time":"11:31:27","latitude":"38.8077","longitude":"43.1133","depth":"5.0","md":"-.-","ml":"3.5","mw":"3.7","location":"KAVUSTUK-ADILCEVAZ (BITLIS)"},{"date":"2020.10.21","time":"11:26:25","latitude":"39.4605","longitude":"40.6038","depth":"70.9","md":"-.-","ml":"1.8","mw":"-.-","location":"KARACA-CAT (ERZURUM)"},{"date":"2020.10.21","time":"11:03:48","latitude":"39.3740","longitude":"28.4372","depth":"12.2","md":"-.-","ml":"1.9","mw":"-.-","location":"OKCULARYERI-BIGADIC (BALIKESIR)"},{"date":"2020.10.21","time":"11:03:14","latitude":"41.5262","longitude":"44.2437","depth":"38.7","md":"-.-","ml":"2.9","mw":"2.7","location":"GURCISTAN"},{"date":"2020.10.21","time":"09:48:43","latitude":"34.1862","longitude":"25.3110","depth":"12.2","md":"-.-","ml":"4.0","mw":"3.9","location":"GIRIT ADASI ACIKLARI (AKDENIZ)"},{"date":"2020.10.21","time":"08:54:38","latitude":"36.8392","longitude":"27.6618","depth":"21.8","md":"-.-","ml":"1.0","mw":"-.-","location":"GOKOVA KORFEZI (AKDENIZ)"},{"date":"2020.10.21","time":"07:52:39","latitude":"35.4483","longitude":"27.4960","depth":"5.0","md":"-.-","ml":"2.0","mw":"-.-","location":"AKDENIZ"},{"date":"2020.10.21","time":"07:43:29","latitude":"38.4678","longitude":"39.1967","depth":"5.5","md":"-.-","ml":"2.0","mw":"-.-","location":"DEDEYOLU-SIVRICE (ELAZIG)"},{"date":"2020.10.21","time":"07:26:32","latitude":"34.2797","longitude":"25.3450","depth":"12.7","md":"-.-","ml":"3.2","mw":"-.-","location":"GIRIT ADASI ACIKLARI (AKDENIZ)"},{"date":"2020.10.21","time":"07:10:49","latitude":"36.9377","longitude":"29.2305","depth":"1.2","md":"-.-","ml":"1.8","mw":"-.-","location":"ELMALI-CAMELI (DENIZLI)"},{"date":"2020.10.21","time":"07:03:03","latitude":"34.7752","longitude":"23.2722","depth":"85.9","md":"-.-","ml":"3.2","mw":"-.-","location":"GIRIT ADASI (AKDENIZ)"},{"date":"2020.10.21","time":"06:56:53","latitude":"40.6362","longitude":"28.9390","depth":"12.4","md":"-.-","ml":"1.4","mw":"-.-","location":"ESENKOY-CINARCIK (YALOVA)"},{"date":"2020.10.21","time":"06:55:19","latitude":"40.5828","longitude":"28.9882","depth":"5.9","md":"-.-","ml":"1.8","mw":"-.-","location":"ESENKOY-CINARCIK (YALOVA)"},{"date":"2020.10.21","time":"06:48:48","latitude":"36.4725","longitude":"28.7132","depth":"7.7","md":"-.-","ml":"1.6","mw":"-.-","location":"AKDENIZ"},{"date":"2020.10.21","time":"06:40:58","latitude":"35.8603","longitude":"28.1463","depth":"5.0","md":"-.-","ml":"1.6","mw":"-.-","location":"AKDENIZ"},{"date":"2020.10.21","time":"06:30:07","latitude":"35.8555","longitude":"28.1432","depth":"7.6","md":"-.-","ml":"1.9","mw":"-.-","location":"AKDENIZ"},{"date":"2020.10.21","time":"06:27:26","latitude":"40.6228","longitude":"28.9332","depth":"13.5","md":"-.-","ml":"1.7","mw":"-.-","location":"ESENKOY-CINARCIK (YALOVA)"},{"date":"2020.10.21","time":"06:04:50","latitude":"34.4195","longitude":"25.2720","depth":"83.0","md":"-.-","ml":"3.7","mw":"-.-","location":"GIRIT ADASI ACIKLARI (AKDENIZ)"},{"date":"2020.10.21","time":"05:55:25","latitude":"40.6063","longitude":"28.9812","depth":"6.3","md":"-.-","ml":"1.9","mw":"-.-","location":"ESENKOY-CINARCIK (YALOVA)"},{"date":"2020.10.21","time":"05:45:33","latitude":"36.4220","longitude":"27.2668","depth":"5.5","md":"-.-","ml":"1.8","mw":"-.-","location":"KOS ADASI (AKDENIZ)"},{"date":"2020.10.21","time":"05:05:52","latitude":"39.8123","longitude":"41.5998","depth":"5.5","md":"-.-","ml":"2.2","mw":"-.-","location":"YUKARIHANBEYI-TEKMAN (ERZURUM)"},{"date":"2020.10.21","time":"02:29:40","latitude":"37.7857","longitude":"27.2863","depth":"5.9","md":"-.-","ml":"2.1","mw":"-.-","location":"SOGUCAK-KUSADASI (AYDIN)"},{"date":"2020.10.21","time":"02:22:37","latitude":"35.1613","longitude":"29.1572","depth":"21.5","md":"-.-","ml":"1.7","mw":"-.-","location":"AKDENIZ"},{"date":"2020.10.21","time":"02:22:06","latitude":"38.7388","longitude":"26.8853","depth":"4.8","md":"-.-","ml":"1.3","mw":"-.-","location":"CAKMAKLI-ALIAGA (IZMIR)"},{"date":"2020.10.21","time":"02:07:13","latitude":"37.2322","longitude":"36.0382","depth":"13.4","md":"-.-","ml":"1.8","mw":"-.-","location":"TATARLI-KADIRLI (OSMANIYE)"},{"date":"2020.10.21","time":"01:26:24","latitude":"40.8015","longitude":"27.4903","depth":"14.2","md":"-.-","ml":"2.4","mw":"-.-","location":"YENIKOY ACIKLARI-TEKIRDAG (MARMARA DENIZI)"},{"date":"2020.10.21","time":"01:00:36","latitude":"34.2177","longitude":"25.3620","depth":"19.3","md":"-.-","ml":"3.7","mw":"-.-","location":"GIRIT ADASI ACIKLARI (AKDENIZ)"},{"date":"2020.10.21","time":"00:25:00","latitude":"36.9538","longitude":"28.1197","depth":"6.3","md":"-.-","ml":"1.6","mw":"-.-","location":"GOKOVA KORFEZI (AKDENIZ)"},{"date":"2020.10.20","time":"23:52:53","latitude":"37.6988","longitude":"26.9468","depth":"10.4","md":"-.-","ml":"1.7","mw":"-.-","location":"SISAM ADASI (EGE DENIZI)"},{"date":"2020.10.20","time":"23:51:04","latitude":"39.0427","longitude":"29.7153","depth":"11.8","md":"-.-","ml":"1.6","mw":"-.-","location":"TOKUL-ASLANAPA (KUTAHYA)"},{"date":"2020.10.20","time":"23:17:03","latitude":"40.6162","longitude":"28.9773","depth":"7.2","md":"-.-","ml":"1.8","mw":"-.-","location":"ESENKOY-CINARCIK (YALOVA)"},{"date":"2020.10.20","time":"23:01:23","latitude":"36.4080","longitude":"27.1435","depth":"1.1","md":"-.-","ml":"2.0","mw":"-.-","location":"ONIKI ADALAR (AKDENIZ)"},{"date":"2020.10.20","time":"22:31:08","latitude":"36.9432","longitude":"28.1532","depth":"12.4","md":"-.-","ml":"1.7","mw":"-.-","location":"KARACA-MARMARIS (MUGLA)"},{"date":"2020.10.20","time":"22:26:05","latitude":"35.6925","longitude":"29.2470","depth":"19.0","md":"-.-","ml":"1.3","mw":"-.-","location":"AKDENIZ"},{"date":"2020.10.20","time":"20:24:29","latitude":"36.6735","longitude":"27.2100","depth":"5.3","md":"-.-","ml":"1.6","mw":"-.-","location":"ONIKI ADALAR (AKDENIZ)"},{"date":"2020.10.20","time":"20:08:42","latitude":"38.3610","longitude":"39.0672","depth":"4.8","md":"-.-","ml":"1.6","mw":"-.-","location":"CEVRIMTAS-SIVRICE (ELAZIG)"},{"date":"2020.10.20","time":"19:48:45","latitude":"39.4555","longitude":"33.0565","depth":"6.2","md":"-.-","ml":"1.5","mw":"-.-","location":"AFSAR-BALA (ANKARA)"},{"date":"2020.10.20","time":"16:33:35","latitude":"38.6508","longitude":"27.7557","depth":"5.4","md":"-.-","ml":"1.3","mw":"-.-","location":"HEYBELI-SARUHANLI (MANISA)"},{"date":"2020.10.20","time":"16:12:20","latitude":"37.7245","longitude":"32.5320","depth":"22.1","md":"-.-","ml":"1.4","mw":"-.-","location":"BAYAT-MERAM (KONYA)"},{"date":"2020.10.20","time":"16:06:02","latitude":"39.9017","longitude":"39.8955","depth":"18.9","md":"-.-","ml":"2.4","mw":"-.-","location":"ESMEPINAR-CAYIRLI (ERZINCAN)"},{"date":"2020.10.20","time":"15:22:06","latitude":"39.5997","longitude":"28.8888","depth":"8.9","md":"-.-","ml":"2.0","mw":"-.-","location":"TEZLIK-DURSUNBEY (BALIKESIR)"},{"date":"2020.10.20","time":"15:01:09","latitude":"39.4558","longitude":"28.0028","depth":"11.9","md":"-.-","ml":"2.0","mw":"-.-","location":"AKYAR-BIGADIC (BALIKESIR)"},{"date":"2020.10.20","time":"14:33:29","latitude":"37.0447","longitude":"27.3762","depth":"14.0","md":"-.-","ml":"1.6","mw":"-.-","location":"BITEZ-BODRUM (MUGLA)"},{"date":"2020.10.20","time":"14:28:59","latitude":"40.4425","longitude":"29.2055","depth":"0.0","md":"-.-","ml":"1.2","mw":"-.-","location":"CIHATLI-GEMLIK (BURSA)"},{"date":"2020.10.20","time":"14:14:22","latitude":"40.3085","longitude":"29.4095","depth":"5.0","md":"-.-","ml":"1.0","mw":"-.-","location":"BURCUN-YENISEHIR (BURSA)"},{"date":"2020.10.20","time":"13:42:30","latitude":"39.2283","longitude":"42.1150","depth":"7.9","md":"-.-","ml":"2.3","mw":"-.-","location":"KURGANLI-BULANIK (MUS)"},{"date":"2020.10.20","time":"13:15:41","latitude":"38.7427","longitude":"37.9907","depth":"5.0","md":"-.-","ml":"1.1","mw":"-.-","location":"IPEKYOLU-HEKIMHAN (MALATYA)"},{"date":"2020.10.20","time":"13:03:58","latitude":"38.0332","longitude":"33.2357","depth":"5.5","md":"-.-","ml":"1.6","mw":"-.-","location":"BUYUKBURNAK-KARATAY (KONYA)"},{"date":"2020.10.20","time":"12:59:34","latitude":"40.2223","longitude":"30.8290","depth":"9.4","md":"-.-","ml":"1.8","mw":"-.-","location":"AHMETBEYLER-GOYNUK (BOLU)"},{"date":"2020.10.20","time":"12:57:06","latitude":"40.2100","longitude":"30.8148","depth":"8.4","md":"-.-","ml":"1.9","mw":"-.-","location":"AHMETBEYLER-GOYNUK (BOLU)"},{"date":"2020.10.20","time":"12:35:53","latitude":"37.2540","longitude":"28.1910","depth":"0.0","md":"-.-","ml":"1.9","mw":"-.-","location":"PASAPINARI-(MUGLA)"},{"date":"2020.10.20","time":"11:50:52","latitude":"38.6282","longitude":"27.2795","depth":"8.1","md":"-.-","ml":"1.9","mw":"-.-","location":"AKGEDIK-(MANISA)"},{"date":"2020.10.20","time":"11:35:42","latitude":"38.4385","longitude":"26.9627","depth":"10.1","md":"-.-","ml":"1.3","mw":"-.-","location":"IZMIR KORFEZI (EGE DENIZI)"},{"date":"2020.10.20","time":"11:09:12","latitude":"38.4682","longitude":"39.2207","depth":"6.5","md":"-.-","ml":"3.0","mw":"2.8","location":"ALINCIK-SIVRICE (ELAZIG)"},{"date":"2020.10.20","time":"11:06:49","latitude":"35.2172","longitude":"33.7083","depth":"5.0","md":"-.-","ml":"2.1","mw":"-.-","location":"KIBRIS-TUZLA"},{"date":"2020.10.20","time":"10:43:42","latitude":"39.3145","longitude":"37.2148","depth":"11.5","md":"-.-","ml":"1.2","mw":"-.-","location":"DELIKTAS-KANGAL (SIVAS)"},{"date":"2020.10.20","time":"10:08:30","latitude":"38.4727","longitude":"39.3128","depth":"5.8","md":"-.-","ml":"2.3","mw":"-.-","location":"SIVRICE (ELAZIG)"},{"date":"2020.10.20","time":"09:45:09","latitude":"39.8842","longitude":"28.8288","depth":"0.0","md":"-.-","ml":"1.9","mw":"-.-","location":"YENIDANISMENT-ORHANELI (BURSA)"},{"date":"2020.10.20","time":"09:44:37","latitude":"39.9347","longitude":"41.7647","depth":"31.0","md":"-.-","ml":"2.2","mw":"-.-","location":"SUNAK-PASINLER (ERZURUM)"},{"date":"2020.10.20","time":"09:20:01","latitude":"36.1917","longitude":"28.9530","depth":"15.2","md":"-.-","ml":"1.8","mw":"-.-","location":"AKDENIZ"},{"date":"2020.10.20","time":"07:54:13","latitude":"38.9422","longitude":"43.2565","depth":"5.0","md":"-.-","ml":"1.3","mw":"-.-","location":"CELEBIBAGI-ERCIS (VAN)"},{"date":"2020.10.20","time":"07:15:47","latitude":"36.2123","longitude":"29.4127","depth":"3.7","md":"-.-","ml":"1.1","mw":"-.-","location":"KALKAN-KAS (ANTALYA)"},{"date":"2020.10.20","time":"07:05:10","latitude":"36.9737","longitude":"28.3072","depth":"9.4","md":"-.-","ml":"1.2","mw":"-.-","location":"CETIBELI-MARMARIS (MUGLA)"},{"date":"2020.10.20","time":"06:49:50","latitude":"38.1660","longitude":"38.7287","depth":"4.4","md":"-.-","ml":"1.9","mw":"-.-","location":"YAZICA-PUTURGE (MALATYA)"},{"date":"2020.10.20","time":"06:31:15","latitude":"40.6283","longitude":"29.0918","depth":"9.2","md":"-.-","ml":"1.2","mw":"-.-","location":"TESVIKIYE-CINARCIK (YALOVA)"},{"date":"2020.10.20","time":"06:13:24","latitude":"36.9522","longitude":"27.4883","depth":"18.4","md":"-.-","ml":"0.9","mw":"-.-","location":"GOKOVA KORFEZI (AKDENIZ)"},{"date":"2020.10.20","time":"06:08:06","latitude":"39.4370","longitude":"28.3945","depth":"4.9","md":"-.-","ml":"2.1","mw":"-.-","location":"KALAFAT-BIGADIC (BALIKESIR)"},{"date":"2020.10.20","time":"05:19:56","latitude":"36.9618","longitude":"35.9173","depth":"8.1","md":"-.-","ml":"1.3","mw":"-.-","location":"SAGIRLAR-CEYHAN (ADANA)"},{"date":"2020.10.20","time":"04:47:13","latitude":"38.4278","longitude":"39.2377","depth":"8.7","md":"-.-","ml":"1.5","mw":"-.-","location":"KURKKOY-SIVRICE (ELAZIG)"},{"date":"2020.10.20","time":"04:35:07","latitude":"38.3430","longitude":"39.3228","depth":"5.9","md":"-.-","ml":"1.6","mw":"-.-","location":"ALBAYRAK-CUNGUS (DIYARBAKIR)"},{"date":"2020.10.20","time":"04:15:41","latitude":"39.0343","longitude":"40.0103","depth":"6.6","md":"-.-","ml":"1.8","mw":"-.-","location":"YALINTAS-KARAKOCAN (ELAZIG)"},{"date":"2020.10.20","time":"03:38:42","latitude":"39.8303","longitude":"42.5283","depth":"11.2","md":"-.-","ml":"1.3","mw":"-.-","location":"CATALPINAR-ELESKIRT (AGRI)"},{"date":"2020.10.20","time":"03:20:34","latitude":"40.2258","longitude":"28.8788","depth":"19.5","md":"-.-","ml":"1.3","mw":"-.-","location":"YOLCATI-NILUFER (BURSA)"},{"date":"2020.10.20","time":"03:15:45","latitude":"41.3633","longitude":"39.9882","depth":"7.4","md":"-.-","ml":"2.0","mw":"-.-","location":"TRABZON ACIKLARI (KARADENIZ)"},{"date":"2020.10.20","time":"03:05:01","latitude":"40.2182","longitude":"29.0395","depth":"3.4","md":"-.-","ml":"1.4","mw":"-.-","location":"OSMANGAZI (BURSA)"},{"date":"2020.10.20","time":"02:42:15","latitude":"36.9770","longitude":"26.5948","depth":"7.0","md":"-.-","ml":"1.7","mw":"-.-","location":"ONIKI ADALAR (AKDENIZ)"},{"date":"2020.10.20","time":"02:34:59","latitude":"40.0700","longitude":"40.6355","depth":"9.0","md":"-.-","ml":"1.9","mw":"-.-","location":"CAVDARLI-AZIZIYE (ERZURUM)"},{"date":"2020.10.20","time":"02:14:08","latitude":"35.9820","longitude":"25.1908","depth":"72.1","md":"-.-","ml":"3.3","mw":"-.-","location":"GIRIT ADASI (AKDENIZ)"},{"date":"2020.10.20","time":"02:11:06","latitude":"35.8505","longitude":"25.2230","depth":"79.6","md":"-.-","ml":"2.9","mw":"-.-","location":"GIRIT ADASI (AKDENIZ)"},{"date":"2020.10.20","time":"02:02:24","latitude":"40.3133","longitude":"26.2193","depth":"18.4","md":"-.-","ml":"1.1","mw":"-.-","location":"SAROS KORFEZI (EGE DENIZI)"},{"date":"2020.10.20","time":"01:42:17","latitude":"36.8740","longitude":"27.6050","depth":"6.4","md":"-.-","ml":"1.5","mw":"-.-","location":"GOKOVA KORFEZI (AKDENIZ)"},{"date":"2020.10.20","time":"01:17:25","latitude":"38.1893","longitude":"38.6697","depth":"2.8","md":"-.-","ml":"2.4","mw":"-.-","location":"ARITOPRAK-PUTURGE (MALATYA)"},{"date":"2020.10.20","time":"01:12:47","latitude":"35.9355","longitude":"31.1157","depth":"9.0","md":"-.-","ml":"3.6","mw":"3.4","location":"AKDENIZ"},{"date":"2020.10.20","time":"01:05:31","latitude":"37.8913","longitude":"26.9388","depth":"2.6","md":"-.-","ml":"1.5","mw":"-.-","location":"KUSADASI KORFEZI (EGE DENIZI)"},{"date":"2020.10.20","time":"00:53:16","latitude":"37.3363","longitude":"26.4283","depth":"14.1","md":"-.-","ml":"2.1","mw":"-.-","location":"ONIKI ADALAR (AKDENIZ)"},{"date":"2020.10.20","time":"00:37:50","latitude":"39.6008","longitude":"26.0812","depth":"2.3","md":"-.-","ml":"1.6","mw":"-.-","location":"TUZLA-AYVACIK (CANAKKALE)"},{"date":"2020.10.20","time":"00:03:41","latitude":"40.7763","longitude":"31.7240","depth":"5.0","md":"-.-","ml":"2.7","mw":"-.-","location":"TATLAR-(BOLU)"},{"date":"2020.10.19","time":"22:08:30","latitude":"38.1587","longitude":"38.7605","depth":"7.5","md":"-.-","ml":"1.5","mw":"-.-","location":"YAZICA-PUTURGE (MALATYA)"},{"date":"2020.10.19","time":"22:06:29","latitude":"34.5140","longitude":"24.2537","depth":"23.6","md":"-.-","ml":"3.0","mw":"3.0","location":"GIRIT ADASI ACIKLARI (AKDENIZ)"},{"date":"2020.10.19","time":"21:46:27","latitude":"37.6607","longitude":"35.9807","depth":"1.6","md":"-.-","ml":"1.2","mw":"-.-","location":"CAMLARCA-KOZAN (ADANA)"},{"date":"2020.10.19","time":"20:58:14","latitude":"39.0973","longitude":"27.7985","depth":"3.6","md":"-.-","ml":"2.2","mw":"-.-","location":"ILYASLAR-KIRKAGAC (MANISA)"},{"date":"2020.10.19","time":"20:36:39","latitude":"37.9085","longitude":"27.5520","depth":"9.4","md":"-.-","ml":"1.8","mw":"-.-","location":"ABDURRAHMANLAR-GERMENCIK (AYDIN)"},{"date":"2020.10.19","time":"20:10:23","latitude":"38.2623","longitude":"38.7535","depth":"18.0","md":"-.-","ml":"1.3","mw":"-.-","location":"BALPINARI-PUTURGE (MALATYA)"},{"date":"2020.10.19","time":"20:05:43","latitude":"39.3400","longitude":"40.0937","depth":"5.0","md":"-.-","ml":"3.0","mw":"-.-","location":"ALTINHUSEYIN-PULUMUR (TUNCELI)"},{"date":"2020.10.19","time":"19:38:08","latitude":"37.8867","longitude":"37.4248","depth":"8.6","md":"-.-","ml":"1.7","mw":"-.-","location":"BICIN-NURHAK (KAHRAMANMARAS)"},{"date":"2020.10.19","time":"18:17:28","latitude":"38.9960","longitude":"32.8163","depth":"10.7","md":"-.-","ml":"1.5","mw":"-.-","location":"BULDUK-CIHANBEYLI (KONYA)"},{"date":"2020.10.19","time":"18:04:20","latitude":"37.9820","longitude":"34.0877","depth":"13.3","md":"-.-","ml":"1.6","mw":"-.-","location":"OBRUK-BOR (NIGDE)"},{"date":"2020.10.19","time":"17:16:28","latitude":"39.8927","longitude":"33.0642","depth":"0.0","md":"-.-","ml":"1.4","mw":"-.-","location":"MAMAK (ANKARA)"},{"date":"2020.10.19","time":"17:07:14","latitude":"37.7273","longitude":"29.1530","depth":"11.4","md":"-.-","ml":"1.8","mw":"-.-","location":"KARATAS-(DENIZLI)"},{"date":"2020.10.19","time":"16:22:29","latitude":"39.8540","longitude":"42.5738","depth":"1.6","md":"-.-","ml":"3.0","mw":"2.9","location":"KAYAYOLU-ELESKIRT (AGRI)"},{"date":"2020.10.19","time":"15:23:27","latitude":"40.6365","longitude":"29.1033","depth":"10.4","md":"-.-","ml":"1.9","mw":"-.-","location":"CINARCIK (YALOVA)"},{"date":"2020.10.19","time":"15:17:11","latitude":"40.0022","longitude":"35.1915","depth":"2.8","md":"-.-","ml":"1.6","mw":"-.-","location":"TULUM-SORGUN (YOZGAT)"},{"date":"2020.10.19","time":"15:06:16","latitude":"34.4433","longitude":"26.6013","depth":"8.7","md":"-.-","ml":"3.2","mw":"3.4","location":"GIRIT ADASI ACIKLARI (AKDENIZ)"},{"date":"2020.10.19","time":"15:01:50","latitude":"38.4652","longitude":"25.8188","depth":"15.1","md":"-.-","ml":"2.4","mw":"-.-","location":"SAKIZ ADASI (EGE DENIZI)"},{"date":"2020.10.19","time":"14:51:25","latitude":"39.0317","longitude":"42.5178","depth":"5.8","md":"-.-","ml":"1.8","mw":"-.-","location":"ODAKOY-MALAZGIRT (MUS)"},{"date":"2020.10.19","time":"14:10:24","latitude":"35.8577","longitude":"28.2737","depth":"4.1","md":"-.-","ml":"1.8","mw":"-.-","location":"AKDENIZ"},{"date":"2020.10.19","time":"12:51:00","latitude":"38.9865","longitude":"44.3155","depth":"20.0","md":"-.-","ml":"2.1","mw":"-.-","location":"BAYDOGAN-CALDIRAN (VAN)"},{"date":"2020.10.19","time":"12:43:41","latitude":"36.1353","longitude":"28.3582","depth":"62.6","md":"-.-","ml":"2.2","mw":"-.-","location":"AKDENIZ"},{"date":"2020.10.19","time":"12:07:46","latitude":"37.7613","longitude":"26.9468","depth":"18.8","md":"-.-","ml":"1.9","mw":"-.-","location":"SISAM ADASI (EGE DENIZI)"},{"date":"2020.10.19","time":"12:00:44","latitude":"40.6778","longitude":"27.3852","depth":"6.9","md":"-.-","ml":"2.2","mw":"-.-","location":"GUZELKOY ACIKLARI-TEKIRDAG (MARMARA DENIZI)"},{"date":"2020.10.19","time":"12:00:17","latitude":"40.7293","longitude":"27.4350","depth":"12.6","md":"-.-","ml":"2.4","mw":"-.-","location":"GUZELKOY ACIKLARI-TEKIRDAG (MARMARA DENIZI)"},{"date":"2020.10.19","time":"11:53:45","latitude":"40.6772","longitude":"27.4145","depth":"7.9","md":"-.-","ml":"1.8","mw":"-.-","location":"GUZELKOY ACIKLARI-TEKIRDAG (MARMARA DENIZI)"},{"date":"2020.10.19","time":"11:50:50","latitude":"37.1755","longitude":"37.1560","depth":"0.0","md":"-.-","ml":"1.1","mw":"-.-","location":"CERITYENIYAPAN-SEHITKAMIL (GAZIANTEP)"},{"date":"2020.10.19","time":"11:32:19","latitude":"38.1998","longitude":"38.8218","depth":"10.3","md":"-.-","ml":"1.5","mw":"-.-","location":"TASMIS-PUTURGE (MALATYA)"},{"date":"2020.10.19","time":"10:47:05","latitude":"37.9872","longitude":"34.0350","depth":"5.0","md":"-.-","ml":"2.0","mw":"-.-","location":"OBRUK-BOR (NIGDE)"},{"date":"2020.10.19","time":"10:31:06","latitude":"35.6932","longitude":"26.2770","depth":"18.7","md":"-.-","ml":"3.1","mw":"3.3","location":"AKDENIZ"},{"date":"2020.10.19","time":"09:51:26","latitude":"38.9373","longitude":"44.2732","depth":"5.0","md":"-.-","ml":"2.6","mw":"-.-","location":"ASAGIKOCKIRAN-OZALP (VAN)"},{"date":"2020.10.19","time":"08:53:31","latitude":"37.0318","longitude":"28.5428","depth":"24.4","md":"-.-","ml":"1.3","mw":"-.-","location":"KARABOGURTLEN-ULA (MUGLA)"},{"date":"2020.10.19","time":"08:52:06","latitude":"36.9680","longitude":"28.5178","depth":"4.7","md":"-.-","ml":"1.5","mw":"-.-","location":"CORUS-ULA (MUGLA)"},{"date":"2020.10.19","time":"08:46:13","latitude":"37.0872","longitude":"35.7833","depth":"22.5","md":"-.-","ml":"1.6","mw":"-.-","location":"MERCIMEK-CEYHAN (ADANA)"},{"date":"2020.10.19","time":"07:50:59","latitude":"40.7480","longitude":"32.8538","depth":"7.0","md":"-.-","ml":"1.8","mw":"-.-","location":"DAGCUKUROREN-CERKES (CANKIRI)"},{"date":"2020.10.19","time":"07:42:32","latitude":"38.2120","longitude":"38.8563","depth":"18.6","md":"-.-","ml":"2.0","mw":"-.-","location":"PUTURGE (MALATYA)"},{"date":"2020.10.19","time":"07:26:31","latitude":"36.6547","longitude":"26.4447","depth":"152.7","md":"-.-","ml":"2.3","mw":"-.-","location":"AKDENIZ"},{"date":"2020.10.19","time":"06:47:45","latitude":"36.8075","longitude":"29.2910","depth":"8.1","md":"-.-","ml":"1.2","mw":"-.-","location":"SOGUTLUDERE-FETHIYE (MUGLA)"},{"date":"2020.10.19","time":"05:04:23","latitude":"39.0498","longitude":"27.8038","depth":"5.0","md":"-.-","ml":"2.1","mw":"-.-","location":"TUTENLI-AKHISAR (MANISA)"},{"date":"2020.10.19","time":"05:03:01","latitude":"38.9903","longitude":"44.2983","depth":"9.1","md":"-.-","ml":"2.8","mw":"-.-","location":"BAYDOGAN-CALDIRAN (VAN)"},{"date":"2020.10.19","time":"04:51:18","latitude":"39.3203","longitude":"24.3948","depth":"10.9","md":"-.-","ml":"2.4","mw":"-.-","location":"EGE DENIZI"},{"date":"2020.10.19","time":"04:10:18","latitude":"36.9593","longitude":"28.1403","depth":"5.1","md":"-.-","ml":"0.9","mw":"-.-","location":"GOKOVA KORFEZI (AKDENIZ)"},{"date":"2020.10.19","time":"04:03:51","latitude":"35.9820","longitude":"28.7727","depth":"6.9","md":"-.-","ml":"1.7","mw":"-.-","location":"AKDENIZ"},{"date":"2020.10.19","time":"03:57:32","latitude":"37.8065","longitude":"29.4722","depth":"5.0","md":"-.-","ml":"2.4","mw":"-.-","location":"SAPACA-HONAZ (DENIZLI)"},{"date":"2020.10.19","time":"03:23:05","latitude":"39.3888","longitude":"40.4557","depth":"4.6","md":"-.-","ml":"1.9","mw":"-.-","location":"GUZGULU-YEDISU (BINGOL)"},{"date":"2020.10.19","time":"02:41:12","latitude":"36.6165","longitude":"31.7042","depth":"101.1","md":"-.-","ml":"2.1","mw":"-.-","location":"OKURCALAR-ALANYA (ANTALYA)"},{"date":"2020.10.19","time":"02:15:40","latitude":"38.6505","longitude":"42.0283","depth":"20.6","md":"-.-","ml":"1.6","mw":"-.-","location":"BUDAKLI-GUROYMAK (BITLIS)"},{"date":"2020.10.19","time":"02:02:52","latitude":"39.1683","longitude":"27.7922","depth":"10.2","md":"-.-","ml":"1.5","mw":"-.-","location":"GEBELER-KIRKAGAC (MANISA)"},{"date":"2020.10.19","time":"00:44:08","latitude":"39.8110","longitude":"24.1285","depth":"27.9","md":"-.-","ml":"3.3","mw":"3.3","location":"YUNANISTAN"},{"date":"2020.10.19","time":"00:25:10","latitude":"38.9630","longitude":"44.3333","depth":"8.6","md":"-.-","ml":"2.4","mw":"-.-","location":"ASAGIKOCKIRAN-OZALP (VAN)"},{"date":"2020.10.19","time":"00:23:36","latitude":"39.0058","longitude":"44.3808","depth":"20.3","md":"-.-","ml":"2.1","mw":"-.-","location":"BAYDOGAN-CALDIRAN (VAN)"},{"date":"2020.10.19","time":"00:17:00","latitude":"38.2018","longitude":"26.5653","depth":"7.8","md":"-.-","ml":"1.6","mw":"-.-","location":"ZEYTINELI-URLA (IZMIR)"},{"date":"2020.10.19","time":"00:11:14","latitude":"36.9062","longitude":"27.7207","depth":"8.1","md":"-.-","ml":"1.3","mw":"-.-","location":"GOKOVA KORFEZI (AKDENIZ)"},{"date":"2020.10.18","time":"21:59:27","latitude":"38.3142","longitude":"42.6757","depth":"7.9","md":"-.-","ml":"1.5","mw":"-.-","location":"KAGANLI-TATVAN (BITLIS)"},{"date":"2020.10.18","time":"21:58:55","latitude":"39.0383","longitude":"30.9252","depth":"9.5","md":"-.-","ml":"1.6","mw":"-.-","location":"CUKURKUYU-BAYAT (AFYONKARAHISAR)"},{"date":"2020.10.18","time":"20:47:45","latitude":"39.0437","longitude":"26.0067","depth":"3.0","md":"-.-","ml":"1.6","mw":"-.-","location":"EGE DENIZI"},{"date":"2020.10.18","time":"20:17:22","latitude":"37.0832","longitude":"27.6027","depth":"5.5","md":"-.-","ml":"1.5","mw":"-.-","location":"PINARLIBELEN-BODRUM (MUGLA)"},{"date":"2020.10.18","time":"18:40:15","latitude":"37.9515","longitude":"34.0840","depth":"5.2","md":"-.-","ml":"2.3","mw":"-.-","location":"OBRUK-BOR (NIGDE)"},{"date":"2020.10.18","time":"15:49:40","latitude":"37.0375","longitude":"27.9115","depth":"0.0","md":"-.-","ml":"1.7","mw":"-.-","location":"TURKEVLERI-MILAS (MUGLA)"},{"date":"2020.10.18","time":"15:35:08","latitude":"38.4502","longitude":"39.3342","depth":"3.7","md":"-.-","ml":"1.4","mw":"-.-","location":"SIVRICE (ELAZIG)"},{"date":"2020.10.18","time":"14:19:18","latitude":"36.9532","longitude":"27.3425","depth":"6.5","md":"-.-","ml":"3.7","mw":"3.7","location":"GOKOVA KORFEZI (AKDENIZ)"},{"date":"2020.10.18","time":"12:47:12","latitude":"38.4793","longitude":"39.2962","depth":"2.5","md":"-.-","ml":"2.6","mw":"-.-","location":"BEKCITEPE-SIVRICE (ELAZIG)"},{"date":"2020.10.18","time":"11:47:27","latitude":"39.6107","longitude":"24.3608","depth":"1.4","md":"-.-","ml":"2.3","mw":"-.-","location":"EGE DENIZI"},{"date":"2020.10.18","time":"11:39:50","latitude":"35.3555","longitude":"34.9688","depth":"26.0","md":"-.-","ml":"2.6","mw":"-.-","location":"AKDENIZ"},{"date":"2020.10.18","time":"11:07:14","latitude":"39.1520","longitude":"23.4402","depth":"5.5","md":"-.-","ml":"4.3","mw":"4.3","location":"YUNANISTAN"},{"date":"2020.10.18","time":"10:44:27","latitude":"38.5095","longitude":"25.8010","depth":"5.3","md":"-.-","ml":"2.7","mw":"-.-","location":"SAKIZ ADASI (EGE DENIZI)"},{"date":"2020.10.18","time":"09:27:04","latitude":"38.1055","longitude":"38.6547","depth":"4.8","md":"-.-","ml":"1.9","mw":"-.-","location":"CAMLIDERE-PUTURGE (MALATYA)"},{"date":"2020.10.18","time":"07:46:35","latitude":"37.9887","longitude":"34.0810","depth":"10.1","md":"-.-","ml":"2.2","mw":"-.-","location":"OBRUK-BOR (NIGDE)"},{"date":"2020.10.18","time":"07:30:46","latitude":"35.5880","longitude":"26.2582","depth":"4.4","md":"-.-","ml":"2.5","mw":"-.-","location":"AKDENIZ"},{"date":"2020.10.18","time":"07:10:23","latitude":"38.6587","longitude":"43.0703","depth":"4.3","md":"-.-","ml":"2.8","mw":"-.-","location":"VAN GOLU"},{"date":"2020.10.18","time":"07:04:46","latitude":"35.5735","longitude":"26.3203","depth":"6.5","md":"-.-","ml":"2.7","mw":"-.-","location":"AKDENIZ"},{"date":"2020.10.18","time":"06:56:20","latitude":"34.7457","longitude":"26.7503","depth":"10.8","md":"-.-","ml":"2.4","mw":"-.-","location":"GIRIT ADASI ACIKLARI (AKDENIZ)"},{"date":"2020.10.18","time":"05:16:08","latitude":"40.7805","longitude":"31.7178","depth":"15.1","md":"-.-","ml":"1.6","mw":"-.-","location":"TATLAR-(BOLU)"},{"date":"2020.10.18","time":"04:54:19","latitude":"38.2468","longitude":"38.7128","depth":"1.9","md":"-.-","ml":"1.9","mw":"-.-","location":"CAYKOY-PUTURGE (MALATYA)"},{"date":"2020.10.18","time":"04:41:53","latitude":"34.8330","longitude":"26.5413","depth":"22.6","md":"-.-","ml":"3.3","mw":"3.4","location":"GIRIT ADASI ACIKLARI (AKDENIZ)"},{"date":"2020.10.18","time":"04:40:57","latitude":"40.6323","longitude":"29.0720","depth":"5.4","md":"-.-","ml":"1.7","mw":"-.-","location":"TESVIKIYE-CINARCIK (YALOVA)"},{"date":"2020.10.18","time":"04:13:37","latitude":"38.4560","longitude":"25.8102","depth":"15.4","md":"-.-","ml":"1.8","mw":"-.-","location":"SAKIZ ADASI (EGE DENIZI)"},{"date":"2020.10.18","time":"03:28:22","latitude":"35.7938","longitude":"29.9292","depth":"5.0","md":"-.-","ml":"2.6","mw":"-.-","location":"AKDENIZ"},{"date":"2020.10.18","time":"03:10:57","latitude":"38.2637","longitude":"27.4675","depth":"23.7","md":"-.-","ml":"1.0","mw":"-.-","location":"ORMANKOY-TORBALI (IZMIR)"},{"date":"2020.10.18","time":"03:01:20","latitude":"39.1977","longitude":"40.1288","depth":"5.0","md":"-.-","ml":"1.7","mw":"-.-","location":"BATIAYAZ-YAYLADERE (BINGOL)"},{"date":"2020.10.18","time":"02:54:37","latitude":"37.8163","longitude":"29.0180","depth":"9.3","md":"-.-","ml":"1.2","mw":"-.-","location":"ALTINTEPE-SARAYKOY (DENIZLI)"},{"date":"2020.10.18","time":"01:27:58","latitude":"38.4703","longitude":"39.1540","depth":"23.2","md":"-.-","ml":"1.2","mw":"-.-","location":"KAVALLI-SIVRICE (ELAZIG)"},{"date":"2020.10.18","time":"01:21:34","latitude":"39.2878","longitude":"43.3237","depth":"4.5","md":"-.-","ml":"1.9","mw":"-.-","location":"GERGILI-ERCIS (VAN)"},{"date":"2020.10.18","time":"01:20:52","latitude":"39.3550","longitude":"40.6798","depth":"21.1","md":"-.-","ml":"1.8","mw":"-.-","location":"DINARBEY-YEDISU (BINGOL)"},{"date":"2020.10.18","time":"01:09:32","latitude":"37.8743","longitude":"29.9600","depth":"16.4","md":"-.-","ml":"1.3","mw":"-.-","location":"BASMAKCI (AFYONKARAHISAR)"},{"date":"2020.10.18","time":"00:56:06","latitude":"39.0753","longitude":"27.8503","depth":"4.7","md":"-.-","ml":"1.8","mw":"-.-","location":"SELCIKLI-AKHISAR (MANISA)"},{"date":"2020.10.18","time":"00:51:26","latitude":"39.0657","longitude":"27.8175","depth":"14.9","md":"-.-","ml":"2.0","mw":"-.-","location":"ILYASLAR-KIRKAGAC (MANISA)"},{"date":"2020.10.17","time":"23:31:57","latitude":"39.1437","longitude":"23.3087","depth":"12.7","md":"-.-","ml":"3.8","mw":"3.9","location":"YUNANISTAN"},{"date":"2020.10.17","time":"23:31:35","latitude":"38.6227","longitude":"38.0588","depth":"5.0","md":"-.-","ml":"2.1","mw":"-.-","location":"ALICAN-YAZIHAN (MALATYA)"},{"date":"2020.10.17","time":"23:09:21","latitude":"40.7367","longitude":"32.8062","depth":"6.1","md":"-.-","ml":"2.1","mw":"-.-","location":"AGACA-CERKES (CANKIRI)"},{"date":"2020.10.17","time":"22:20:47","latitude":"40.7390","longitude":"31.6877","depth":"7.4","md":"-.-","ml":"1.3","mw":"-.-","location":"VAKIFGECITVEREN-(BOLU)"},{"date":"2020.10.17","time":"22:16:13","latitude":"39.0562","longitude":"27.8570","depth":"11.5","md":"-.-","ml":"3.0","mw":"2.7","location":"MUSALAR-AKHISAR (MANISA)"},{"date":"2020.10.17","time":"22:04:24","latitude":"37.0328","longitude":"29.1063","depth":"4.6","md":"-.-","ml":"1.2","mw":"-.-","location":"AKPINAR-CAMELI (DENIZLI)"},{"date":"2020.10.17","time":"21:40:49","latitude":"39.1692","longitude":"37.8162","depth":"7.4","md":"-.-","ml":"1.1","mw":"-.-","location":"AKCAKALE-KANGAL (SIVAS)"},{"date":"2020.10.17","time":"21:32:37","latitude":"37.9842","longitude":"27.1578","depth":"11.5","md":"-.-","ml":"1.7","mw":"-.-","location":"KUSADASI KORFEZI (EGE DENIZI)"},{"date":"2020.10.17","time":"21:25:09","latitude":"40.2003","longitude":"25.9672","depth":"9.1","md":"-.-","ml":"2.0","mw":"-.-","location":"GOKCEADA (CANAKKALE)"},{"date":"2020.10.17","time":"21:07:41","latitude":"39.4028","longitude":"27.7857","depth":"6.5","md":"-.-","ml":"1.6","mw":"-.-","location":"KARABEYLER-(BALIKESIR)"},{"date":"2020.10.17","time":"20:01:21","latitude":"36.9145","longitude":"28.9747","depth":"2.8","md":"-.-","ml":"2.0","mw":"-.-","location":"BOZBEL-DALAMAN (MUGLA)"},{"date":"2020.10.17","time":"19:48:46","latitude":"38.4100","longitude":"31.7493","depth":"5.0","md":"-.-","ml":"1.9","mw":"-.-","location":"TURSUNLU-TUZLUKCU (KONYA)"},{"date":"2020.10.17","time":"19:42:37","latitude":"35.6453","longitude":"26.2297","depth":"1.7","md":"-.-","ml":"2.7","mw":"-.-","location":"AKDENIZ"},{"date":"2020.10.17","time":"17:50:49","latitude":"37.7600","longitude":"37.6650","depth":"5.7","md":"-.-","ml":"2.6","mw":"-.-","location":"YARBASI-GOLBASI (ADIYAMAN)"},{"date":"2020.10.17","time":"17:47:15","latitude":"39.9588","longitude":"27.2838","depth":"10.5","md":"-.-","ml":"0.6","mw":"-.-","location":"CAKIROBA-YENICE (CANAKKALE)"},{"date":"2020.10.17","time":"17:37:37","latitude":"36.1543","longitude":"31.4158","depth":"51.3","md":"-.-","ml":"2.3","mw":"-.-","location":"ANTALYA KORFEZI (AKDENIZ)"},{"date":"2020.10.17","time":"16:44:45","latitude":"35.9425","longitude":"29.1193","depth":"13.7","md":"-.-","ml":"1.9","mw":"-.-","location":"AKDENIZ"},{"date":"2020.10.17","time":"16:15:06","latitude":"38.2730","longitude":"27.9782","depth":"14.8","md":"-.-","ml":"1.9","mw":"-.-","location":"MURSALLI-ODEMIS (IZMIR)"},{"date":"2020.10.17","time":"15:41:56","latitude":"38.7002","longitude":"38.0852","depth":"5.4","md":"-.-","ml":"1.9","mw":"-.-","location":"YESILPINAR-HEKIMHAN (MALATYA)"},{"date":"2020.10.17","time":"14:55:14","latitude":"37.7733","longitude":"37.7493","depth":"2.3","md":"-.-","ml":"2.5","mw":"-.-","location":"AKPINAR-BESNI (ADIYAMAN)"},{"date":"2020.10.17","time":"14:02:40","latitude":"36.1390","longitude":"33.5568","depth":"0.0","md":"-.-","ml":"1.3","mw":"-.-","location":"BUYUKECELI-GULNAR (MERSIN)"},{"date":"2020.10.17","time":"13:47:55","latitude":"36.1615","longitude":"33.5495","depth":"0.0","md":"-.-","ml":"1.1","mw":"-.-","location":"BUYUKECELI-GULNAR (MERSIN)"},{"date":"2020.10.17","time":"13:37:18","latitude":"37.3990","longitude":"31.4995","depth":"0.0","md":"-.-","ml":"1.6","mw":"-.-","location":"DEREBUCAK (KONYA)"},{"date":"2020.10.17","time":"13:23:12","latitude":"38.3032","longitude":"38.7925","depth":"2.7","md":"-.-","ml":"2.7","mw":"-.-","location":"BOLUKKAYA-PUTURGE (MALATYA)"},{"date":"2020.10.17","time":"13:18:12","latitude":"36.1528","longitude":"33.5475","depth":"0.0","md":"-.-","ml":"1.1","mw":"-.-","location":"BUYUKECELI-GULNAR (MERSIN)"},{"date":"2020.10.17","time":"12:45:57","latitude":"38.4038","longitude":"39.2848","depth":"12.2","md":"-.-","ml":"1.1","mw":"-.-","location":"YEDIKARDES-SIVRICE (ELAZIG)"},{"date":"2020.10.17","time":"12:00:34","latitude":"38.8682","longitude":"38.1993","depth":"9.0","md":"-.-","ml":"1.6","mw":"-.-","location":"KURUTTAS-ARGUVAN (MALATYA)"}]
