[{"date":"2020.10.05","time":"16:00:54","latitude":"39.0208","longitude":"43.9462","depth":"3.5","md":"-.-","ml":"2.1","mw":"-.-","location":"SALHANE-CALDIRAN (VAN)"},{"date":"2020.10.05","time":"14:45:30","latitude":"37.2115","longitude":"27.9112","depth":"0.0","md":"-.-","ml":"1.4","mw":"-.-","location":"KAYADERE-MILAS (MUGLA)"},{"date":"2020.10.05","time":"14:28:21","latitude":"35.7990","longitude":"28.2220","depth":"8.2","md":"-.-","ml":"2.6","mw":"-.-","location":"AKDENIZ"},{"date":"2020.10.05","time":"13:55:13","latitude":"38.0668","longitude":"26.1482","depth":"5.0","md":"-.-","ml":"2.0","mw":"-.-","location":"EGE DENIZI"},{"date":"2020.10.05","time":"13:45:30","latitude":"38.0023","longitude":"34.0697","depth":"5.0","md":"-.-","ml":"3.1","mw":"3.1","location":"OBRUK-BOR (NIGDE)"},{"date":"2020.10.05","time":"13:08:26","latitude":"39.1270","longitude":"27.5722","depth":"0.0","md":"-.-","ml":"1.8","mw":"-.-","location":"DEREKOY-SOMA (MANISA)"},{"date":"2020.10.05","time":"12:29:04","latitude":"39.9402","longitude":"28.8425","depth":"0.0","md":"-.-","ml":"1.8","mw":"-.-","location":"GUMUSPINAR-ORHANELI (BURSA)"},{"date":"2020.10.05","time":"12:17:24","latitude":"39.8505","longitude":"26.2422","depth":"5.0","md":"-.-","ml":"1.6","mw":"-.-","location":"BOZALAN-EZINE (CANAKKALE)"},{"date":"2020.10.05","time":"12:03:28","latitude":"39.6912","longitude":"29.3365","depth":"0.0","md":"-.-","ml":"1.3","mw":"-.-","location":"ELMAAGACI-TAVSANLI (KUTAHYA)"},{"date":"2020.10.05","time":"11:59:52","latitude":"37.2498","longitude":"28.1923","depth":"0.0","md":"-.-","ml":"1.6","mw":"-.-","location":"PASAPINARI-(MUGLA)"},{"date":"2020.10.05","time":"11:52:54","latitude":"37.2462","longitude":"28.1755","depth":"0.0","md":"-.-","ml":"1.4","mw":"-.-","location":"CAYBUKU-(MUGLA)"},{"date":"2020.10.05","time":"11:46:28","latitude":"39.6643","longitude":"29.4283","depth":"0.0","md":"-.-","ml":"1.4","mw":"-.-","location":"BOZBELEN-TAVSANLI (KUTAHYA)"},{"date":"2020.10.05","time":"11:15:54","latitude":"39.9990","longitude":"28.9045","depth":"0.0","md":"-.-","ml":"2.2","mw":"-.-","location":"NALINLAR-ORHANELI (BURSA)"},{"date":"2020.10.05","time":"10:40:34","latitude":"39.7190","longitude":"27.5612","depth":"17.8","md":"-.-","ml":"1.5","mw":"-.-","location":"CAKALLAR-BALYA (BALIKESIR)"},{"date":"2020.10.05","time":"10:23:19","latitude":"39.4500","longitude":"28.0938","depth":"6.8","md":"-.-","ml":"1.4","mw":"-.-","location":"KADIKOY-BIGADIC (BALIKESIR)"},{"date":"2020.10.05","time":"09:39:54","latitude":"38.7917","longitude":"38.0618","depth":"22.3","md":"-.-","ml":"1.8","mw":"-.-","location":"YAGCA-HEKIMHAN (MALATYA)"},{"date":"2020.10.05","time":"09:21:38","latitude":"39.5437","longitude":"26.1830","depth":"4.8","md":"-.-","ml":"1.5","mw":"-.-","location":"YUKARIKOY-AYVACIK (CANAKKALE)"},{"date":"2020.10.05","time":"08:58:46","latitude":"37.0013","longitude":"27.7595","depth":"0.0","md":"-.-","ml":"1.3","mw":"-.-","location":"MAZIKOY-BODRUM (MUGLA)"},{"date":"2020.10.05","time":"08:43:20","latitude":"37.7317","longitude":"32.1800","depth":"0.0","md":"-.-","ml":"1.6","mw":"-.-","location":"KAYALI-MERAM (KONYA)"},{"date":"2020.10.05","time":"07:39:30","latitude":"37.0968","longitude":"28.9948","depth":"10.9","md":"-.-","ml":"1.6","mw":"-.-","location":"KARACAM-KOYCEGIZ (MUGLA)"},{"date":"2020.10.05","time":"06:57:36","latitude":"35.8357","longitude":"28.1948","depth":"5.0","md":"-.-","ml":"1.8","mw":"-.-","location":"AKDENIZ"},{"date":"2020.10.05","time":"06:44:28","latitude":"40.0813","longitude":"24.2152","depth":"28.3","md":"-.-","ml":"3.1","mw":"3.2","location":"YUNANISTAN"},{"date":"2020.10.05","time":"06:26:22","latitude":"37.7202","longitude":"32.1425","depth":"13.5","md":"-.-","ml":"0.8","mw":"-.-","location":"KAYALI-MERAM (KONYA)"},{"date":"2020.10.05","time":"05:34:57","latitude":"37.9013","longitude":"28.1863","depth":"3.6","md":"-.-","ml":"1.2","mw":"-.-","location":"YAGDERE-SULTANHISAR (AYDIN)"},{"date":"2020.10.05","time":"04:48:52","latitude":"35.2877","longitude":"29.6220","depth":"7.6","md":"-.-","ml":"1.9","mw":"-.-","location":"AKDENIZ"},{"date":"2020.10.05","time":"04:06:08","latitude":"39.1418","longitude":"29.0223","depth":"5.6","md":"-.-","ml":"1.6","mw":"-.-","location":"HACIAHMETOGLU-SIMAV (KUTAHYA)"},{"date":"2020.10.05","time":"03:04:25","latitude":"39.0678","longitude":"43.6022","depth":"6.3","md":"-.-","ml":"1.3","mw":"-.-","location":"TOPRAKLI-ERCIS (VAN)"},{"date":"2020.10.05","time":"02:53:29","latitude":"38.4518","longitude":"39.1602","depth":"11.3","md":"-.-","ml":"1.6","mw":"-.-","location":"KAVALLI-SIVRICE (ELAZIG)"},{"date":"2020.10.05","time":"02:46:11","latitude":"38.6175","longitude":"31.0370","depth":"8.0","md":"-.-","ml":"1.6","mw":"-.-","location":"CAY (AFYONKARAHISAR)"},{"date":"2020.10.05","time":"02:29:43","latitude":"35.1293","longitude":"29.7760","depth":"5.0","md":"-.-","ml":"2.4","mw":"-.-","location":"AKDENIZ"},{"date":"2020.10.05","time":"01:38:49","latitude":"39.4602","longitude":"26.9047","depth":"10.9","md":"-.-","ml":"1.8","mw":"-.-","location":"PELITKOY-BURHANIYE (BALIKESIR)"},{"date":"2020.10.05","time":"01:38:07","latitude":"34.3667","longitude":"25.8880","depth":"83.0","md":"-.-","ml":"2.7","mw":"-.-","location":"GIRIT ADASI ACIKLARI (AKDENIZ)"},{"date":"2020.10.05","time":"01:31:19","latitude":"37.7592","longitude":"32.2077","depth":"7.9","md":"-.-","ml":"1.8","mw":"-.-","location":"ERENKAYA-MERAM (KONYA)"},{"date":"2020.10.05","time":"01:20:16","latitude":"33.7105","longitude":"24.9522","depth":"77.9","md":"-.-","ml":"3.3","mw":"3.3","location":"GIRIT ADASI ACIKLARI (AKDENIZ)"},{"date":"2020.10.05","time":"01:07:48","latitude":"36.8700","longitude":"27.9653","depth":"7.7","md":"-.-","ml":"1.3","mw":"-.-","location":"GOKOVA KORFEZI (AKDENIZ)"},{"date":"2020.10.04","time":"23:47:29","latitude":"37.7605","longitude":"32.0805","depth":"5.2","md":"-.-","ml":"1.0","mw":"-.-","location":"YATAGAN-MERAM (KONYA)"},{"date":"2020.10.04","time":"23:45:58","latitude":"37.7237","longitude":"32.1380","depth":"5.4","md":"-.-","ml":"1.3","mw":"-.-","location":"KAYALI-MERAM (KONYA)"},{"date":"2020.10.04","time":"23:38:30","latitude":"37.7592","longitude":"32.1697","depth":"4.5","md":"-.-","ml":"2.1","mw":"-.-","location":"ERENKAYA-MERAM (KONYA)"},{"date":"2020.10.04","time":"23:33:29","latitude":"37.7750","longitude":"32.1470","depth":"17.1","md":"-.-","ml":"1.1","mw":"-.-","location":"SEFAKOY-MERAM (KONYA)"},{"date":"2020.10.04","time":"22:43:03","latitude":"35.0003","longitude":"26.4238","depth":"8.2","md":"-.-","ml":"2.9","mw":"-.-","location":"GIRIT ADASI ACIKLARI (AKDENIZ)"},{"date":"2020.10.04","time":"22:18:20","latitude":"37.7540","longitude":"32.1245","depth":"5.4","md":"-.-","ml":"1.9","mw":"-.-","location":"ERENKAYA-MERAM (KONYA)"},{"date":"2020.10.04","time":"22:00:20","latitude":"37.7060","longitude":"32.2705","depth":"14.6","md":"-.-","ml":"1.2","mw":"-.-","location":"KUMRALI-MERAM (KONYA)"},{"date":"2020.10.04","time":"21:48:44","latitude":"36.9515","longitude":"27.3405","depth":"7.5","md":"-.-","ml":"2.0","mw":"-.-","location":"GOKOVA KORFEZI (AKDENIZ)"},{"date":"2020.10.04","time":"20:59:37","latitude":"38.4580","longitude":"39.3573","depth":"13.0","md":"-.-","ml":"0.9","mw":"-.-","location":"SUREK-SIVRICE (ELAZIG)"},{"date":"2020.10.04","time":"20:32:32","latitude":"38.3910","longitude":"39.2638","depth":"7.3","md":"-.-","ml":"1.9","mw":"-.-","location":"SOGUKPINAR-SIVRICE (ELAZIG)"},{"date":"2020.10.04","time":"19:07:54","latitude":"36.9570","longitude":"27.5267","depth":"1.4","md":"-.-","ml":"1.5","mw":"-.-","location":"GOKOVA KORFEZI (AKDENIZ)"},{"date":"2020.10.04","time":"18:45:42","latitude":"36.9508","longitude":"27.5997","depth":"4.0","md":"-.-","ml":"1.9","mw":"-.-","location":"GOKOVA KORFEZI (AKDENIZ)"},{"date":"2020.10.04","time":"18:21:38","latitude":"38.4015","longitude":"39.2163","depth":"3.5","md":"-.-","ml":"1.9","mw":"-.-","location":"DORTBOLUK-SIVRICE (ELAZIG)"},{"date":"2020.10.04","time":"18:16:15","latitude":"36.9847","longitude":"27.6692","depth":"10.4","md":"-.-","ml":"1.6","mw":"-.-","location":"GOKOVA KORFEZI (AKDENIZ)"},{"date":"2020.10.04","time":"17:56:13","latitude":"36.9005","longitude":"31.6620","depth":"137.8","md":"-.-","ml":"2.6","mw":"-.-","location":"HOCAKOY-AKSEKI (ANTALYA)"},{"date":"2020.10.04","time":"17:03:38","latitude":"36.0063","longitude":"31.1387","depth":"5.4","md":"-.-","ml":"2.4","mw":"-.-","location":"AKDENIZ"},{"date":"2020.10.04","time":"13:38:50","latitude":"38.4507","longitude":"31.8143","depth":"5.5","md":"-.-","ml":"1.9","mw":"-.-","location":"KUNDULLU-TUZLUKCU (KONYA)"},{"date":"2020.10.04","time":"13:33:08","latitude":"38.8625","longitude":"26.6417","depth":"10.7","md":"-.-","ml":"2.9","mw":"-.-","location":"EGE DENIZI"},{"date":"2020.10.04","time":"13:05:04","latitude":"37.0427","longitude":"34.4465","depth":"5.2","md":"-.-","ml":"1.4","mw":"-.-","location":"HOROZLU-TOROSLAR (MERSIN)"},{"date":"2020.10.04","time":"12:51:38","latitude":"39.9612","longitude":"28.7888","depth":"0.0","md":"-.-","ml":"1.7","mw":"-.-","location":"OMERALTI-MUSTAFAKEMALPASA (BURSA)"},{"date":"2020.10.04","time":"12:31:19","latitude":"37.5868","longitude":"29.2392","depth":"0.0","md":"-.-","ml":"1.2","mw":"-.-","location":"SERINHISAR (DENIZLI)"},{"date":"2020.10.04","time":"11:15:38","latitude":"38.9697","longitude":"26.0042","depth":"4.2","md":"-.-","ml":"1.7","mw":"-.-","location":"EGE DENIZI"},{"date":"2020.10.04","time":"10:17:35","latitude":"39.3850","longitude":"28.0877","depth":"11.7","md":"-.-","ml":"1.8","mw":"-.-","location":"BALATLI-BIGADIC (BALIKESIR)"},{"date":"2020.10.04","time":"10:16:48","latitude":"35.7775","longitude":"26.9352","depth":"5.4","md":"-.-","ml":"2.9","mw":"-.-","location":"AKDENIZ"},{"date":"2020.10.04","time":"10:14:05","latitude":"35.7218","longitude":"28.5123","depth":"6.0","md":"-.-","ml":"2.0","mw":"-.-","location":"AKDENIZ"},{"date":"2020.10.04","time":"09:10:34","latitude":"36.9708","longitude":"34.4163","depth":"6.0","md":"-.-","ml":"2.9","mw":"-.-","location":"YUKSEKOLUK-TOROSLAR (MERSIN)"},{"date":"2020.10.04","time":"08:46:02","latitude":"36.9153","longitude":"26.6413","depth":"8.6","md":"-.-","ml":"1.9","mw":"-.-","location":"AKDENIZ"},{"date":"2020.10.04","time":"07:23:02","latitude":"36.9863","longitude":"27.9020","depth":"17.3","md":"-.-","ml":"1.2","mw":"-.-","location":"TURKEVLERI-MILAS (MUGLA)"},{"date":"2020.10.04","time":"06:50:23","latitude":"39.0852","longitude":"27.8170","depth":"4.1","md":"-.-","ml":"1.5","mw":"-.-","location":"ILYASLAR-KIRKAGAC (MANISA)"},{"date":"2020.10.04","time":"06:32:37","latitude":"40.6600","longitude":"27.2610","depth":"13.6","md":"-.-","ml":"1.6","mw":"-.-","location":"MUREFTE-SARKOY (TEKIRDAG)"},{"date":"2020.10.04","time":"06:24:59","latitude":"39.8478","longitude":"38.9318","depth":"5.8","md":"-.-","ml":"1.8","mw":"-.-","location":"KIRBULAK-REFAHIYE (ERZINCAN)"},{"date":"2020.10.04","time":"05:44:55","latitude":"35.4002","longitude":"26.9670","depth":"29.9","md":"-.-","ml":"3.5","mw":"3.6","location":"AKDENIZ"},{"date":"2020.10.04","time":"05:36:47","latitude":"40.5458","longitude":"28.1420","depth":"5.1","md":"-.-","ml":"2.3","mw":"-.-","location":"ERDEK ACIKLARI-BALIKESIR (MARMARA DENIZI)"},{"date":"2020.10.04","time":"05:30:05","latitude":"35.4345","longitude":"26.9552","depth":"63.4","md":"-.-","ml":"1.9","mw":"-.-","location":"AKDENIZ"},{"date":"2020.10.04","time":"04:27:30","latitude":"37.7730","longitude":"29.3553","depth":"9.8","md":"-.-","ml":"1.4","mw":"-.-","location":"KIZILYER-HONAZ (DENIZLI)"},{"date":"2020.10.04","time":"03:56:36","latitude":"38.1173","longitude":"31.6348","depth":"19.3","md":"-.-","ml":"1.2","mw":"-.-","location":"FURUNLU-DOGANHISAR (KONYA)"},{"date":"2020.10.04","time":"02:54:30","latitude":"38.4622","longitude":"39.2575","depth":"5.7","md":"-.-","ml":"1.6","mw":"-.-","location":"ALINCIK-SIVRICE (ELAZIG)"},{"date":"2020.10.04","time":"02:45:27","latitude":"35.7838","longitude":"28.1348","depth":"3.4","md":"-.-","ml":"1.4","mw":"-.-","location":"AKDENIZ"},{"date":"2020.10.04","time":"02:28:18","latitude":"36.9157","longitude":"27.7025","depth":"8.2","md":"-.-","ml":"1.1","mw":"-.-","location":"GOKOVA KORFEZI (AKDENIZ)"},{"date":"2020.10.04","time":"02:00:38","latitude":"38.1003","longitude":"34.0632","depth":"7.4","md":"-.-","ml":"1.6","mw":"-.-","location":"AKCAKENT-(AKSARAY)"},{"date":"2020.10.04","time":"01:10:30","latitude":"38.4097","longitude":"39.2165","depth":"6.7","md":"-.-","ml":"1.0","mw":"-.-","location":"YEDIPINAR-SIVRICE (ELAZIG)"},{"date":"2020.10.03","time":"23:21:13","latitude":"36.9105","longitude":"27.7685","depth":"5.6","md":"-.-","ml":"1.5","mw":"-.-","location":"GOKOVA KORFEZI (AKDENIZ)"},{"date":"2020.10.03","time":"22:05:17","latitude":"37.9280","longitude":"26.9227","depth":"15.0","md":"-.-","ml":"1.9","mw":"-.-","location":"KUSADASI KORFEZI (EGE DENIZI)"},{"date":"2020.10.03","time":"21:22:57","latitude":"39.1247","longitude":"27.8298","depth":"1.2","md":"-.-","ml":"1.7","mw":"-.-","location":"KARAKURT-KIRKAGAC (MANISA)"},{"date":"2020.10.03","time":"18:05:04","latitude":"36.9422","longitude":"27.6292","depth":"6.7","md":"-.-","ml":"2.0","mw":"-.-","location":"GOKOVA KORFEZI (AKDENIZ)"},{"date":"2020.10.03","time":"15:23:10","latitude":"38.2270","longitude":"38.6980","depth":"8.0","md":"-.-","ml":"1.9","mw":"-.-","location":"KOKPINAR-PUTURGE (MALATYA)"},{"date":"2020.10.03","time":"15:21:00","latitude":"36.5090","longitude":"26.6467","depth":"6.8","md":"-.-","ml":"2.1","mw":"-.-","location":"AKDENIZ"},{"date":"2020.10.03","time":"15:13:40","latitude":"38.6962","longitude":"26.6035","depth":"5.0","md":"-.-","ml":"1.7","mw":"-.-","location":"IZMIR KORFEZI (EGE DENIZI)"},{"date":"2020.10.03","time":"15:10:38","latitude":"38.4090","longitude":"31.8312","depth":"5.8","md":"-.-","ml":"2.1","mw":"-.-","location":"CAVUSCUGOL-ILGIN (KONYA)"},{"date":"2020.10.03","time":"14:29:15","latitude":"39.5672","longitude":"29.4112","depth":"8.8","md":"-.-","ml":"1.4","mw":"-.-","location":"DERECIK-TAVSANLI (KUTAHYA)"},{"date":"2020.10.03","time":"13:47:03","latitude":"38.2927","longitude":"38.8890","depth":"2.5","md":"-.-","ml":"1.7","mw":"-.-","location":"TATLICAK-PUTURGE (MALATYA)"},{"date":"2020.10.03","time":"13:16:54","latitude":"39.5135","longitude":"28.1912","depth":"9.1","md":"-.-","ml":"1.9","mw":"-.-","location":"BEGENDIKLER-BIGADIC (BALIKESIR)"},{"date":"2020.10.03","time":"12:48:57","latitude":"35.0055","longitude":"33.7387","depth":"57.9","md":"-.-","ml":"1.8","mw":"-.-","location":"KIBRIS-TUZLA"},{"date":"2020.10.03","time":"11:34:08","latitude":"38.7083","longitude":"40.0088","depth":"4.4","md":"-.-","ml":"1.9","mw":"-.-","location":"ORGULU-PALU (ELAZIG)"},{"date":"2020.10.03","time":"11:10:12","latitude":"38.3093","longitude":"39.2528","depth":"16.8","md":"-.-","ml":"1.9","mw":"-.-","location":"HACILAR-SIVRICE (ELAZIG)"},{"date":"2020.10.03","time":"10:03:31","latitude":"35.0137","longitude":"31.1150","depth":"9.3","md":"-.-","ml":"2.6","mw":"-.-","location":"AKDENIZ"},{"date":"2020.10.03","time":"09:30:26","latitude":"37.1953","longitude":"36.2657","depth":"4.9","md":"-.-","ml":"1.9","mw":"-.-","location":"SELVERLER-DUZICI (OSMANIYE)"},{"date":"2020.10.03","time":"08:06:50","latitude":"38.9982","longitude":"43.7163","depth":"34.1","md":"-.-","ml":"1.8","mw":"-.-","location":"ACIKYOL-MURADIYE (VAN)"},{"date":"2020.10.03","time":"07:49:51","latitude":"35.9100","longitude":"30.4860","depth":"5.0","md":"-.-","ml":"2.4","mw":"-.-","location":"AKDENIZ"},{"date":"2020.10.03","time":"06:43:56","latitude":"38.4330","longitude":"28.4603","depth":"1.8","md":"-.-","ml":"2.4","mw":"-.-","location":"PIYADELER-ALASEHIR (MANISA)"},{"date":"2020.10.03","time":"06:36:19","latitude":"38.9847","longitude":"26.2548","depth":"13.3","md":"-.-","ml":"1.5","mw":"-.-","location":"MIDILLI ADASI (EGE DENIZI)"},{"date":"2020.10.03","time":"06:26:42","latitude":"35.6807","longitude":"26.5850","depth":"8.2","md":"-.-","ml":"2.4","mw":"-.-","location":"AKDENIZ"},{"date":"2020.10.03","time":"06:14:33","latitude":"40.8690","longitude":"31.6873","depth":"5.2","md":"-.-","ml":"0.9","mw":"-.-","location":"MESCICELE-(BOLU)"},{"date":"2020.10.03","time":"05:56:21","latitude":"38.7208","longitude":"38.0530","depth":"1.5","md":"-.-","ml":"1.6","mw":"-.-","location":"YESILPINAR-HEKIMHAN (MALATYA)"},{"date":"2020.10.03","time":"05:55:36","latitude":"36.1828","longitude":"27.6513","depth":"11.1","md":"-.-","ml":"1.5","mw":"-.-","location":"AKDENIZ"},{"date":"2020.10.03","time":"05:52:23","latitude":"37.3177","longitude":"36.3097","depth":"14.2","md":"-.-","ml":"1.1","mw":"-.-","location":"PIRSULTANLI-DUZICI (OSMANIYE)"},{"date":"2020.10.03","time":"05:49:46","latitude":"35.5637","longitude":"26.9087","depth":"5.5","md":"-.-","ml":"1.7","mw":"-.-","location":"AKDENIZ"},{"date":"2020.10.03","time":"05:35:22","latitude":"35.2518","longitude":"26.3682","depth":"5.0","md":"-.-","ml":"2.2","mw":"-.-","location":"GIRIT ADASI (AKDENIZ)"},{"date":"2020.10.03","time":"05:12:26","latitude":"41.1112","longitude":"34.9610","depth":"5.0","md":"-.-","ml":"2.4","mw":"-.-","location":"TAHTAKOPRU-VEZIRKOPRU (SAMSUN)"},{"date":"2020.10.03","time":"05:10:36","latitude":"39.3467","longitude":"25.5507","depth":"13.4","md":"-.-","ml":"2.0","mw":"-.-","location":"EGE DENIZI"},{"date":"2020.10.03","time":"04:55:05","latitude":"35.1803","longitude":"27.8430","depth":"5.5","md":"-.-","ml":"1.7","mw":"-.-","location":"AKDENIZ"},{"date":"2020.10.03","time":"04:44:13","latitude":"35.8115","longitude":"28.2227","depth":"14.7","md":"-.-","ml":"1.3","mw":"-.-","location":"AKDENIZ"},{"date":"2020.10.03","time":"04:08:36","latitude":"37.4108","longitude":"28.0922","depth":"3.0","md":"-.-","ml":"1.2","mw":"-.-","location":"YAVA-YATAGAN (MUGLA)"},{"date":"2020.10.03","time":"03:47:11","latitude":"38.4300","longitude":"31.8422","depth":"5.0","md":"-.-","ml":"0.9","mw":"-.-","location":"GOLYAKA-ILGIN (KONYA)"},{"date":"2020.10.03","time":"03:26:16","latitude":"39.6562","longitude":"25.9413","depth":"5.2","md":"-.-","ml":"1.2","mw":"-.-","location":"TAVAKLI ACIKLARI-CANAKKALE (EGE DENIZI)"},{"date":"2020.10.03","time":"03:15:37","latitude":"38.1090","longitude":"33.9548","depth":"8.0","md":"-.-","ml":"1.3","mw":"-.-","location":"DEMIRCI-EMIRGAZI (KONYA)"},{"date":"2020.10.03","time":"02:46:00","latitude":"38.4450","longitude":"31.4005","depth":"10.3","md":"-.-","ml":"1.7","mw":"-.-","location":"SORKUN-AKSEHIR (KONYA)"},{"date":"2020.10.03","time":"02:28:30","latitude":"40.0342","longitude":"24.3662","depth":"25.1","md":"-.-","ml":"1.9","mw":"-.-","location":"YUNANISTAN"},{"date":"2020.10.03","time":"01:46:50","latitude":"36.6380","longitude":"28.1322","depth":"24.0","md":"-.-","ml":"1.6","mw":"-.-","location":"TASLICA-MARMARIS (MUGLA)"},{"date":"2020.10.03","time":"01:38:41","latitude":"39.5828","longitude":"38.0850","depth":"5.0","md":"-.-","ml":"1.4","mw":"-.-","location":"CAMLIK-DIVRIGI (SIVAS)"},{"date":"2020.10.03","time":"01:36:11","latitude":"35.4102","longitude":"27.7277","depth":"16.8","md":"-.-","ml":"1.9","mw":"-.-","location":"AKDENIZ"},{"date":"2020.10.03","time":"00:38:16","latitude":"39.9927","longitude":"24.3957","depth":"11.1","md":"-.-","ml":"2.2","mw":"-.-","location":"YUNANISTAN"},{"date":"2020.10.03","time":"00:21:05","latitude":"35.5973","longitude":"26.6287","depth":"18.5","md":"-.-","ml":"2.7","mw":"-.-","location":"AKDENIZ"},{"date":"2020.10.02","time":"22:42:01","latitude":"36.7077","longitude":"27.9555","depth":"10.3","md":"-.-","ml":"2.3","mw":"-.-","location":"BOZBURUN ACIKLARI-MUGLA (AKDENIZ)"},{"date":"2020.10.02","time":"22:02:54","latitude":"35.8045","longitude":"28.1985","depth":"5.0","md":"-.-","ml":"1.4","mw":"-.-","location":"AKDENIZ"},{"date":"2020.10.02","time":"20:44:09","latitude":"36.9832","longitude":"27.5240","depth":"7.5","md":"-.-","ml":"1.5","mw":"-.-","location":"GOKOVA KORFEZI (AKDENIZ)"},{"date":"2020.10.02","time":"19:45:50","latitude":"39.9982","longitude":"24.4727","depth":"11.6","md":"-.-","ml":"2.5","mw":"-.-","location":"YUNANISTAN"},{"date":"2020.10.02","time":"19:00:04","latitude":"38.0432","longitude":"29.0260","depth":"7.6","md":"-.-","ml":"3.2","mw":"3.1","location":"ERTUGRUL-GUNEY (DENIZLI)"},{"date":"2020.10.02","time":"18:28:12","latitude":"34.3998","longitude":"23.9310","depth":"9.0","md":"-.-","ml":"3.5","mw":"3.3","location":"GIRIT ADASI ACIKLARI (AKDENIZ)"},{"date":"2020.10.02","time":"18:25:40","latitude":"38.3977","longitude":"39.3452","depth":"17.6","md":"-.-","ml":"1.1","mw":"-.-","location":"BASKAYNAK-SIVRICE (ELAZIG)"},{"date":"2020.10.02","time":"17:11:50","latitude":"38.3090","longitude":"38.9927","depth":"6.6","md":"-.-","ml":"1.9","mw":"-.-","location":"GOKCE-DOGANYOL (MALATYA)"},{"date":"2020.10.02","time":"16:58:59","latitude":"41.2070","longitude":"28.6898","depth":"0.0","md":"-.-","ml":"0.8","mw":"-.-","location":"ARNAVUTKOY (ISTANBUL)"},{"date":"2020.10.02","time":"15:54:19","latitude":"37.3100","longitude":"37.2313","depth":"0.0","md":"-.-","ml":"1.8","mw":"-.-","location":"KARAKESEK-SEHITKAMIL (GAZIANTEP)"},{"date":"2020.10.02","time":"13:51:21","latitude":"36.7323","longitude":"29.8893","depth":"5.0","md":"-.-","ml":"1.6","mw":"-.-","location":"ELMALI (ANTALYA)"},{"date":"2020.10.02","time":"13:37:31","latitude":"40.8182","longitude":"31.7868","depth":"0.0","md":"-.-","ml":"1.5","mw":"-.-","location":"TASCILAR-(BOLU)"},{"date":"2020.10.02","time":"13:29:01","latitude":"38.8653","longitude":"27.7853","depth":"0.0","md":"-.-","ml":"0.9","mw":"-.-","location":"RAHMIYE-AKHISAR (MANISA)"},{"date":"2020.10.02","time":"13:06:54","latitude":"38.8987","longitude":"32.7168","depth":"5.4","md":"-.-","ml":"1.7","mw":"-.-","location":"KUTUKUSAGI-CIHANBEYLI (KONYA)"},{"date":"2020.10.02","time":"13:03:32","latitude":"39.9128","longitude":"28.8073","depth":"0.0","md":"-.-","ml":"1.6","mw":"-.-","location":"CIVILI-ORHANELI (BURSA)"},{"date":"2020.10.02","time":"12:59:46","latitude":"38.1575","longitude":"38.8918","depth":"5.0","md":"-.-","ml":"1.9","mw":"-.-","location":"BELENKOY-PUTURGE (MALATYA)"},{"date":"2020.10.02","time":"12:54:18","latitude":"37.9907","longitude":"34.1095","depth":"6.0","md":"-.-","ml":"2.1","mw":"-.-","location":"KECIKALESI-ALTUNHISAR (NIGDE)"},{"date":"2020.10.02","time":"12:53:26","latitude":"37.2515","longitude":"28.2110","depth":"0.0","md":"-.-","ml":"1.9","mw":"-.-","location":"PASAPINARI-(MUGLA)"},{"date":"2020.10.02","time":"12:49:01","latitude":"37.9737","longitude":"34.1337","depth":"8.8","md":"-.-","ml":"1.6","mw":"-.-","location":"KARAKAPI-ALTUNHISAR (NIGDE)"},{"date":"2020.10.02","time":"12:43:55","latitude":"40.0762","longitude":"30.0877","depth":"0.0","md":"-.-","ml":"1.6","mw":"-.-","location":"KIZILDAMLAR-(BILECIK)"},{"date":"2020.10.02","time":"12:40:32","latitude":"37.1872","longitude":"27.9603","depth":"0.0","md":"-.-","ml":"1.4","mw":"-.-","location":"KAYADERE-MILAS (MUGLA)"},{"date":"2020.10.02","time":"12:16:07","latitude":"35.8520","longitude":"28.2325","depth":"5.0","md":"-.-","ml":"3.4","mw":"3.4","location":"AKDENIZ"},{"date":"2020.10.02","time":"12:01:35","latitude":"36.9912","longitude":"37.5470","depth":"0.0","md":"-.-","ml":"2.3","mw":"-.-","location":"OGUZELI (GAZIANTEP)"},{"date":"2020.10.02","time":"11:47:04","latitude":"37.5812","longitude":"29.1922","depth":"0.0","md":"-.-","ml":"1.8","mw":"-.-","location":"SARIABAT-TAVAS (DENIZLI)"},{"date":"2020.10.02","time":"11:43:53","latitude":"40.6703","longitude":"27.4420","depth":"7.0","md":"-.-","ml":"1.5","mw":"-.-","location":"GUZELKOY ACIKLARI-TEKIRDAG (MARMARA DENIZI)"},{"date":"2020.10.02","time":"11:21:23","latitude":"36.8645","longitude":"28.6362","depth":"7.3","md":"-.-","ml":"1.0","mw":"-.-","location":"DALYAN-ORTACA (MUGLA)"},{"date":"2020.10.02","time":"11:05:43","latitude":"37.8578","longitude":"36.6790","depth":"10.1","md":"-.-","ml":"1.8","mw":"-.-","location":"SAHINKAYASI-(KAHRAMANMARAS)"},{"date":"2020.10.02","time":"10:58:39","latitude":"36.9102","longitude":"28.6067","depth":"16.4","md":"-.-","ml":"1.0","mw":"-.-","location":"SULTANIYE-KOYCEGIZ (MUGLA)"},{"date":"2020.10.02","time":"10:50:22","latitude":"37.9730","longitude":"34.1010","depth":"2.8","md":"-.-","ml":"1.9","mw":"-.-","location":"OBRUK-BOR (NIGDE)"},{"date":"2020.10.02","time":"10:48:00","latitude":"38.4775","longitude":"31.8050","depth":"26.7","md":"-.-","ml":"1.3","mw":"-.-","location":"KUNDULLU-TUZLUKCU (KONYA)"},{"date":"2020.10.02","time":"10:41:22","latitude":"40.0207","longitude":"24.4300","depth":"12.3","md":"-.-","ml":"2.8","mw":"-.-","location":"YUNANISTAN"},{"date":"2020.10.02","time":"10:32:56","latitude":"40.4438","longitude":"29.2627","depth":"0.0","md":"-.-","ml":"1.2","mw":"-.-","location":"GEDELEK-ORHANGAZI (BURSA)"},{"date":"2020.10.02","time":"10:09:22","latitude":"38.9485","longitude":"44.4952","depth":"10.6","md":"-.-","ml":"2.9","mw":"-.-","location":"TURKIYE-IRAN SINIR BOLGESI"},{"date":"2020.10.02","time":"10:05:15","latitude":"38.0112","longitude":"34.0948","depth":"6.1","md":"-.-","ml":"2.6","mw":"-.-","location":"KECIKALESI-ALTUNHISAR (NIGDE)"},{"date":"2020.10.02","time":"09:08:16","latitude":"37.6425","longitude":"25.8688","depth":"5.0","md":"-.-","ml":"3.2","mw":"3.2","location":"ONIKI ADALAR (AKDENIZ)"},{"date":"2020.10.02","time":"08:55:18","latitude":"37.9815","longitude":"34.0825","depth":"3.2","md":"-.-","ml":"2.9","mw":"-.-","location":"OBRUK-BOR (NIGDE)"},{"date":"2020.10.02","time":"08:28:50","latitude":"38.8367","longitude":"32.8442","depth":"14.0","md":"-.-","ml":"2.2","mw":"-.-","location":"YENICEOBA-CIHANBEYLI (KONYA)"},{"date":"2020.10.02","time":"08:03:24","latitude":"37.9957","longitude":"34.0543","depth":"5.4","md":"-.-","ml":"4.0","mw":"4.1","location":"OBRUK-BOR (NIGDE)"},{"date":"2020.10.02","time":"06:24:15","latitude":"34.4448","longitude":"25.4643","depth":"6.4","md":"-.-","ml":"3.4","mw":"3.4","location":"GIRIT ADASI ACIKLARI (AKDENIZ)"},{"date":"2020.10.02","time":"06:11:07","latitude":"39.2258","longitude":"28.1785","depth":"7.6","md":"-.-","ml":"1.4","mw":"-.-","location":"SINDIRGI (BALIKESIR)"},{"date":"2020.10.02","time":"06:00:20","latitude":"35.7518","longitude":"26.9855","depth":"8.9","md":"-.-","ml":"1.5","mw":"-.-","location":"AKDENIZ"},{"date":"2020.10.02","time":"05:06:23","latitude":"35.2828","longitude":"27.6067","depth":"23.6","md":"-.-","ml":"1.6","mw":"-.-","location":"AKDENIZ"},{"date":"2020.10.02","time":"04:48:01","latitude":"38.1795","longitude":"38.7618","depth":"14.4","md":"-.-","ml":"2.4","mw":"-.-","location":"YAZICA-PUTURGE (MALATYA)"},{"date":"2020.10.02","time":"04:19:03","latitude":"41.2328","longitude":"31.6692","depth":"13.2","md":"-.-","ml":"1.5","mw":"-.-","location":"CEVLIK-EREGLI (ZONGULDAK)"},{"date":"2020.10.02","time":"03:01:58","latitude":"39.3693","longitude":"40.6735","depth":"3.2","md":"-.-","ml":"2.0","mw":"-.-","location":"DINARBEY-YEDISU (BINGOL)"},{"date":"2020.10.02","time":"02:58:57","latitude":"37.9947","longitude":"35.1742","depth":"4.5","md":"-.-","ml":"2.2","mw":"-.-","location":"SULUCAOVA-CAMARDI (NIGDE)"},{"date":"2020.10.02","time":"02:00:59","latitude":"38.4680","longitude":"31.8330","depth":"15.2","md":"-.-","ml":"1.3","mw":"-.-","location":"GOLYAKA-ILGIN (KONYA)"},{"date":"2020.10.02","time":"01:04:37","latitude":"36.1322","longitude":"27.4270","depth":"10.8","md":"-.-","ml":"1.9","mw":"-.-","location":"AKDENIZ"},{"date":"2020.10.02","time":"01:04:03","latitude":"38.9535","longitude":"26.7928","depth":"13.0","md":"-.-","ml":"1.4","mw":"-.-","location":"DENIZKOY-DIKILI (IZMIR)"},{"date":"2020.10.02","time":"00:55:24","latitude":"39.4728","longitude":"27.8205","depth":"12.1","md":"-.-","ml":"1.5","mw":"-.-","location":"TASPINAR-(BALIKESIR)"},{"date":"2020.10.02","time":"00:41:39","latitude":"40.0322","longitude":"24.4125","depth":"7.1","md":"-.-","ml":"2.7","mw":"-.-","location":"YUNANISTAN"},{"date":"2020.10.02","time":"00:12:04","latitude":"35.9607","longitude":"31.1382","depth":"9.4","md":"-.-","ml":"2.4","mw":"-.-","location":"AKDENIZ"},{"date":"2020.10.01","time":"23:26:50","latitude":"38.9473","longitude":"26.7597","depth":"18.1","md":"-.-","ml":"1.7","mw":"-.-","location":"DENIZKOY-DIKILI (IZMIR)"},{"date":"2020.10.01","time":"23:16:01","latitude":"38.3188","longitude":"26.5892","depth":"5.0","md":"-.-","ml":"1.6","mw":"-.-","location":"BARBAROS-URLA (IZMIR)"},{"date":"2020.10.01","time":"22:38:17","latitude":"38.4470","longitude":"25.7740","depth":"9.9","md":"-.-","ml":"1.7","mw":"-.-","location":"EGE DENIZI"},{"date":"2020.10.01","time":"22:03:51","latitude":"36.9143","longitude":"27.6618","depth":"5.0","md":"-.-","ml":"1.1","mw":"-.-","location":"GOKOVA KORFEZI (AKDENIZ)"},{"date":"2020.10.01","time":"22:00:34","latitude":"38.9388","longitude":"26.7282","depth":"8.6","md":"-.-","ml":"1.5","mw":"-.-","location":"DENIZKOY-DIKILI (IZMIR)"},{"date":"2020.10.01","time":"21:08:08","latitude":"38.7060","longitude":"38.1545","depth":"11.1","md":"-.-","ml":"1.7","mw":"-.-","location":"AKSUTLU-HEKIMHAN (MALATYA)"},{"date":"2020.10.01","time":"20:58:51","latitude":"39.8838","longitude":"24.2077","depth":"13.6","md":"-.-","ml":"3.3","mw":"3.4","location":"YUNANISTAN"},{"date":"2020.10.01","time":"20:44:33","latitude":"38.9558","longitude":"26.7385","depth":"10.3","md":"-.-","ml":"3.7","mw":"3.6","location":"DENIZKOY-DIKILI (IZMIR)"},{"date":"2020.10.01","time":"20:34:48","latitude":"38.3215","longitude":"26.5707","depth":"6.0","md":"-.-","ml":"1.9","mw":"-.-","location":"BARBAROS-URLA (IZMIR)"},{"date":"2020.10.01","time":"19:29:01","latitude":"39.1900","longitude":"39.2447","depth":"7.0","md":"-.-","ml":"1.3","mw":"-.-","location":"SARISALTIK-HOZAT (TUNCELI)"},{"date":"2020.10.01","time":"18:59:57","latitude":"38.7835","longitude":"27.8003","depth":"11.9","md":"-.-","ml":"2.4","mw":"-.-","location":"SAZOBA-AKHISAR (MANISA)"},{"date":"2020.10.01","time":"17:53:02","latitude":"40.1833","longitude":"27.4250","depth":"16.6","md":"-.-","ml":"2.0","mw":"-.-","location":"HODUL-GONEN (BALIKESIR)"},{"date":"2020.10.01","time":"15:40:14","latitude":"39.0883","longitude":"28.8897","depth":"5.3","md":"-.-","ml":"1.8","mw":"-.-","location":"OREYLER-SIMAV (KUTAHYA)"},{"date":"2020.10.01","time":"15:28:45","latitude":"39.3598","longitude":"29.3828","depth":"0.0","md":"-.-","ml":"1.7","mw":"-.-","location":"SUBAK-EMET (KUTAHYA)"},{"date":"2020.10.01","time":"14:58:09","latitude":"38.4750","longitude":"31.8153","depth":"8.7","md":"-.-","ml":"1.6","mw":"-.-","location":"KUNDULLU-TUZLUKCU (KONYA)"},{"date":"2020.10.01","time":"14:37:11","latitude":"41.1278","longitude":"34.9798","depth":"5.0","md":"-.-","ml":"3.6","mw":"3.7","location":"TAHTAKOPRU-VEZIRKOPRU (SAMSUN)"},{"date":"2020.10.01","time":"14:05:37","latitude":"36.6762","longitude":"26.7863","depth":"155.3","md":"-.-","ml":"4.9","mw":"-.-","location":"AKDENIZ"},{"date":"2020.10.01","time":"13:30:10","latitude":"39.3110","longitude":"26.0370","depth":"26.5","md":"-.-","ml":"2.2","mw":"-.-","location":"MIDILLI ADASI (EGE DENIZI)"},{"date":"2020.10.01","time":"13:28:08","latitude":"38.5937","longitude":"29.0128","depth":"3.3","md":"-.-","ml":"1.0","mw":"-.-","location":"CEMALCAVUS-ESME (USAK)"},{"date":"2020.10.01","time":"13:19:25","latitude":"38.7210","longitude":"38.0312","depth":"5.0","md":"-.-","ml":"1.9","mw":"-.-","location":"IPEKYOLU-HEKIMHAN (MALATYA)"},{"date":"2020.10.01","time":"13:13:54","latitude":"39.9792","longitude":"24.3932","depth":"9.9","md":"-.-","ml":"2.5","mw":"-.-","location":"YUNANISTAN"},{"date":"2020.10.01","time":"13:09:26","latitude":"38.1638","longitude":"28.8792","depth":"4.0","md":"-.-","ml":"1.3","mw":"-.-","location":"TURLUBEY-BULDAN (DENIZLI)"},{"date":"2020.10.01","time":"13:00:17","latitude":"38.1738","longitude":"38.6253","depth":"18.6","md":"-.-","ml":"2.2","mw":"-.-","location":"ARITOPRAK-PUTURGE (MALATYA)"},{"date":"2020.10.01","time":"12:39:40","latitude":"40.1928","longitude":"30.8315","depth":"8.7","md":"-.-","ml":"1.8","mw":"-.-","location":"SOGUKCAM-GOYNUK (BOLU)"},{"date":"2020.10.01","time":"12:35:49","latitude":"39.3617","longitude":"40.7342","depth":"7.9","md":"-.-","ml":"2.3","mw":"-.-","location":"KAYNARPINAR-KARLIOVA (BINGOL)"},{"date":"2020.10.01","time":"11:58:10","latitude":"41.4543","longitude":"33.9492","depth":"5.3","md":"-.-","ml":"1.7","mw":"-.-","location":"KUSKARA-(KASTAMONU)"},{"date":"2020.10.01","time":"11:56:40","latitude":"38.4083","longitude":"39.2750","depth":"23.4","md":"-.-","ml":"1.7","mw":"-.-","location":"YEDIKARDES-SIVRICE (ELAZIG)"},{"date":"2020.10.01","time":"11:45:24","latitude":"37.2775","longitude":"31.8775","depth":"0.0","md":"-.-","ml":"2.2","mw":"-.-","location":"MADENLI-SEYDISEHIR (KONYA)"},{"date":"2020.10.01","time":"11:15:21","latitude":"38.6353","longitude":"38.1180","depth":"1.5","md":"-.-","ml":"2.8","mw":"-.-","location":"FETHIYE-YAZIHAN (MALATYA)"},{"date":"2020.10.01","time":"09:02:41","latitude":"39.1540","longitude":"28.1030","depth":"8.9","md":"-.-","ml":"1.6","mw":"-.-","location":"ORMANICI-SINDIRGI (BALIKESIR)"},{"date":"2020.10.01","time":"08:49:37","latitude":"39.4453","longitude":"31.5802","depth":"0.0","md":"-.-","ml":"1.8","mw":"-.-","location":"BOGURTLEN-SIVRIHISAR (ESKISEHIR)"},{"date":"2020.10.01","time":"08:13:27","latitude":"39.4470","longitude":"31.6023","depth":"0.0","md":"-.-","ml":"1.7","mw":"-.-","location":"BOGURTLEN-SIVRIHISAR (ESKISEHIR)"},{"date":"2020.10.01","time":"08:02:27","latitude":"37.9967","longitude":"34.1052","depth":"6.7","md":"-.-","ml":"1.9","mw":"-.-","location":"KECIKALESI-ALTUNHISAR (NIGDE)"},{"date":"2020.10.01","time":"07:17:26","latitude":"40.8203","longitude":"28.1877","depth":"15.1","md":"-.-","ml":"2.2","mw":"-.-","location":"SILIVRI ACIKLARI-ISTANBUL (MARMARA DENIZI)"},{"date":"2020.10.01","time":"07:04:12","latitude":"38.0537","longitude":"34.0402","depth":"7.4","md":"-.-","ml":"2.7","mw":"-.-","location":"AKCAKENT-(AKSARAY)"},{"date":"2020.10.01","time":"06:14:41","latitude":"37.1170","longitude":"30.4297","depth":"13.6","md":"-.-","ml":"1.7","mw":"-.-","location":"KARATAS-KORKUTELI (ANTALYA)"},{"date":"2020.10.01","time":"06:02:19","latitude":"37.4455","longitude":"39.7187","depth":"12.3","md":"-.-","ml":"3.0","mw":"-.-","location":"DIKILI-VIRANSEHIR (SANLIURFA)"},{"date":"2020.10.01","time":"05:43:15","latitude":"39.1732","longitude":"29.4613","depth":"5.1","md":"-.-","ml":"2.1","mw":"-.-","location":"PUSATLAR-CAVDARHISAR (KUTAHYA)"},{"date":"2020.10.01","time":"04:05:36","latitude":"38.6763","longitude":"38.1042","depth":"5.0","md":"-.-","ml":"3.7","mw":"3.7","location":"AKYAZI-YAZIHAN (MALATYA)"},{"date":"2020.10.01","time":"03:37:43","latitude":"38.1083","longitude":"38.7458","depth":"10.3","md":"-.-","ml":"0.9","mw":"-.-","location":"TEPEHAN-PUTURGE (MALATYA)"},{"date":"2020.10.01","time":"03:24:30","latitude":"39.3313","longitude":"40.3335","depth":"5.0","md":"-.-","ml":"2.5","mw":"-.-","location":"KIGI (BINGOL)"},{"date":"2020.10.01","time":"02:01:23","latitude":"37.9142","longitude":"28.7485","depth":"5.3","md":"-.-","ml":"2.8","mw":"-.-","location":"TEKKEKOY-SARAYKOY (DENIZLI)"},{"date":"2020.10.01","time":"01:27:10","latitude":"38.6840","longitude":"38.1077","depth":"5.0","md":"-.-","ml":"2.3","mw":"-.-","location":"AKYAZI-YAZIHAN (MALATYA)"},{"date":"2020.09.30","time":"22:48:28","latitude":"36.9288","longitude":"27.4955","depth":"5.4","md":"-.-","ml":"1.6","mw":"-.-","location":"GOKOVA KORFEZI (AKDENIZ)"},{"date":"2020.09.30","time":"22:47:06","latitude":"36.9363","longitude":"27.5090","depth":"7.6","md":"-.-","ml":"1.9","mw":"-.-","location":"GOKOVA KORFEZI (AKDENIZ)"},{"date":"2020.09.30","time":"22:08:09","latitude":"37.0582","longitude":"27.9712","depth":"5.4","md":"-.-","ml":"1.9","mw":"-.-","location":"OREN-MILAS (MUGLA)"},{"date":"2020.09.30","time":"22:03:34","latitude":"36.9372","longitude":"27.5303","depth":"6.8","md":"-.-","ml":"1.8","mw":"-.-","location":"GOKOVA KORFEZI (AKDENIZ)"},{"date":"2020.09.30","time":"20:27:26","latitude":"38.4618","longitude":"33.1153","depth":"21.3","md":"-.-","ml":"1.5","mw":"-.-","location":"TASPINAR-CIHANBEYLI (KONYA)"},{"date":"2020.09.30","time":"18:44:47","latitude":"39.4373","longitude":"41.7432","depth":"9.2","md":"-.-","ml":"2.2","mw":"-.-","location":"CAKMAK-HINIS (ERZURUM)"},{"date":"2020.09.30","time":"17:55:28","latitude":"38.2485","longitude":"38.7833","depth":"15.0","md":"-.-","ml":"2.0","mw":"-.-","location":"ORMANICI-PUTURGE (MALATYA)"},{"date":"2020.09.30","time":"16:41:34","latitude":"38.7280","longitude":"40.8488","depth":"8.7","md":"-.-","ml":"1.9","mw":"-.-","location":"BINEKLI-GENC (BINGOL)"},{"date":"2020.09.30","time":"16:10:28","latitude":"35.2955","longitude":"28.3517","depth":"15.7","md":"-.-","ml":"1.9","mw":"-.-","location":"AKDENIZ"},{"date":"2020.09.30","time":"16:01:08","latitude":"39.0893","longitude":"27.8100","depth":"8.1","md":"-.-","ml":"2.4","mw":"-.-","location":"ILYASLAR-KIRKAGAC (MANISA)"},{"date":"2020.09.30","time":"15:57:45","latitude":"37.9822","longitude":"34.0965","depth":"10.8","md":"-.-","ml":"1.9","mw":"-.-","location":"OBRUK-BOR (NIGDE)"},{"date":"2020.09.30","time":"14:47:11","latitude":"39.0802","longitude":"27.5105","depth":"0.0","md":"-.-","ml":"1.5","mw":"-.-","location":"ARPASEKI-KINIK (IZMIR)"},{"date":"2020.09.30","time":"14:40:30","latitude":"37.6338","longitude":"29.8708","depth":"29.8","md":"-.-","ml":"1.5","mw":"-.-","location":"BEYKOY-YESILOVA (BURDUR)"},{"date":"2020.09.30","time":"14:20:18","latitude":"39.5860","longitude":"33.6148","depth":"5.4","md":"-.-","ml":"1.7","mw":"-.-","location":"CERITKALE-KESKIN (KIRIKKALE)"},{"date":"2020.09.30","time":"14:17:57","latitude":"40.4495","longitude":"29.2865","depth":"0.0","md":"-.-","ml":"1.4","mw":"-.-","location":"CELTIKCI-ORHANGAZI (BURSA)"},{"date":"2020.09.30","time":"14:06:20","latitude":"39.2820","longitude":"37.9153","depth":"16.4","md":"-.-","ml":"2.3","mw":"-.-","location":"ODEK-DIVRIGI (SIVAS)"},{"date":"2020.09.30","time":"13:25:10","latitude":"36.8878","longitude":"27.5962","depth":"6.9","md":"-.-","ml":"1.5","mw":"-.-","location":"GOKOVA KORFEZI (AKDENIZ)"},{"date":"2020.09.30","time":"13:05:01","latitude":"39.6020","longitude":"29.4182","depth":"0.0","md":"-.-","ml":"1.3","mw":"-.-","location":"KAYAARASI-TAVSANLI (KUTAHYA)"},{"date":"2020.09.30","time":"13:03:21","latitude":"39.5872","longitude":"29.4448","depth":"0.0","md":"-.-","ml":"1.4","mw":"-.-","location":"KAYAARASI-TAVSANLI (KUTAHYA)"},{"date":"2020.09.30","time":"12:31:48","latitude":"36.9322","longitude":"27.6388","depth":"5.0","md":"-.-","ml":"1.7","mw":"-.-","location":"GOKOVA KORFEZI (AKDENIZ)"},{"date":"2020.09.30","time":"12:27:02","latitude":"39.1443","longitude":"41.2415","depth":"7.1","md":"-.-","ml":"1.9","mw":"-.-","location":"OLCEKLI-VARTO (MUS)"},{"date":"2020.09.30","time":"11:36:03","latitude":"39.9928","longitude":"24.3718","depth":"9.5","md":"-.-","ml":"3.7","mw":"3.9","location":"YUNANISTAN"},{"date":"2020.09.30","time":"11:16:23","latitude":"36.2540","longitude":"31.7795","depth":"8.9","md":"-.-","ml":"1.9","mw":"-.-","location":"ANTALYA KORFEZI (AKDENIZ)"},{"date":"2020.09.30","time":"09:54:32","latitude":"38.6260","longitude":"39.6218","depth":"5.7","md":"-.-","ml":"2.1","mw":"-.-","location":"SEHSUVAR-(ELAZIG)"},{"date":"2020.09.30","time":"08:30:14","latitude":"38.9052","longitude":"43.5960","depth":"27.8","md":"-.-","ml":"1.7","mw":"-.-","location":"CAKIRBEY-(VAN)"},{"date":"2020.09.30","time":"07:54:14","latitude":"38.0405","longitude":"34.1890","depth":"11.4","md":"-.-","ml":"1.6","mw":"-.-","location":"KARAKAPI-ALTUNHISAR (NIGDE)"},{"date":"2020.09.30","time":"07:19:50","latitude":"38.0372","longitude":"34.0613","depth":"5.0","md":"-.-","ml":"3.7","mw":"3.7","location":"OBRUK-BOR (NIGDE)"},{"date":"2020.09.30","time":"07:15:34","latitude":"38.0348","longitude":"34.0698","depth":"5.0","md":"-.-","ml":"4.0","mw":"4.2","location":"KECIKALESI-ALTUNHISAR (NIGDE)"},{"date":"2020.09.30","time":"06:33:54","latitude":"39.9593","longitude":"24.3350","depth":"12.1","md":"-.-","ml":"3.9","mw":"4.0","location":"YUNANISTAN"},{"date":"2020.09.30","time":"05:48:28","latitude":"38.4218","longitude":"31.7925","depth":"5.0","md":"-.-","ml":"1.8","mw":"-.-","location":"TURSUNLU-TUZLUKCU (KONYA)"},{"date":"2020.09.30","time":"05:40:40","latitude":"38.4663","longitude":"39.2312","depth":"5.7","md":"-.-","ml":"3.7","mw":"3.9","location":"ALINCIK-SIVRICE (ELAZIG)"},{"date":"2020.09.30","time":"05:30:03","latitude":"35.7710","longitude":"28.2885","depth":"5.0","md":"-.-","ml":"2.0","mw":"-.-","location":"AKDENIZ"},{"date":"2020.09.30","time":"05:06:49","latitude":"37.5820","longitude":"36.1347","depth":"5.0","md":"-.-","ml":"1.6","mw":"-.-","location":"KOSEPINARI-KADIRLI (OSMANIYE)"},{"date":"2020.09.30","time":"04:57:35","latitude":"39.3053","longitude":"28.2808","depth":"9.9","md":"-.-","ml":"2.6","mw":"-.-","location":"UMURLAR-SINDIRGI (BALIKESIR)"},{"date":"2020.09.30","time":"04:24:26","latitude":"36.9168","longitude":"27.5003","depth":"6.8","md":"-.-","ml":"1.8","mw":"-.-","location":"GOKOVA KORFEZI (AKDENIZ)"},{"date":"2020.09.30","time":"03:32:09","latitude":"37.1140","longitude":"30.6000","depth":"11.4","md":"-.-","ml":"1.1","mw":"-.-","location":"SELIMIYE-DOSEMEALTI (ANTALYA)"},{"date":"2020.09.30","time":"03:28:14","latitude":"39.8822","longitude":"39.9812","depth":"24.5","md":"-.-","ml":"2.0","mw":"-.-","location":"YESILYAKA-CAYIRLI (ERZINCAN)"},{"date":"2020.09.30","time":"03:14:47","latitude":"37.0000","longitude":"27.5678","depth":"10.6","md":"-.-","ml":"1.0","mw":"-.-","location":"GOKOVA KORFEZI (AKDENIZ)"},{"date":"2020.09.30","time":"03:10:23","latitude":"36.9723","longitude":"27.5983","depth":"1.0","md":"-.-","ml":"1.3","mw":"-.-","location":"GOKOVA KORFEZI (AKDENIZ)"},{"date":"2020.09.30","time":"02:07:41","latitude":"36.9328","longitude":"27.5352","depth":"6.2","md":"-.-","ml":"1.4","mw":"-.-","location":"GOKOVA KORFEZI (AKDENIZ)"},{"date":"2020.09.30","time":"01:37:26","latitude":"35.9483","longitude":"28.1950","depth":"7.6","md":"-.-","ml":"2.1","mw":"-.-","location":"AKDENIZ"},{"date":"2020.09.30","time":"01:05:58","latitude":"36.8250","longitude":"35.9655","depth":"6.3","md":"-.-","ml":"2.5","mw":"-.-","location":"ISKENDERUN KORFEZI (AKDENIZ)"},{"date":"2020.09.30","time":"00:48:39","latitude":"41.4037","longitude":"44.0145","depth":"4.0","md":"-.-","ml":"2.1","mw":"-.-","location":"GURCISTAN"},{"date":"2020.09.29","time":"23:49:32","latitude":"36.9595","longitude":"27.4668","depth":"13.3","md":"-.-","ml":"1.1","mw":"-.-","location":"GOKOVA KORFEZI (AKDENIZ)"},{"date":"2020.09.29","time":"23:23:49","latitude":"38.4935","longitude":"31.8937","depth":"15.8","md":"-.-","ml":"1.5","mw":"-.-","location":"GOLYAKA-ILGIN (KONYA)"},{"date":"2020.09.29","time":"23:22:06","latitude":"37.1152","longitude":"30.4648","depth":"5.6","md":"-.-","ml":"2.1","mw":"-.-","location":"BAYATBADEMLERI-KORKUTELI (ANTALYA)"},{"date":"2020.09.29","time":"23:18:23","latitude":"38.3432","longitude":"39.0468","depth":"8.8","md":"-.-","ml":"1.5","mw":"-.-","location":"CEVRIMTAS-SIVRICE (ELAZIG)"},{"date":"2020.09.29","time":"23:15:00","latitude":"35.8728","longitude":"28.3305","depth":"8.9","md":"-.-","ml":"1.6","mw":"-.-","location":"AKDENIZ"},{"date":"2020.09.29","time":"22:32:09","latitude":"38.4383","longitude":"31.7883","depth":"4.6","md":"-.-","ml":"1.6","mw":"-.-","location":"KONARI-TUZLUKCU (KONYA)"},{"date":"2020.09.29","time":"21:53:23","latitude":"38.4725","longitude":"31.8295","depth":"5.4","md":"-.-","ml":"1.9","mw":"-.-","location":"GOLYAKA-ILGIN (KONYA)"},{"date":"2020.09.29","time":"21:53:00","latitude":"38.4467","longitude":"31.7752","depth":"17.5","md":"-.-","ml":"1.9","mw":"-.-","location":"KONARI-TUZLUKCU (KONYA)"},{"date":"2020.09.29","time":"21:51:47","latitude":"38.4718","longitude":"31.8262","depth":"5.0","md":"-.-","ml":"1.7","mw":"-.-","location":"GOLYAKA-ILGIN (KONYA)"},{"date":"2020.09.29","time":"21:48:46","latitude":"38.4255","longitude":"31.7943","depth":"13.8","md":"-.-","ml":"1.0","mw":"-.-","location":"TURSUNLU-TUZLUKCU (KONYA)"},{"date":"2020.09.29","time":"21:41:47","latitude":"38.4497","longitude":"31.8020","depth":"5.4","md":"-.-","ml":"2.2","mw":"-.-","location":"KONARI-TUZLUKCU (KONYA)"},{"date":"2020.09.29","time":"21:38:38","latitude":"36.9285","longitude":"27.4997","depth":"14.0","md":"-.-","ml":"1.6","mw":"-.-","location":"GOKOVA KORFEZI (AKDENIZ)"},{"date":"2020.09.29","time":"21:36:13","latitude":"38.4605","longitude":"31.8252","depth":"5.2","md":"-.-","ml":"1.6","mw":"-.-","location":"GOLYAKA-ILGIN (KONYA)"},{"date":"2020.09.29","time":"21:32:30","latitude":"36.9258","longitude":"27.5162","depth":"6.9","md":"-.-","ml":"2.7","mw":"-.-","location":"GOKOVA KORFEZI (AKDENIZ)"},{"date":"2020.09.29","time":"21:28:17","latitude":"38.4648","longitude":"31.8127","depth":"5.0","md":"-.-","ml":"3.7","mw":"3.9","location":"KUNDULLU-TUZLUKCU (KONYA)"},{"date":"2020.09.29","time":"21:26:49","latitude":"36.9395","longitude":"27.5043","depth":"10.8","md":"-.-","ml":"1.6","mw":"-.-","location":"GOKOVA KORFEZI (AKDENIZ)"},{"date":"2020.09.29","time":"21:15:43","latitude":"36.9468","longitude":"27.5260","depth":"10.8","md":"-.-","ml":"1.3","mw":"-.-","location":"GOKOVA KORFEZI (AKDENIZ)"},{"date":"2020.09.29","time":"20:36:52","latitude":"36.8975","longitude":"27.4945","depth":"13.7","md":"-.-","ml":"1.8","mw":"-.-","location":"GOKOVA KORFEZI (AKDENIZ)"},{"date":"2020.09.29","time":"20:19:49","latitude":"35.8200","longitude":"29.6793","depth":"5.0","md":"-.-","ml":"1.7","mw":"-.-","location":"AKDENIZ"},{"date":"2020.09.29","time":"19:20:30","latitude":"36.9223","longitude":"27.4693","depth":"11.7","md":"-.-","ml":"1.9","mw":"-.-","location":"GOKOVA KORFEZI (AKDENIZ)"},{"date":"2020.09.29","time":"19:14:19","latitude":"36.9462","longitude":"27.5290","depth":"6.4","md":"-.-","ml":"2.8","mw":"-.-","location":"GOKOVA KORFEZI (AKDENIZ)"},{"date":"2020.09.29","time":"19:07:20","latitude":"36.9332","longitude":"27.5420","depth":"9.1","md":"-.-","ml":"3.2","mw":"3.2","location":"GOKOVA KORFEZI (AKDENIZ)"},{"date":"2020.09.29","time":"18:58:46","latitude":"38.2283","longitude":"38.7512","depth":"14.4","md":"-.-","ml":"1.3","mw":"-.-","location":"PAZARCIK-PUTURGE (MALATYA)"},{"date":"2020.09.29","time":"18:42:54","latitude":"39.9350","longitude":"24.2678","depth":"12.4","md":"-.-","ml":"3.6","mw":"3.6","location":"YUNANISTAN"},{"date":"2020.09.29","time":"18:30:57","latitude":"39.0502","longitude":"41.7475","depth":"5.0","md":"-.-","ml":"2.8","mw":"-.-","location":"YURTTUTAN-VARTO (MUS)"},{"date":"2020.09.29","time":"17:48:25","latitude":"36.0193","longitude":"27.3238","depth":"9.4","md":"-.-","ml":"3.2","mw":"3.2","location":"AKDENIZ"},{"date":"2020.09.29","time":"16:55:02","latitude":"37.2970","longitude":"27.9960","depth":"0.0","md":"-.-","ml":"1.3","mw":"-.-","location":"KOKLUK-YATAGAN (MUGLA)"},{"date":"2020.09.29","time":"16:40:47","latitude":"37.9702","longitude":"34.1435","depth":"13.2","md":"-.-","ml":"1.7","mw":"-.-","location":"KARAKAPI-ALTUNHISAR (NIGDE)"},{"date":"2020.09.29","time":"16:37:43","latitude":"38.3960","longitude":"38.5785","depth":"9.5","md":"-.-","ml":"1.2","mw":"-.-","location":"SISMAN-BATTALGAZI (MALATYA)"},{"date":"2020.09.29","time":"16:27:57","latitude":"37.0273","longitude":"28.8257","depth":"26.8","md":"-.-","ml":"1.4","mw":"-.-","location":"CAYHISAR-KOYCEGIZ (MUGLA)"},{"date":"2020.09.29","time":"16:06:47","latitude":"37.9720","longitude":"34.0862","depth":"11.2","md":"-.-","ml":"2.1","mw":"-.-","location":"OBRUK-BOR (NIGDE)"},{"date":"2020.09.29","time":"16:04:38","latitude":"37.9863","longitude":"34.0903","depth":"4.5","md":"-.-","ml":"2.8","mw":"-.-","location":"OBRUK-BOR (NIGDE)"},{"date":"2020.09.29","time":"16:02:19","latitude":"38.0147","longitude":"34.1320","depth":"12.7","md":"-.-","ml":"2.2","mw":"-.-","location":"KECIKALESI-ALTUNHISAR (NIGDE)"},{"date":"2020.09.29","time":"15:45:59","latitude":"37.9757","longitude":"34.1150","depth":"5.0","md":"-.-","ml":"2.8","mw":"-.-","location":"OBRUK-BOR (NIGDE)"},{"date":"2020.09.29","time":"15:03:30","latitude":"38.9830","longitude":"35.7970","depth":"8.1","md":"-.-","ml":"2.3","mw":"-.-","location":"KARAHIDIRLI-BUNYAN (KAYSERI)"},{"date":"2020.09.29","time":"14:49:29","latitude":"37.9432","longitude":"34.0963","depth":"13.5","md":"-.-","ml":"1.9","mw":"-.-","location":"OBRUK-BOR (NIGDE)"},{"date":"2020.09.29","time":"14:22:49","latitude":"37.9827","longitude":"34.1077","depth":"7.6","md":"-.-","ml":"3.9","mw":"4.0","location":"OBRUK-BOR (NIGDE)"},{"date":"2020.09.29","time":"13:25:20","latitude":"39.2457","longitude":"41.5655","depth":"5.1","md":"-.-","ml":"2.1","mw":"-.-","location":"KOCYATAGI-VARTO (MUS)"},{"date":"2020.09.29","time":"13:25:08","latitude":"39.9045","longitude":"24.1855","depth":"9.5","md":"-.-","ml":"3.0","mw":"-.-","location":"YUNANISTAN"},{"date":"2020.09.29","time":"13:07:01","latitude":"39.7030","longitude":"30.7225","depth":"0.0","md":"-.-","ml":"1.7","mw":"-.-","location":"YORUKKARACAOREN-ODUNPAZARI (ESKISEHIR)"},{"date":"2020.09.29","time":"12:07:36","latitude":"39.8548","longitude":"24.1137","depth":"30.0","md":"-.-","ml":"2.4","mw":"-.-","location":"YUNANISTAN"},{"date":"2020.09.29","time":"12:04:17","latitude":"39.7630","longitude":"35.4262","depth":"5.4","md":"-.-","ml":"1.7","mw":"-.-","location":"YAYCILAR-SORGUN (YOZGAT)"},{"date":"2020.09.29","time":"11:49:38","latitude":"38.9715","longitude":"35.7893","depth":"5.4","md":"-.-","ml":"2.0","mw":"-.-","location":"KARAHIDIRLI-BUNYAN (KAYSERI)"},{"date":"2020.09.29","time":"11:47:03","latitude":"37.6377","longitude":"29.2735","depth":"0.0","md":"-.-","ml":"1.7","mw":"-.-","location":"SERINHISAR (DENIZLI)"},{"date":"2020.09.29","time":"11:44:27","latitude":"37.2167","longitude":"37.2392","depth":"0.0","md":"-.-","ml":"1.8","mw":"-.-","location":"ULKERLI-SEHITKAMIL (GAZIANTEP)"},{"date":"2020.09.29","time":"11:27:10","latitude":"39.9018","longitude":"42.3033","depth":"7.9","md":"-.-","ml":"2.0","mw":"-.-","location":"HAYDARLI-HORASAN (ERZURUM)"},{"date":"2020.09.29","time":"10:36:22","latitude":"39.8402","longitude":"28.8322","depth":"0.0","md":"-.-","ml":"1.7","mw":"-.-","location":"ALTINTAS-ORHANELI (BURSA)"},{"date":"2020.09.29","time":"10:11:42","latitude":"40.8560","longitude":"28.1678","depth":"5.2","md":"-.-","ml":"1.8","mw":"-.-","location":"MARMARA DENIZI"},{"date":"2020.09.29","time":"10:11:02","latitude":"36.3245","longitude":"27.2248","depth":"4.8","md":"-.-","ml":"1.8","mw":"-.-","location":"ONIKI ADALAR (AKDENIZ)"},{"date":"2020.09.29","time":"10:09:39","latitude":"38.3270","longitude":"39.0457","depth":"13.2","md":"-.-","ml":"1.6","mw":"-.-","location":"MEZRAA-DOGANYOL (MALATYA)"},{"date":"2020.09.29","time":"09:06:07","latitude":"36.5233","longitude":"28.9182","depth":"25.3","md":"-.-","ml":"1.5","mw":"-.-","location":"OLUDENIZ ACIKLARI-MUGLA (AKDENIZ)"},{"date":"2020.09.29","time":"08:57:06","latitude":"38.4243","longitude":"31.7948","depth":"5.4","md":"-.-","ml":"1.7","mw":"-.-","location":"TURSUNLU-TUZLUKCU (KONYA)"},{"date":"2020.09.29","time":"08:48:07","latitude":"38.4128","longitude":"27.3127","depth":"8.7","md":"-.-","ml":"2.0","mw":"-.-","location":"KAVAKLIDERE-BORNOVA (IZMIR)"},{"date":"2020.09.29","time":"07:52:59","latitude":"40.7478","longitude":"27.3793","depth":"11.0","md":"-.-","ml":"2.0","mw":"-.-","location":"GAZIKOY-SARKOY (TEKIRDAG)"},{"date":"2020.09.29","time":"06:44:42","latitude":"35.9750","longitude":"28.2755","depth":"5.0","md":"-.-","ml":"1.4","mw":"-.-","location":"AKDENIZ"},{"date":"2020.09.29","time":"06:39:35","latitude":"35.8867","longitude":"28.3348","depth":"5.0","md":"-.-","ml":"1.6","mw":"-.-","location":"AKDENIZ"},{"date":"2020.09.29","time":"06:38:31","latitude":"36.0235","longitude":"28.2628","depth":"7.5","md":"-.-","ml":"1.7","mw":"-.-","location":"AKDENIZ"},{"date":"2020.09.29","time":"06:07:10","latitude":"37.0070","longitude":"28.3940","depth":"10.7","md":"-.-","ml":"1.3","mw":"-.-","location":"SIRINKOY-ULA (MUGLA)"},{"date":"2020.09.29","time":"06:00:53","latitude":"39.0305","longitude":"27.8570","depth":"6.2","md":"-.-","ml":"2.7","mw":"-.-","location":"MUSALAR-AKHISAR (MANISA)"},{"date":"2020.09.29","time":"05:52:00","latitude":"39.0333","longitude":"27.8590","depth":"7.1","md":"-.-","ml":"2.5","mw":"-.-","location":"MUSALAR-AKHISAR (MANISA)"},{"date":"2020.09.29","time":"05:45:54","latitude":"35.8858","longitude":"28.2485","depth":"5.0","md":"-.-","ml":"1.4","mw":"-.-","location":"AKDENIZ"},{"date":"2020.09.29","time":"05:18:04","latitude":"36.3543","longitude":"28.7112","depth":"6.4","md":"-.-","ml":"1.4","mw":"-.-","location":"AKDENIZ"},{"date":"2020.09.29","time":"05:03:55","latitude":"35.3300","longitude":"25.8985","depth":"4.2","md":"-.-","ml":"2.5","mw":"-.-","location":"GIRIT ADASI (AKDENIZ)"},{"date":"2020.09.29","time":"04:43:30","latitude":"35.7818","longitude":"29.5105","depth":"13.1","md":"-.-","ml":"1.8","mw":"-.-","location":"AKDENIZ"},{"date":"2020.09.29","time":"04:34:07","latitude":"39.7537","longitude":"33.3577","depth":"7.8","md":"-.-","ml":"1.1","mw":"-.-","location":"CAMLICA-BAHSILI (KIRIKKALE)"},{"date":"2020.09.29","time":"04:33:30","latitude":"38.2517","longitude":"38.7475","depth":"10.4","md":"-.-","ml":"1.8","mw":"-.-","location":"BALPINARI-PUTURGE (MALATYA)"},{"date":"2020.09.29","time":"04:18:17","latitude":"38.7612","longitude":"38.1435","depth":"8.1","md":"-.-","ml":"1.8","mw":"-.-","location":"YUREKTASI-ARGUVAN (MALATYA)"},{"date":"2020.09.29","time":"04:03:24","latitude":"38.4308","longitude":"44.0917","depth":"6.3","md":"-.-","ml":"1.8","mw":"-.-","location":"KARGALI-SARAY (VAN)"},{"date":"2020.09.29","time":"03:57:22","latitude":"36.0082","longitude":"28.1600","depth":"7.3","md":"-.-","ml":"1.2","mw":"-.-","location":"AKDENIZ"},{"date":"2020.09.29","time":"03:55:00","latitude":"37.7252","longitude":"29.7000","depth":"5.0","md":"-.-","ml":"1.2","mw":"-.-","location":"CALTI-CARDAK (DENIZLI)"},{"date":"2020.09.29","time":"03:45:16","latitude":"38.7398","longitude":"37.9863","depth":"14.7","md":"-.-","ml":"1.0","mw":"-.-","location":"IPEKYOLU-HEKIMHAN (MALATYA)"},{"date":"2020.09.29","time":"03:40:37","latitude":"38.6990","longitude":"38.1267","depth":"4.6","md":"-.-","ml":"2.2","mw":"-.-","location":"AKYAZI-YAZIHAN (MALATYA)"},{"date":"2020.09.29","time":"03:39:45","latitude":"38.0973","longitude":"38.7172","depth":"6.0","md":"-.-","ml":"2.4","mw":"-.-","location":"SORGUCLU-PUTURGE (MALATYA)"},{"date":"2020.09.29","time":"03:27:00","latitude":"39.5885","longitude":"28.7460","depth":"5.2","md":"-.-","ml":"1.7","mw":"-.-","location":"SINDERLER-DURSUNBEY (BALIKESIR)"},{"date":"2020.09.29","time":"03:12:18","latitude":"35.0418","longitude":"26.9417","depth":"13.8","md":"-.-","ml":"2.8","mw":"-.-","location":"GIRIT ADASI ACIKLARI (AKDENIZ)"},{"date":"2020.09.29","time":"03:11:03","latitude":"39.0405","longitude":"27.7902","depth":"5.3","md":"-.-","ml":"1.3","mw":"-.-","location":"TUTENLI-AKHISAR (MANISA)"},{"date":"2020.09.29","time":"02:27:52","latitude":"38.4410","longitude":"39.2372","depth":"9.4","md":"-.-","ml":"0.9","mw":"-.-","location":"KURKKOY-SIVRICE (ELAZIG)"},{"date":"2020.09.29","time":"01:06:10","latitude":"36.1677","longitude":"29.7892","depth":"48.0","md":"-.-","ml":"3.2","mw":"3.1","location":"SAHILKILINCLI-KAS (ANTALYA)"},{"date":"2020.09.29","time":"00:52:11","latitude":"39.1523","longitude":"27.7567","depth":"11.7","md":"-.-","ml":"1.0","mw":"-.-","location":"KUCUKYAYA-KIRKAGAC (MANISA)"},{"date":"2020.09.29","time":"00:20:49","latitude":"33.9210","longitude":"31.9132","depth":"13.2","md":"-.-","ml":"3.0","mw":"-.-","location":"AKDENIZ"},{"date":"2020.09.28","time":"23:23:26","latitude":"38.3765","longitude":"33.2220","depth":"5.0","md":"-.-","ml":"3.1","mw":"3.1","location":"TASPINAR-CIHANBEYLI (KONYA)"},{"date":"2020.09.28","time":"23:03:50","latitude":"39.9520","longitude":"24.3070","depth":"5.4","md":"-.-","ml":"2.4","mw":"-.-","location":"YUNANISTAN"},{"date":"2020.09.28","time":"22:36:19","latitude":"38.6872","longitude":"38.1385","depth":"5.0","md":"-.-","ml":"3.4","mw":"3.4","location":"AKYAZI-YAZIHAN (MALATYA)"},{"date":"2020.09.28","time":"20:54:46","latitude":"37.0747","longitude":"28.9733","depth":"22.2","md":"-.-","ml":"1.5","mw":"-.-","location":"OTMANLAR-KOYCEGIZ (MUGLA)"},{"date":"2020.09.28","time":"20:28:41","latitude":"39.6350","longitude":"25.4232","depth":"7.0","md":"-.-","ml":"1.9","mw":"-.-","location":"EGE DENIZI"},{"date":"2020.09.28","time":"19:45:16","latitude":"38.3518","longitude":"38.9705","depth":"12.1","md":"-.-","ml":"1.8","mw":"-.-","location":"TOPALUSAGI-SIVRICE (ELAZIG)"},{"date":"2020.09.28","time":"19:33:43","latitude":"39.9642","longitude":"24.4205","depth":"11.7","md":"-.-","ml":"3.0","mw":"2.8","location":"YUNANISTAN"},{"date":"2020.09.28","time":"17:49:26","latitude":"36.9860","longitude":"29.3550","depth":"5.0","md":"-.-","ml":"2.9","mw":"-.-","location":"ARIKAYA-CAMELI (DENIZLI)"},{"date":"2020.09.28","time":"17:38:33","latitude":"39.9198","longitude":"24.4342","depth":"5.0","md":"-.-","ml":"2.7","mw":"-.-","location":"YUNANISTAN"},{"date":"2020.09.28","time":"15:48:50","latitude":"39.3313","longitude":"25.4440","depth":"6.3","md":"-.-","ml":"2.4","mw":"-.-","location":"EGE DENIZI"},{"date":"2020.09.28","time":"15:21:01","latitude":"40.0837","longitude":"24.2713","depth":"30.6","md":"-.-","ml":"2.3","mw":"-.-","location":"YUNANISTAN"},{"date":"2020.09.28","time":"15:17:50","latitude":"38.7607","longitude":"40.0125","depth":"22.2","md":"-.-","ml":"2.2","mw":"-.-","location":"KARAMAN-KOVANCILAR (ELAZIG)"},{"date":"2020.09.28","time":"15:08:49","latitude":"40.1262","longitude":"24.4538","depth":"11.0","md":"-.-","ml":"3.1","mw":"3.2","location":"YUNANISTAN"},{"date":"2020.09.28","time":"14:05:46","latitude":"38.0462","longitude":"34.0363","depth":"5.0","md":"-.-","ml":"2.8","mw":"-.-","location":"OBRUK-BOR (NIGDE)"},{"date":"2020.09.28","time":"12:46:33","latitude":"38.6388","longitude":"38.0955","depth":"1.9","md":"-.-","ml":"2.4","mw":"-.-","location":"ALICAN-YAZIHAN (MALATYA)"},{"date":"2020.09.28","time":"12:46:19","latitude":"34.9282","longitude":"27.1982","depth":"5.0","md":"-.-","ml":"2.8","mw":"-.-","location":"GIRIT ADASI ACIKLARI (AKDENIZ)"},{"date":"2020.09.28","time":"12:42:33","latitude":"37.8850","longitude":"38.0350","depth":"2.5","md":"-.-","ml":"1.9","mw":"-.-","location":"UZUNKOY-(ADIYAMAN)"},{"date":"2020.09.28","time":"12:34:43","latitude":"41.1827","longitude":"28.7747","depth":"0.0","md":"-.-","ml":"1.4","mw":"-.-","location":"ARNAVUTKOY (ISTANBUL)"},{"date":"2020.09.28","time":"12:30:04","latitude":"39.8487","longitude":"28.7990","depth":"0.0","md":"-.-","ml":"1.6","mw":"-.-","location":"GAZIOLUK-ORHANELI (BURSA)"},{"date":"2020.09.28","time":"11:58:39","latitude":"37.2100","longitude":"28.2677","depth":"0.0","md":"-.-","ml":"1.9","mw":"-.-","location":"YESILYURT-(MUGLA)"},{"date":"2020.09.28","time":"11:55:13","latitude":"37.2340","longitude":"28.2135","depth":"4.4","md":"-.-","ml":"1.6","mw":"-.-","location":"PASAPINARI-(MUGLA)"},{"date":"2020.09.28","time":"11:10:59","latitude":"37.0415","longitude":"37.0878","depth":"28.8","md":"-.-","ml":"1.8","mw":"-.-","location":"CEVRELI-SAHINBEY (GAZIANTEP)"},{"date":"2020.09.28","time":"10:55:59","latitude":"37.8743","longitude":"35.8955","depth":"2.2","md":"-.-","ml":"1.9","mw":"-.-","location":"OLUCAK-FEKE (ADANA)"},{"date":"2020.09.28","time":"10:44:39","latitude":"39.8800","longitude":"24.3425","depth":"1.4","md":"-.-","ml":"2.7","mw":"2.6","location":"YUNANISTAN"},{"date":"2020.09.28","time":"09:09:48","latitude":"38.1740","longitude":"38.9352","depth":"1.9","md":"-.-","ml":"2.4","mw":"-.-","location":"ORNEKKOY-PUTURGE (MALATYA)"},{"date":"2020.09.28","time":"09:02:20","latitude":"42.2755","longitude":"29.5020","depth":"9.9","md":"-.-","ml":"2.8","mw":"-.-","location":"KARADENIZ"},{"date":"2020.09.28","time":"08:52:17","latitude":"38.7543","longitude":"38.0585","depth":"5.0","md":"-.-","ml":"1.8","mw":"-.-","location":"YAGCA-HEKIMHAN (MALATYA)"},{"date":"2020.09.28","time":"08:30:38","latitude":"36.5908","longitude":"28.0862","depth":"76.2","md":"-.-","ml":"3.0","mw":"-.-","location":"TASLICA-MARMARIS (MUGLA)"},{"date":"2020.09.28","time":"07:43:30","latitude":"39.8743","longitude":"24.1173","depth":"23.6","md":"-.-","ml":"3.3","mw":"3.2","location":"YUNANISTAN"},{"date":"2020.09.28","time":"07:37:55","latitude":"37.0812","longitude":"27.2022","depth":"5.0","md":"-.-","ml":"1.5","mw":"-.-","location":"GUMUSLUK-BODRUM (MUGLA)"},{"date":"2020.09.28","time":"07:18:31","latitude":"35.8258","longitude":"29.7360","depth":"8.3","md":"-.-","ml":"1.9","mw":"-.-","location":"AKDENIZ"},{"date":"2020.09.28","time":"07:15:57","latitude":"38.3397","longitude":"38.7658","depth":"5.4","md":"-.-","ml":"2.5","mw":"-.-","location":"CANAKCI-KALE (MALATYA)"},{"date":"2020.09.28","time":"07:12:41","latitude":"40.0242","longitude":"24.4280","depth":"11.5","md":"-.-","ml":"4.8","mw":"4.8","location":"YUNANISTAN"},{"date":"2020.09.28","time":"07:06:20","latitude":"39.7053","longitude":"24.2462","depth":"8.6","md":"-.-","ml":"2.6","mw":"-.-","location":"YUNANISTAN"},{"date":"2020.09.28","time":"05:49:33","latitude":"39.9878","longitude":"24.3180","depth":"21.2","md":"-.-","ml":"3.0","mw":"3.1","location":"YUNANISTAN"},{"date":"2020.09.28","time":"05:47:19","latitude":"35.8193","longitude":"30.0068","depth":"5.0","md":"-.-","ml":"3.4","mw":"3.6","location":"AKDENIZ"},{"date":"2020.09.28","time":"05:38:37","latitude":"36.0473","longitude":"28.1142","depth":"22.7","md":"-.-","ml":"1.4","mw":"-.-","location":"AKDENIZ"},{"date":"2020.09.28","time":"05:29:00","latitude":"39.9912","longitude":"24.4095","depth":"10.3","md":"-.-","ml":"3.4","mw":"3.4","location":"YUNANISTAN"},{"date":"2020.09.28","time":"04:55:40","latitude":"40.6728","longitude":"42.4828","depth":"4.0","md":"-.-","ml":"1.9","mw":"-.-","location":"YAZILI-SENKAYA (ERZURUM)"},{"date":"2020.09.28","time":"04:08:08","latitude":"38.8248","longitude":"43.4390","depth":"23.5","md":"-.-","ml":"1.7","mw":"-.-","location":"GEDIKBULAK-(VAN)"},{"date":"2020.09.28","time":"04:06:37","latitude":"40.0958","longitude":"24.5432","depth":"5.0","md":"-.-","ml":"1.8","mw":"-.-","location":"EGE DENIZI"},{"date":"2020.09.28","time":"03:08:29","latitude":"39.7672","longitude":"23.9740","depth":"24.5","md":"-.-","ml":"2.9","mw":"-.-","location":"YUNANISTAN"},{"date":"2020.09.28","time":"02:50:56","latitude":"36.3982","longitude":"26.5028","depth":"19.3","md":"-.-","ml":"2.1","mw":"-.-","location":"AKDENIZ"},{"date":"2020.09.28","time":"01:54:36","latitude":"40.5465","longitude":"27.4722","depth":"14.3","md":"-.-","ml":"2.3","mw":"-.-","location":"EKINLIK-MARMARA (BALIKESIR)"},{"date":"2020.09.28","time":"00:43:42","latitude":"37.2900","longitude":"31.0228","depth":"128.9","md":"-.-","ml":"2.9","mw":"-.-","location":"HASKIZILOREN-SERIK (ANTALYA)"},{"date":"2020.09.28","time":"00:32:24","latitude":"40.0035","longitude":"24.3892","depth":"9.2","md":"-.-","ml":"3.3","mw":"3.3","location":"YUNANISTAN"},{"date":"2020.09.28","time":"00:25:08","latitude":"39.9645","longitude":"24.4242","depth":"9.5","md":"-.-","ml":"2.7","mw":"-.-","location":"YUNANISTAN"},{"date":"2020.09.28","time":"00:03:38","latitude":"39.9932","longitude":"24.4658","depth":"8.0","md":"-.-","ml":"3.4","mw":"3.4","location":"YUNANISTAN"},{"date":"2020.09.27","time":"23:29:04","latitude":"36.9755","longitude":"27.2988","depth":"17.8","md":"-.-","ml":"1.3","mw":"-.-","location":"AKYARLAR-BODRUM (MUGLA)"},{"date":"2020.09.27","time":"23:08:00","latitude":"40.0653","longitude":"24.4307","depth":"8.1","md":"-.-","ml":"2.8","mw":"-.-","location":"YUNANISTAN"},{"date":"2020.09.27","time":"23:03:48","latitude":"39.9507","longitude":"24.4387","depth":"11.9","md":"-.-","ml":"2.1","mw":"-.-","location":"YUNANISTAN"},{"date":"2020.09.27","time":"22:56:17","latitude":"36.9647","longitude":"34.4295","depth":"5.0","md":"-.-","ml":"3.1","mw":"3.1","location":"DEMIRISIK-MEZITLI (MERSIN)"},{"date":"2020.09.27","time":"22:50:51","latitude":"38.4852","longitude":"39.3243","depth":"19.0","md":"-.-","ml":"1.8","mw":"-.-","location":"GUNEYKOY-SIVRICE (ELAZIG)"},{"date":"2020.09.27","time":"22:31:33","latitude":"39.9855","longitude":"24.0942","depth":"29.8","md":"-.-","ml":"2.1","mw":"-.-","location":"YUNANISTAN"},{"date":"2020.09.27","time":"22:06:27","latitude":"40.0210","longitude":"24.4422","depth":"5.0","md":"-.-","ml":"1.9","mw":"-.-","location":"YUNANISTAN"},{"date":"2020.09.27","time":"21:59:17","latitude":"39.9260","longitude":"24.3785","depth":"5.0","md":"-.-","ml":"2.0","mw":"-.-","location":"YUNANISTAN"},{"date":"2020.09.27","time":"21:55:46","latitude":"40.0112","longitude":"24.4722","depth":"7.8","md":"-.-","ml":"3.6","mw":"3.8","location":"YUNANISTAN"},{"date":"2020.09.27","time":"21:45:58","latitude":"39.9588","longitude":"24.3537","depth":"6.8","md":"-.-","ml":"2.6","mw":"-.-","location":"YUNANISTAN"},{"date":"2020.09.27","time":"21:40:46","latitude":"38.5325","longitude":"39.3925","depth":"24.0","md":"-.-","ml":"1.7","mw":"-.-","location":"DEREBOGAZI-(ELAZIG)"},{"date":"2020.09.27","time":"21:37:15","latitude":"37.5513","longitude":"35.5637","depth":"5.0","md":"-.-","ml":"2.4","mw":"-.-","location":"ENIZCAKIRI-KOZAN (ADANA)"},{"date":"2020.09.27","time":"21:37:05","latitude":"39.0923","longitude":"42.1883","depth":"5.0","md":"-.-","ml":"1.7","mw":"-.-","location":"ARAKONAK-BULANIK (MUS)"},{"date":"2020.09.27","time":"21:35:38","latitude":"35.7913","longitude":"28.2750","depth":"10.5","md":"-.-","ml":"1.4","mw":"-.-","location":"AKDENIZ"},{"date":"2020.09.27","time":"21:18:47","latitude":"40.1687","longitude":"24.1232","depth":"29.9","md":"-.-","ml":"2.3","mw":"-.-","location":"YUNANISTAN"},{"date":"2020.09.27","time":"21:12:09","latitude":"36.9370","longitude":"27.9978","depth":"10.3","md":"-.-","ml":"1.7","mw":"-.-","location":"GOKOVA KORFEZI (AKDENIZ)"},{"date":"2020.09.27","time":"20:50:37","latitude":"40.0442","longitude":"24.3078","depth":"16.1","md":"-.-","ml":"2.8","mw":"-.-","location":"YUNANISTAN"},{"date":"2020.09.27","time":"20:40:49","latitude":"39.8713","longitude":"24.2485","depth":"22.7","md":"-.-","ml":"1.9","mw":"-.-","location":"YUNANISTAN"},{"date":"2020.09.27","time":"20:30:06","latitude":"40.0323","longitude":"24.4385","depth":"5.0","md":"-.-","ml":"2.0","mw":"-.-","location":"YUNANISTAN"},{"date":"2020.09.27","time":"19:48:57","latitude":"40.1910","longitude":"24.3705","depth":"9.8","md":"-.-","ml":"3.1","mw":"3.1","location":"YUNANISTAN"},{"date":"2020.09.27","time":"19:48:17","latitude":"37.5768","longitude":"42.5163","depth":"5.3","md":"-.-","ml":"2.0","mw":"-.-","location":"SIRNAK (SIRNAK)"},{"date":"2020.09.27","time":"19:45:49","latitude":"39.9955","longitude":"24.3780","depth":"4.9","md":"-.-","ml":"2.9","mw":"-.-","location":"YUNANISTAN"},{"date":"2020.09.27","time":"19:42:44","latitude":"35.5288","longitude":"29.5850","depth":"5.0","md":"-.-","ml":"2.1","mw":"-.-","location":"AKDENIZ"},{"date":"2020.09.27","time":"19:05:08","latitude":"40.0028","longitude":"24.3107","depth":"20.9","md":"-.-","ml":"4.0","mw":"4.2","location":"YUNANISTAN"},{"date":"2020.09.27","time":"19:02:44","latitude":"40.0083","longitude":"24.4885","depth":"14.0","md":"-.-","ml":"3.0","mw":"-.-","location":"EGE DENIZI"},{"date":"2020.09.27","time":"18:47:39","latitude":"38.5048","longitude":"25.8128","depth":"7.0","md":"-.-","ml":"2.3","mw":"-.-","location":"SAKIZ ADASI (EGE DENIZI)"},{"date":"2020.09.27","time":"18:03:27","latitude":"39.9458","longitude":"24.2972","depth":"9.5","md":"-.-","ml":"2.5","mw":"-.-","location":"YUNANISTAN"},{"date":"2020.09.27","time":"18:01:29","latitude":"38.9732","longitude":"32.8542","depth":"0.0","md":"-.-","ml":"1.7","mw":"-.-","location":"CELEP-KULU (KONYA)"},{"date":"2020.09.27","time":"17:44:37","latitude":"38.1802","longitude":"27.6605","depth":"6.4","md":"-.-","ml":"1.5","mw":"-.-","location":"TOKATBASI-BAYINDIR (IZMIR)"},{"date":"2020.09.27","time":"16:36:03","latitude":"39.7272","longitude":"24.2477","depth":"13.3","md":"-.-","ml":"2.4","mw":"-.-","location":"YUNANISTAN"},{"date":"2020.09.27","time":"16:16:49","latitude":"40.0125","longitude":"24.4060","depth":"8.8","md":"-.-","ml":"4.0","mw":"4.0","location":"YUNANISTAN"},{"date":"2020.09.27","time":"15:58:01","latitude":"40.0092","longitude":"24.4217","depth":"10.8","md":"-.-","ml":"4.5","mw":"4.5","location":"YUNANISTAN"},{"date":"2020.09.27","time":"15:48:41","latitude":"39.6682","longitude":"27.8112","depth":"5.7","md":"-.-","ml":"2.3","mw":"-.-","location":"KALAYCILAR-(BALIKESIR)"},{"date":"2020.09.27","time":"15:28:14","latitude":"40.0688","longitude":"24.4313","depth":"9.3","md":"-.-","ml":"3.4","mw":"3.4","location":"YUNANISTAN"},{"date":"2020.09.27","time":"15:22:19","latitude":"40.0358","longitude":"24.3800","depth":"13.4","md":"-.-","ml":"4.4","mw":"4.5","location":"YUNANISTAN"},{"date":"2020.09.27","time":"14:42:31","latitude":"38.4407","longitude":"25.7970","depth":"20.1","md":"-.-","ml":"2.7","mw":"-.-","location":"SAKIZ ADASI (EGE DENIZI)"},{"date":"2020.09.27","time":"14:31:24","latitude":"38.4943","longitude":"39.1313","depth":"2.4","md":"-.-","ml":"2.2","mw":"-.-","location":"MOLLAALI-SIVRICE (ELAZIG)"},{"date":"2020.09.27","time":"14:23:57","latitude":"36.7993","longitude":"28.0555","depth":"11.9","md":"-.-","ml":"1.9","mw":"-.-","location":"GOKOVA KORFEZI (AKDENIZ)"},{"date":"2020.09.27","time":"12:57:01","latitude":"36.8502","longitude":"29.2047","depth":"0.0","md":"-.-","ml":"1.8","mw":"-.-","location":"SOGUTLU-FETHIYE (MUGLA)"},{"date":"2020.09.27","time":"12:38:59","latitude":"39.9827","longitude":"24.4407","depth":"11.8","md":"-.-","ml":"2.6","mw":"-.-","location":"YUNANISTAN"},{"date":"2020.09.27","time":"12:27:03","latitude":"39.9328","longitude":"24.3932","depth":"10.8","md":"-.-","ml":"2.5","mw":"-.-","location":"YUNANISTAN"},{"date":"2020.09.27","time":"11:57:19","latitude":"38.5988","longitude":"38.1815","depth":"5.0","md":"-.-","ml":"1.5","mw":"-.-","location":"YAZIHAN (MALATYA)"},{"date":"2020.09.27","time":"11:52:33","latitude":"39.7488","longitude":"24.1225","depth":"25.0","md":"-.-","ml":"2.7","mw":"-.-","location":"YUNANISTAN"},{"date":"2020.09.27","time":"11:24:27","latitude":"39.8380","longitude":"41.4317","depth":"5.6","md":"-.-","ml":"2.1","mw":"-.-","location":"CAMLICA-PASINLER (ERZURUM)"},{"date":"2020.09.27","time":"11:18:24","latitude":"34.7837","longitude":"25.3377","depth":"21.4","md":"-.-","ml":"3.3","mw":"3.0","location":"GIRIT ADASI (AKDENIZ)"},{"date":"2020.09.27","time":"11:02:42","latitude":"38.9288","longitude":"42.6717","depth":"8.6","md":"-.-","ml":"2.7","mw":"-.-","location":"DIZDAR-ADILCEVAZ (BITLIS)"},{"date":"2020.09.27","time":"09:38:33","latitude":"39.3992","longitude":"26.3178","depth":"12.1","md":"-.-","ml":"2.6","mw":"-.-","location":"EDREMIT KORFEZI (EGE DENIZI)"},{"date":"2020.09.27","time":"09:29:00","latitude":"36.9353","longitude":"27.6215","depth":"8.2","md":"-.-","ml":"1.4","mw":"-.-","location":"GOKOVA KORFEZI (AKDENIZ)"},{"date":"2020.09.27","time":"09:03:42","latitude":"39.8693","longitude":"24.1482","depth":"27.5","md":"-.-","ml":"2.6","mw":"-.-","location":"YUNANISTAN"},{"date":"2020.09.27","time":"08:07:39","latitude":"39.9783","longitude":"24.2343","depth":"25.2","md":"-.-","ml":"2.8","mw":"-.-","location":"YUNANISTAN"},{"date":"2020.09.27","time":"07:55:38","latitude":"36.9372","longitude":"27.6225","depth":"19.6","md":"-.-","ml":"1.2","mw":"-.-","location":"GOKOVA KORFEZI (AKDENIZ)"},{"date":"2020.09.27","time":"07:49:13","latitude":"40.1283","longitude":"24.4640","depth":"12.7","md":"-.-","ml":"2.7","mw":"-.-","location":"YUNANISTAN"},{"date":"2020.09.27","time":"07:25:19","latitude":"38.0303","longitude":"34.0273","depth":"8.7","md":"-.-","ml":"2.5","mw":"-.-","location":"OBRUK-BOR (NIGDE)"},{"date":"2020.09.27","time":"06:56:05","latitude":"35.4862","longitude":"27.0457","depth":"17.7","md":"-.-","ml":"2.1","mw":"-.-","location":"AKDENIZ"},{"date":"2020.09.27","time":"06:29:50","latitude":"35.7763","longitude":"28.1463","depth":"11.8","md":"-.-","ml":"1.8","mw":"-.-","location":"AKDENIZ"},{"date":"2020.09.27","time":"05:53:48","latitude":"35.4117","longitude":"26.8608","depth":"5.0","md":"-.-","ml":"2.3","mw":"-.-","location":"GIRIT ADASI (AKDENIZ)"},{"date":"2020.09.27","time":"04:47:16","latitude":"39.9858","longitude":"24.2912","depth":"22.0","md":"-.-","ml":"2.7","mw":"-.-","location":"YUNANISTAN"},{"date":"2020.09.27","time":"04:04:07","latitude":"38.0302","longitude":"34.0723","depth":"6.8","md":"-.-","ml":"1.2","mw":"-.-","location":"KECIKALESI-ALTUNHISAR (NIGDE)"},{"date":"2020.09.27","time":"03:58:42","latitude":"40.8327","longitude":"28.2247","depth":"1.4","md":"-.-","ml":"1.8","mw":"-.-","location":"SILIVRI ACIKLARI-ISTANBUL (MARMARA DENIZI)"},{"date":"2020.09.27","time":"03:50:24","latitude":"38.4135","longitude":"39.2383","depth":"13.4","md":"-.-","ml":"1.0","mw":"-.-","location":"SOGUKPINAR-SIVRICE (ELAZIG)"},{"date":"2020.09.27","time":"03:19:06","latitude":"38.6853","longitude":"42.0040","depth":"7.5","md":"-.-","ml":"1.4","mw":"-.-","location":"SAZLIKBASI-KORKUT (MUS)"},{"date":"2020.09.27","time":"03:05:06","latitude":"39.9750","longitude":"24.3447","depth":"18.1","md":"-.-","ml":"2.3","mw":"-.-","location":"YUNANISTAN"},{"date":"2020.09.27","time":"02:58:30","latitude":"38.0008","longitude":"26.7967","depth":"18.6","md":"-.-","ml":"1.7","mw":"-.-","location":"EGE DENIZI"},{"date":"2020.09.27","time":"02:55:03","latitude":"39.9523","longitude":"42.4678","depth":"14.8","md":"-.-","ml":"1.3","mw":"-.-","location":"MOLLAAHMET-HORASAN (ERZURUM)"},{"date":"2020.09.27","time":"02:44:30","latitude":"40.0563","longitude":"24.4095","depth":"11.8","md":"-.-","ml":"3.0","mw":"2.8","location":"YUNANISTAN"},{"date":"2020.09.27","time":"02:32:20","latitude":"40.0608","longitude":"24.4235","depth":"9.1","md":"-.-","ml":"3.1","mw":"-.-","location":"YUNANISTAN"},{"date":"2020.09.27","time":"02:22:49","latitude":"40.3650","longitude":"27.1873","depth":"8.3","md":"-.-","ml":"2.8","mw":"-.-","location":"KOCAGUR-BIGA (CANAKKALE)"},{"date":"2020.09.27","time":"02:09:21","latitude":"39.9270","longitude":"24.3293","depth":"9.1","md":"-.-","ml":"4.2","mw":"4.3","location":"YUNANISTAN"},{"date":"2020.09.27","time":"01:50:24","latitude":"39.9897","longitude":"24.4035","depth":"10.4","md":"-.-","ml":"5.4","mw":"5.4","location":"YUNANISTAN"},{"date":"2020.09.27","time":"00:02:49","latitude":"37.0018","longitude":"35.8830","depth":"5.5","md":"-.-","ml":"1.5","mw":"-.-","location":"CIFTLIKLER-CEYHAN (ADANA)"},{"date":"2020.09.26","time":"23:34:24","latitude":"38.2530","longitude":"38.6663","depth":"4.7","md":"-.-","ml":"1.5","mw":"-.-","location":"CAYKOY-PUTURGE (MALATYA)"},{"date":"2020.09.26","time":"23:22:57","latitude":"39.6655","longitude":"43.1033","depth":"5.0","md":"-.-","ml":"1.8","mw":"-.-","location":"ESKIHARMAN-(AGRI)"},{"date":"2020.09.26","time":"22:33:14","latitude":"37.0460","longitude":"36.1342","depth":"2.0","md":"-.-","ml":"2.0","mw":"-.-","location":"TOPRAKKALE (OSMANIYE)"},{"date":"2020.09.26","time":"21:48:14","latitude":"38.0810","longitude":"34.0045","depth":"7.1","md":"-.-","ml":"2.2","mw":"-.-","location":"KARACAOREN-(AKSARAY)"},{"date":"2020.09.26","time":"21:39:19","latitude":"39.9650","longitude":"24.3892","depth":"8.6","md":"-.-","ml":"4.5","mw":"4.5","location":"YUNANISTAN"},{"date":"2020.09.26","time":"21:27:29","latitude":"35.0107","longitude":"27.1348","depth":"5.5","md":"-.-","ml":"3.0","mw":"-.-","location":"GIRIT ADASI ACIKLARI (AKDENIZ)"},{"date":"2020.09.26","time":"21:18:39","latitude":"39.5300","longitude":"28.9198","depth":"5.4","md":"-.-","ml":"1.9","mw":"-.-","location":"YUNUSLAR-DURSUNBEY (BALIKESIR)"},{"date":"2020.09.26","time":"20:48:08","latitude":"34.9305","longitude":"30.7603","depth":"58.6","md":"-.-","ml":"3.7","mw":"-.-","location":"AKDENIZ"},{"date":"2020.09.26","time":"20:39:54","latitude":"38.0652","longitude":"34.0270","depth":"5.0","md":"-.-","ml":"3.0","mw":"-.-","location":"AKCAKENT-(AKSARAY)"},{"date":"2020.09.26","time":"19:40:02","latitude":"36.9495","longitude":"27.8312","depth":"6.2","md":"-.-","ml":"1.8","mw":"-.-","location":"GOKOVA KORFEZI (AKDENIZ)"},{"date":"2020.09.26","time":"18:59:26","latitude":"38.6855","longitude":"38.0873","depth":"4.9","md":"-.-","ml":"2.2","mw":"-.-","location":"AKYAZI-YAZIHAN (MALATYA)"},{"date":"2020.09.26","time":"17:29:50","latitude":"38.8682","longitude":"25.4763","depth":"5.0","md":"-.-","ml":"2.8","mw":"-.-","location":"EGE DENIZI"},{"date":"2020.09.26","time":"16:11:31","latitude":"38.3727","longitude":"28.3610","depth":"3.5","md":"-.-","ml":"1.8","mw":"-.-","location":"HORZUMSAZDERE-ALASEHIR (MANISA)"},{"date":"2020.09.26","time":"14:13:25","latitude":"36.4047","longitude":"28.7253","depth":"13.2","md":"-.-","ml":"1.8","mw":"-.-","location":"AKDENIZ"},{"date":"2020.09.26","time":"13:34:19","latitude":"41.1487","longitude":"28.7805","depth":"0.0","md":"-.-","ml":"0.9","mw":"-.-","location":"SAMLAR-BASAKSEHIR (ISTANBUL)"},{"date":"2020.09.26","time":"11:51:50","latitude":"37.6042","longitude":"29.1308","depth":"3.8","md":"-.-","ml":"1.7","mw":"-.-","location":"AKYAR-TAVAS (DENIZLI)"},{"date":"2020.09.26","time":"10:38:47","latitude":"37.0677","longitude":"27.9638","depth":"12.7","md":"-.-","ml":"1.8","mw":"-.-","location":"CAMLICA-MILAS (MUGLA)"},{"date":"2020.09.26","time":"09:45:37","latitude":"37.0548","longitude":"27.9628","depth":"10.8","md":"-.-","ml":"1.7","mw":"-.-","location":"OREN-MILAS (MUGLA)"},{"date":"2020.09.26","time":"09:30:32","latitude":"35.8847","longitude":"28.1972","depth":"5.0","md":"-.-","ml":"1.8","mw":"-.-","location":"AKDENIZ"},{"date":"2020.09.26","time":"09:17:51","latitude":"37.0443","longitude":"27.9472","depth":"10.4","md":"-.-","ml":"3.5","mw":"3.4","location":"OREN-MILAS (MUGLA)"},{"date":"2020.09.26","time":"08:13:08","latitude":"37.1673","longitude":"30.6135","depth":"9.4","md":"-.-","ml":"1.7","mw":"-.-","location":"ILICAKOY-DOSEMEALTI (ANTALYA)"},{"date":"2020.09.26","time":"07:02:24","latitude":"38.4093","longitude":"39.2293","depth":"5.0","md":"-.-","ml":"1.6","mw":"-.-","location":"DORTBOLUK-SIVRICE (ELAZIG)"},{"date":"2020.09.26","time":"06:35:06","latitude":"38.4928","longitude":"26.9038","depth":"6.9","md":"-.-","ml":"2.2","mw":"-.-","location":"IZMIR KORFEZI (EGE DENIZI)"},{"date":"2020.09.26","time":"06:31:00","latitude":"38.3648","longitude":"39.2930","depth":"12.9","md":"-.-","ml":"1.8","mw":"-.-","location":"ALAATTINKOY-SIVRICE (ELAZIG)"},{"date":"2020.09.26","time":"05:08:16","latitude":"35.1553","longitude":"27.8840","depth":"6.0","md":"-.-","ml":"1.7","mw":"-.-","location":"AKDENIZ"},{"date":"2020.09.26","time":"04:48:57","latitude":"34.7232","longitude":"25.0640","depth":"23.6","md":"-.-","ml":"3.2","mw":"3.4","location":"GIRIT ADASI ACIKLARI (AKDENIZ)"},{"date":"2020.09.26","time":"04:03:58","latitude":"38.3777","longitude":"39.1122","depth":"8.8","md":"-.-","ml":"1.0","mw":"-.-","location":"KILICKAYA-SIVRICE (ELAZIG)"},{"date":"2020.09.26","time":"03:53:00","latitude":"36.4270","longitude":"26.4167","depth":"16.0","md":"-.-","ml":"2.3","mw":"-.-","location":"AKDENIZ"},{"date":"2020.09.26","time":"03:23:01","latitude":"39.0548","longitude":"27.7075","depth":"3.6","md":"-.-","ml":"2.1","mw":"-.-","location":"BAKIR-KIRKAGAC (MANISA)"},{"date":"2020.09.26","time":"03:06:51","latitude":"36.4675","longitude":"27.2350","depth":"5.0","md":"-.-","ml":"1.7","mw":"-.-","location":"ONIKI ADALAR (AKDENIZ)"},{"date":"2020.09.26","time":"02:22:49","latitude":"38.2952","longitude":"38.6318","depth":"21.2","md":"-.-","ml":"1.4","mw":"-.-","location":"ALHANUSAGI-(MALATYA)"},{"date":"2020.09.26","time":"02:02:43","latitude":"38.3532","longitude":"43.3420","depth":"5.0","md":"-.-","ml":"2.9","mw":"-.-","location":"AYAZPINAR-EDREMIT (VAN)"},{"date":"2020.09.26","time":"01:00:39","latitude":"39.8497","longitude":"41.4828","depth":"9.4","md":"-.-","ml":"2.2","mw":"-.-","location":"CAMLICA-PASINLER (ERZURUM)"},{"date":"2020.09.26","time":"00:43:54","latitude":"38.1298","longitude":"38.6753","depth":"9.7","md":"-.-","ml":"1.1","mw":"-.-","location":"UCYAKA-PUTURGE (MALATYA)"},{"date":"2020.09.26","time":"00:42:14","latitude":"39.5642","longitude":"41.1665","depth":"6.4","md":"-.-","ml":"1.5","mw":"-.-","location":"TURNAGOL-TEKMAN (ERZURUM)"},{"date":"2020.09.26","time":"00:37:54","latitude":"39.8777","longitude":"27.7313","depth":"7.6","md":"-.-","ml":"2.0","mw":"-.-","location":"ILICA-BALYA (BALIKESIR)"},{"date":"2020.09.26","time":"00:24:38","latitude":"39.6270","longitude":"27.9803","depth":"16.6","md":"-.-","ml":"1.4","mw":"-.-","location":"YAKUPKOY-(BALIKESIR)"},{"date":"2020.09.26","time":"00:09:18","latitude":"36.0370","longitude":"27.1922","depth":"7.5","md":"-.-","ml":"1.7","mw":"-.-","location":"AKDENIZ"},{"date":"2020.09.25","time":"23:52:37","latitude":"35.7877","longitude":"28.1880","depth":"5.4","md":"-.-","ml":"2.1","mw":"-.-","location":"AKDENIZ"},{"date":"2020.09.25","time":"21:47:17","latitude":"38.2047","longitude":"38.8232","depth":"8.7","md":"-.-","ml":"1.4","mw":"-.-","location":"TASMIS-PUTURGE (MALATYA)"},{"date":"2020.09.25","time":"21:35:19","latitude":"38.2557","longitude":"38.6362","depth":"5.3","md":"-.-","ml":"1.2","mw":"-.-","location":"KAVAKLIDERE-PUTURGE (MALATYA)"},{"date":"2020.09.25","time":"20:56:30","latitude":"39.3400","longitude":"40.6690","depth":"5.0","md":"-.-","ml":"2.3","mw":"-.-","location":"DINARBEY-YEDISU (BINGOL)"},{"date":"2020.09.25","time":"20:56:27","latitude":"35.9267","longitude":"28.3563","depth":"15.9","md":"-.-","ml":"1.4","mw":"-.-","location":"AKDENIZ"},{"date":"2020.09.25","time":"20:44:04","latitude":"39.0547","longitude":"27.6882","depth":"5.6","md":"-.-","ml":"1.8","mw":"-.-","location":"BAKIR-KIRKAGAC (MANISA)"},{"date":"2020.09.25","time":"20:24:27","latitude":"36.1148","longitude":"26.9638","depth":"5.3","md":"-.-","ml":"1.9","mw":"-.-","location":"AKDENIZ"},{"date":"2020.09.25","time":"20:20:51","latitude":"38.7197","longitude":"42.0105","depth":"5.5","md":"-.-","ml":"1.9","mw":"-.-","location":"YUNOREN-KORKUT (MUS)"}]
