[{"date":"2020.10.13","time":"08:55:32","latitude":"40.6130","longitude":"33.1103","depth":"10.2","md":"-.-","ml":"1.7","mw":"-.-","location":"ORTA (CANKIRI)"},{"date":"2020.10.13","time":"08:37:36","latitude":"36.9697","longitude":"28.1692","depth":"2.7","md":"-.-","ml":"1.7","mw":"-.-","location":"KARACA-MARMARIS (MUGLA)"},{"date":"2020.10.13","time":"07:22:38","latitude":"38.8858","longitude":"38.2045","depth":"6.4","md":"-.-","ml":"2.3","mw":"-.-","location":"KURUTTAS-ARGUVAN (MALATYA)"},{"date":"2020.10.13","time":"05:49:48","latitude":"36.3898","longitude":"29.5632","depth":"12.4","md":"-.-","ml":"0.8","mw":"-.-","location":"CAMLIOVA-KAS (ANTALYA)"},{"date":"2020.10.13","time":"05:28:11","latitude":"36.9257","longitude":"27.5155","depth":"11.2","md":"-.-","ml":"1.2","mw":"-.-","location":"GOKOVA KORFEZI (AKDENIZ)"},{"date":"2020.10.13","time":"05:13:08","latitude":"36.9335","longitude":"27.5148","depth":"4.5","md":"-.-","ml":"1.5","mw":"-.-","location":"GOKOVA KORFEZI (AKDENIZ)"},{"date":"2020.10.13","time":"04:59:27","latitude":"36.9322","longitude":"27.5220","depth":"5.3","md":"-.-","ml":"1.7","mw":"-.-","location":"GOKOVA KORFEZI (AKDENIZ)"},{"date":"2020.10.13","time":"04:26:48","latitude":"36.9515","longitude":"27.3175","depth":"2.5","md":"-.-","ml":"1.9","mw":"-.-","location":"AKYARLAR-BODRUM (MUGLA)"},{"date":"2020.10.13","time":"04:25:32","latitude":"36.2947","longitude":"32.1445","depth":"10.4","md":"-.-","ml":"1.5","mw":"-.-","location":"DEMIRTAS ACIKLARI-ANTALYA (AKDENIZ)"},{"date":"2020.10.13","time":"03:40:28","latitude":"37.7690","longitude":"32.1567","depth":"5.7","md":"-.-","ml":"1.7","mw":"-.-","location":"ERENKAYA-MERAM (KONYA)"},{"date":"2020.10.13","time":"02:56:41","latitude":"37.8518","longitude":"32.0438","depth":"5.3","md":"-.-","ml":"1.2","mw":"-.-","location":"SAGLIK-MERAM (KONYA)"},{"date":"2020.10.13","time":"02:55:33","latitude":"37.7282","longitude":"32.2543","depth":"5.4","md":"-.-","ml":"1.7","mw":"-.-","location":"KAYALI-MERAM (KONYA)"},{"date":"2020.10.13","time":"02:52:02","latitude":"37.7743","longitude":"32.2072","depth":"16.2","md":"-.-","ml":"1.3","mw":"-.-","location":"ERENKAYA-MERAM (KONYA)"},{"date":"2020.10.13","time":"02:48:09","latitude":"37.7337","longitude":"32.1527","depth":"6.0","md":"-.-","ml":"1.5","mw":"-.-","location":"KAYALI-MERAM (KONYA)"},{"date":"2020.10.13","time":"02:31:41","latitude":"37.7697","longitude":"32.1687","depth":"1.2","md":"-.-","ml":"1.9","mw":"-.-","location":"ERENKAYA-MERAM (KONYA)"},{"date":"2020.10.13","time":"02:07:30","latitude":"36.0612","longitude":"35.9003","depth":"7.8","md":"-.-","ml":"1.6","mw":"-.-","location":"MAGARACIK-SAMANDAG (HATAY)"},{"date":"2020.10.13","time":"01:31:44","latitude":"40.3637","longitude":"44.8417","depth":"5.0","md":"-.-","ml":"2.5","mw":"-.-","location":"AZERBAYCAN"},{"date":"2020.10.13","time":"01:15:20","latitude":"37.7353","longitude":"32.1108","depth":"5.0","md":"-.-","ml":"1.5","mw":"-.-","location":"INLICE-MERAM (KONYA)"},{"date":"2020.10.13","time":"00:48:49","latitude":"37.7885","longitude":"32.1512","depth":"8.2","md":"-.-","ml":"2.0","mw":"-.-","location":"SEFAKOY-MERAM (KONYA)"},{"date":"2020.10.13","time":"00:34:12","latitude":"38.8403","longitude":"26.9847","depth":"15.7","md":"-.-","ml":"1.2","mw":"-.-","location":"CANDARLI KORFEZI (EGE DENIZI)"},{"date":"2020.10.13","time":"00:28:03","latitude":"37.7060","longitude":"32.2560","depth":"11.3","md":"-.-","ml":"0.7","mw":"-.-","location":"KUMRALI-MERAM (KONYA)"},{"date":"2020.10.13","time":"00:26:01","latitude":"38.8222","longitude":"26.9950","depth":"8.0","md":"-.-","ml":"1.8","mw":"-.-","location":"ALIAGA (IZMIR)"},{"date":"2020.10.13","time":"00:25:55","latitude":"37.7482","longitude":"32.1480","depth":"5.0","md":"-.-","ml":"1.8","mw":"-.-","location":"ERENKAYA-MERAM (KONYA)"},{"date":"2020.10.13","time":"00:18:16","latitude":"37.7792","longitude":"32.1252","depth":"5.5","md":"-.-","ml":"1.9","mw":"-.-","location":"SEFAKOY-MERAM (KONYA)"},{"date":"2020.10.12","time":"23:24:37","latitude":"37.1178","longitude":"28.2772","depth":"15.2","md":"-.-","ml":"1.2","mw":"-.-","location":"YERKESIK-(MUGLA)"},{"date":"2020.10.12","time":"22:43:21","latitude":"38.8557","longitude":"26.7527","depth":"5.4","md":"-.-","ml":"1.8","mw":"-.-","location":"CANDARLI KORFEZI (EGE DENIZI)"},{"date":"2020.10.12","time":"22:33:10","latitude":"40.7657","longitude":"27.9370","depth":"7.7","md":"-.-","ml":"1.5","mw":"-.-","location":"MARMARA DENIZI"},{"date":"2020.10.12","time":"22:28:42","latitude":"35.6048","longitude":"26.2247","depth":"6.3","md":"-.-","ml":"1.6","mw":"-.-","location":"AKDENIZ"},{"date":"2020.10.12","time":"22:26:48","latitude":"37.1393","longitude":"28.3452","depth":"18.3","md":"-.-","ml":"1.4","mw":"-.-","location":"GULAGZI-(MUGLA)"},{"date":"2020.10.12","time":"22:12:14","latitude":"35.5792","longitude":"26.1693","depth":"2.5","md":"-.-","ml":"2.5","mw":"-.-","location":"GIRIT ADASI (AKDENIZ)"},{"date":"2020.10.12","time":"21:54:37","latitude":"37.1858","longitude":"28.1883","depth":"0.0","md":"-.-","ml":"1.5","mw":"-.-","location":"CIFTLIKKOY-(MUGLA)"},{"date":"2020.10.12","time":"21:51:27","latitude":"37.1058","longitude":"28.2715","depth":"0.0","md":"-.-","ml":"1.0","mw":"-.-","location":"YENIBAGYAKA-(MUGLA)"},{"date":"2020.10.12","time":"21:49:14","latitude":"38.1508","longitude":"38.8087","depth":"5.3","md":"-.-","ml":"1.3","mw":"-.-","location":"GOKCELI-PUTURGE (MALATYA)"},{"date":"2020.10.12","time":"21:48:49","latitude":"35.7630","longitude":"28.1395","depth":"6.3","md":"-.-","ml":"1.4","mw":"-.-","location":"AKDENIZ"},{"date":"2020.10.12","time":"21:46:44","latitude":"37.1378","longitude":"28.1730","depth":"15.2","md":"-.-","ml":"1.2","mw":"-.-","location":"MEKE-(MUGLA)"},{"date":"2020.10.12","time":"21:44:04","latitude":"38.8505","longitude":"43.4578","depth":"2.6","md":"-.-","ml":"3.0","mw":"3.2","location":"GEDIKBULAK-(VAN)"},{"date":"2020.10.12","time":"21:41:01","latitude":"37.1440","longitude":"28.2987","depth":"0.0","md":"-.-","ml":"1.3","mw":"-.-","location":"YERKESIK-(MUGLA)"},{"date":"2020.10.12","time":"21:33:33","latitude":"37.1223","longitude":"28.2710","depth":"0.0","md":"-.-","ml":"1.6","mw":"-.-","location":"YERKESIK-(MUGLA)"},{"date":"2020.10.12","time":"21:31:44","latitude":"37.1338","longitude":"28.2375","depth":"16.1","md":"-.-","ml":"1.8","mw":"-.-","location":"ALGI-(MUGLA)"},{"date":"2020.10.12","time":"21:31:14","latitude":"37.1527","longitude":"28.2237","depth":"6.8","md":"-.-","ml":"1.8","mw":"-.-","location":"YENIKOY-(MUGLA)"},{"date":"2020.10.12","time":"21:13:42","latitude":"38.3733","longitude":"38.8855","depth":"8.0","md":"-.-","ml":"1.9","mw":"-.-","location":"KAYABAGLARI-SIVRICE (ELAZIG)"},{"date":"2020.10.12","time":"20:51:27","latitude":"39.0535","longitude":"34.6522","depth":"2.6","md":"-.-","ml":"2.2","mw":"-.-","location":"SADIK-HACIBEKTAS (NEVSEHIR)"},{"date":"2020.10.12","time":"19:26:48","latitude":"37.1373","longitude":"28.1955","depth":"16.8","md":"-.-","ml":"1.4","mw":"-.-","location":"YENIKOY-(MUGLA)"},{"date":"2020.10.12","time":"19:18:05","latitude":"38.8208","longitude":"26.7568","depth":"7.5","md":"-.-","ml":"2.3","mw":"-.-","location":"CANDARLI KORFEZI (EGE DENIZI)"},{"date":"2020.10.12","time":"18:38:25","latitude":"38.3497","longitude":"39.2523","depth":"12.7","md":"-.-","ml":"1.7","mw":"-.-","location":"ASAGICANAKCI-SIVRICE (ELAZIG)"},{"date":"2020.10.12","time":"18:00:02","latitude":"36.4840","longitude":"28.7330","depth":"7.9","md":"-.-","ml":"2.0","mw":"-.-","location":"AKDENIZ"},{"date":"2020.10.12","time":"16:53:45","latitude":"35.3190","longitude":"26.5350","depth":"5.0","md":"-.-","ml":"3.3","mw":"3.2","location":"GIRIT ADASI (AKDENIZ)"},{"date":"2020.10.12","time":"15:31:55","latitude":"36.9568","longitude":"28.1715","depth":"6.9","md":"-.-","ml":"2.6","mw":"-.-","location":"KARACA-MARMARIS (MUGLA)"},{"date":"2020.10.12","time":"13:55:35","latitude":"37.5255","longitude":"30.5755","depth":"2.2","md":"-.-","ml":"1.9","mw":"-.-","location":"ALKAYA-BUCAK (BURDUR)"},{"date":"2020.10.12","time":"12:46:02","latitude":"35.6585","longitude":"26.2888","depth":"7.3","md":"-.-","ml":"2.8","mw":"-.-","location":"AKDENIZ"},{"date":"2020.10.12","time":"11:53:19","latitude":"35.5695","longitude":"26.2552","depth":"7.5","md":"-.-","ml":"3.8","mw":"3.9","location":"GIRIT ADASI (AKDENIZ)"},{"date":"2020.10.12","time":"09:55:53","latitude":"39.3445","longitude":"40.6035","depth":"8.1","md":"-.-","ml":"2.4","mw":"-.-","location":"ELMALI-YEDISU (BINGOL)"},{"date":"2020.10.12","time":"09:39:34","latitude":"35.5762","longitude":"26.2292","depth":"4.1","md":"-.-","ml":"2.5","mw":"2.3","location":"GIRIT ADASI (AKDENIZ)"},{"date":"2020.10.12","time":"08:15:20","latitude":"35.6312","longitude":"26.3495","depth":"16.0","md":"-.-","ml":"2.7","mw":"-.-","location":"AKDENIZ"},{"date":"2020.10.12","time":"08:12:32","latitude":"35.6112","longitude":"26.2367","depth":"3.2","md":"-.-","ml":"2.3","mw":"-.-","location":"AKDENIZ"},{"date":"2020.10.12","time":"08:11:37","latitude":"35.6377","longitude":"26.1843","depth":"4.9","md":"-.-","ml":"2.3","mw":"-.-","location":"AKDENIZ"},{"date":"2020.10.12","time":"08:06:27","latitude":"35.6598","longitude":"26.2575","depth":"8.9","md":"-.-","ml":"2.3","mw":"-.-","location":"AKDENIZ"},{"date":"2020.10.12","time":"08:05:06","latitude":"35.6245","longitude":"26.2417","depth":"7.0","md":"-.-","ml":"2.5","mw":"-.-","location":"AKDENIZ"},{"date":"2020.10.12","time":"08:00:32","latitude":"35.6733","longitude":"26.2187","depth":"6.1","md":"-.-","ml":"3.9","mw":"4.0","location":"AKDENIZ"},{"date":"2020.10.12","time":"07:51:57","latitude":"35.6442","longitude":"26.2183","depth":"6.9","md":"-.-","ml":"3.1","mw":"3.0","location":"AKDENIZ"},{"date":"2020.10.12","time":"07:47:51","latitude":"35.6778","longitude":"26.2465","depth":"9.3","md":"-.-","ml":"2.8","mw":"-.-","location":"AKDENIZ"},{"date":"2020.10.12","time":"07:42:43","latitude":"35.6497","longitude":"26.2605","depth":"8.1","md":"-.-","ml":"2.7","mw":"-.-","location":"AKDENIZ"},{"date":"2020.10.12","time":"07:38:36","latitude":"35.6245","longitude":"26.2218","depth":"9.3","md":"-.-","ml":"3.6","mw":"3.6","location":"AKDENIZ"},{"date":"2020.10.12","time":"07:36:09","latitude":"35.6455","longitude":"26.2085","depth":"5.4","md":"-.-","ml":"2.4","mw":"-.-","location":"AKDENIZ"},{"date":"2020.10.12","time":"07:30:21","latitude":"35.6133","longitude":"26.2128","depth":"8.1","md":"-.-","ml":"3.2","mw":"3.2","location":"AKDENIZ"},{"date":"2020.10.12","time":"07:26:37","latitude":"35.6200","longitude":"26.2043","depth":"12.8","md":"-.-","ml":"2.8","mw":"-.-","location":"AKDENIZ"},{"date":"2020.10.12","time":"07:18:36","latitude":"35.5258","longitude":"26.2588","depth":"23.7","md":"-.-","ml":"2.3","mw":"-.-","location":"GIRIT ADASI (AKDENIZ)"},{"date":"2020.10.12","time":"07:11:26","latitude":"35.6880","longitude":"26.2170","depth":"7.9","md":"-.-","ml":"5.0","mw":"5.1","location":"AKDENIZ"},{"date":"2020.10.12","time":"07:00:11","latitude":"37.2125","longitude":"28.4642","depth":"18.6","md":"-.-","ml":"2.2","mw":"-.-","location":"YARAS-(MUGLA)"},{"date":"2020.10.12","time":"06:39:16","latitude":"39.1540","longitude":"28.9792","depth":"10.4","md":"-.-","ml":"1.3","mw":"-.-","location":"NASA-SIMAV (KUTAHYA)"},{"date":"2020.10.12","time":"06:33:20","latitude":"39.1753","longitude":"29.0233","depth":"5.2","md":"-.-","ml":"1.5","mw":"-.-","location":"KARACAOREN-SIMAV (KUTAHYA)"},{"date":"2020.10.12","time":"06:20:45","latitude":"35.6948","longitude":"26.2587","depth":"10.7","md":"-.-","ml":"2.1","mw":"-.-","location":"AKDENIZ"},{"date":"2020.10.12","time":"05:50:15","latitude":"35.8430","longitude":"28.2047","depth":"5.0","md":"-.-","ml":"2.4","mw":"-.-","location":"AKDENIZ"},{"date":"2020.10.12","time":"05:38:52","latitude":"35.6445","longitude":"26.2517","depth":"11.2","md":"-.-","ml":"3.9","mw":"3.9","location":"AKDENIZ"},{"date":"2020.10.12","time":"05:07:59","latitude":"35.6175","longitude":"26.2343","depth":"12.4","md":"-.-","ml":"2.9","mw":"-.-","location":"AKDENIZ"},{"date":"2020.10.12","time":"04:58:22","latitude":"35.6390","longitude":"26.2283","depth":"12.1","md":"-.-","ml":"3.2","mw":"3.2","location":"AKDENIZ"},{"date":"2020.10.12","time":"04:51:19","latitude":"36.9498","longitude":"27.5935","depth":"1.4","md":"-.-","ml":"1.1","mw":"-.-","location":"GOKOVA KORFEZI (AKDENIZ)"},{"date":"2020.10.12","time":"04:49:12","latitude":"37.2982","longitude":"26.6867","depth":"8.9","md":"-.-","ml":"2.2","mw":"-.-","location":"ONIKI ADALAR (AKDENIZ)"},{"date":"2020.10.12","time":"04:46:25","latitude":"35.6692","longitude":"26.2550","depth":"11.6","md":"-.-","ml":"2.5","mw":"-.-","location":"AKDENIZ"},{"date":"2020.10.12","time":"04:38:01","latitude":"40.4135","longitude":"26.1215","depth":"15.8","md":"-.-","ml":"2.3","mw":"-.-","location":"SAROS KORFEZI (EGE DENIZI)"},{"date":"2020.10.12","time":"04:35:09","latitude":"35.6298","longitude":"26.2605","depth":"5.0","md":"-.-","ml":"3.5","mw":"3.6","location":"AKDENIZ"},{"date":"2020.10.12","time":"04:28:39","latitude":"35.6497","longitude":"26.2728","depth":"9.4","md":"-.-","ml":"1.9","mw":"-.-","location":"AKDENIZ"},{"date":"2020.10.12","time":"04:27:55","latitude":"35.6873","longitude":"26.2455","depth":"11.2","md":"-.-","ml":"2.1","mw":"-.-","location":"AKDENIZ"},{"date":"2020.10.12","time":"04:24:11","latitude":"35.6297","longitude":"26.2537","depth":"11.3","md":"-.-","ml":"2.0","mw":"-.-","location":"AKDENIZ"},{"date":"2020.10.12","time":"04:21:38","latitude":"35.6795","longitude":"26.2447","depth":"8.3","md":"-.-","ml":"2.1","mw":"-.-","location":"AKDENIZ"},{"date":"2020.10.12","time":"04:20:44","latitude":"35.6972","longitude":"26.2995","depth":"5.4","md":"-.-","ml":"2.3","mw":"-.-","location":"AKDENIZ"},{"date":"2020.10.12","time":"04:19:24","latitude":"35.6235","longitude":"26.2882","depth":"20.7","md":"-.-","ml":"1.9","mw":"-.-","location":"AKDENIZ"},{"date":"2020.10.12","time":"04:16:08","latitude":"35.6598","longitude":"26.2242","depth":"13.4","md":"-.-","ml":"2.6","mw":"-.-","location":"AKDENIZ"},{"date":"2020.10.12","time":"04:13:28","latitude":"35.6737","longitude":"26.2367","depth":"11.7","md":"-.-","ml":"3.1","mw":"-.-","location":"AKDENIZ"},{"date":"2020.10.12","time":"04:11:57","latitude":"35.6817","longitude":"26.2435","depth":"11.8","md":"-.-","ml":"3.8","mw":"3.8","location":"AKDENIZ"},{"date":"2020.10.12","time":"03:58:35","latitude":"39.7688","longitude":"33.0525","depth":"3.0","md":"-.-","ml":"1.7","mw":"-.-","location":"DELILER-ELMADAG (ANKARA)"},{"date":"2020.10.12","time":"03:56:41","latitude":"35.6583","longitude":"26.2332","depth":"11.6","md":"-.-","ml":"3.1","mw":"2.9","location":"AKDENIZ"},{"date":"2020.10.12","time":"03:53:36","latitude":"35.6338","longitude":"26.2387","depth":"7.8","md":"-.-","ml":"3.1","mw":"2.9","location":"AKDENIZ"},{"date":"2020.10.12","time":"03:50:17","latitude":"35.6513","longitude":"26.2258","depth":"5.4","md":"-.-","ml":"2.1","mw":"-.-","location":"AKDENIZ"},{"date":"2020.10.12","time":"03:49:11","latitude":"35.4162","longitude":"26.3660","depth":"27.0","md":"-.-","ml":"2.1","mw":"-.-","location":"GIRIT ADASI (AKDENIZ)"},{"date":"2020.10.12","time":"03:47:09","latitude":"35.6320","longitude":"26.2323","depth":"11.9","md":"-.-","ml":"2.6","mw":"-.-","location":"AKDENIZ"},{"date":"2020.10.12","time":"03:44:24","latitude":"35.6558","longitude":"26.2452","depth":"11.4","md":"-.-","ml":"4.2","mw":"4.2","location":"AKDENIZ"},{"date":"2020.10.12","time":"03:41:04","latitude":"35.6987","longitude":"26.2847","depth":"14.5","md":"-.-","ml":"3.0","mw":"-.-","location":"AKDENIZ"},{"date":"2020.10.12","time":"03:39:50","latitude":"35.6495","longitude":"26.2753","depth":"10.6","md":"-.-","ml":"2.6","mw":"-.-","location":"AKDENIZ"},{"date":"2020.10.12","time":"03:30:40","latitude":"35.6712","longitude":"26.2708","depth":"8.4","md":"-.-","ml":"5.0","mw":"5.0","location":"AKDENIZ"},{"date":"2020.10.12","time":"02:29:20","latitude":"35.7958","longitude":"28.2200","depth":"7.8","md":"-.-","ml":"1.9","mw":"-.-","location":"AKDENIZ"},{"date":"2020.10.12","time":"02:24:44","latitude":"35.8070","longitude":"28.2378","depth":"5.0","md":"-.-","ml":"2.2","mw":"-.-","location":"AKDENIZ"},{"date":"2020.10.12","time":"02:14:29","latitude":"36.9510","longitude":"27.7148","depth":"11.1","md":"-.-","ml":"0.7","mw":"-.-","location":"GOKOVA KORFEZI (AKDENIZ)"},{"date":"2020.10.12","time":"01:49:16","latitude":"39.1988","longitude":"27.7758","depth":"7.3","md":"-.-","ml":"1.5","mw":"-.-","location":"KARACAKAS-SOMA (MANISA)"},{"date":"2020.10.12","time":"01:45:52","latitude":"39.3183","longitude":"27.5547","depth":"7.5","md":"-.-","ml":"1.6","mw":"-.-","location":"BUYUKISIKLAR-SOMA (MANISA)"},{"date":"2020.10.12","time":"01:08:48","latitude":"35.7503","longitude":"28.1727","depth":"8.5","md":"-.-","ml":"1.7","mw":"-.-","location":"AKDENIZ"},{"date":"2020.10.12","time":"00:40:34","latitude":"40.7033","longitude":"32.9590","depth":"5.9","md":"-.-","ml":"1.9","mw":"-.-","location":"HACILAR-CERKES (CANKIRI)"},{"date":"2020.10.12","time":"00:32:56","latitude":"38.2762","longitude":"38.7135","depth":"5.0","md":"-.-","ml":"1.5","mw":"-.-","location":"BALPINARI-PUTURGE (MALATYA)"},{"date":"2020.10.12","time":"00:30:08","latitude":"38.3293","longitude":"39.2508","depth":"15.1","md":"-.-","ml":"1.5","mw":"-.-","location":"HACILAR-SIVRICE (ELAZIG)"},{"date":"2020.10.12","time":"00:19:16","latitude":"40.5590","longitude":"28.9978","depth":"1.1","md":"-.-","ml":"1.3","mw":"-.-","location":"SELIMIYE-ARMUTLU (YALOVA)"},{"date":"2020.10.12","time":"00:15:00","latitude":"35.5277","longitude":"31.2305","depth":"5.0","md":"-.-","ml":"2.3","mw":"-.-","location":"AKDENIZ"},{"date":"2020.10.11","time":"23:29:44","latitude":"38.2627","longitude":"38.8155","depth":"1.5","md":"-.-","ml":"1.6","mw":"-.-","location":"KARSIYAKA-PUTURGE (MALATYA)"},{"date":"2020.10.11","time":"23:24:39","latitude":"35.8677","longitude":"28.2432","depth":"5.0","md":"-.-","ml":"1.9","mw":"-.-","location":"AKDENIZ"},{"date":"2020.10.11","time":"23:22:57","latitude":"38.2488","longitude":"38.8310","depth":"5.3","md":"-.-","ml":"2.5","mw":"-.-","location":"ORMELI-PUTURGE (MALATYA)"},{"date":"2020.10.11","time":"22:59:15","latitude":"38.4158","longitude":"39.2218","depth":"3.1","md":"-.-","ml":"2.3","mw":"-.-","location":"YEDIPINAR-SIVRICE (ELAZIG)"},{"date":"2020.10.11","time":"22:58:09","latitude":"38.3223","longitude":"39.2688","depth":"9.7","md":"-.-","ml":"2.3","mw":"-.-","location":"CATALDUT-CUNGUS (DIYARBAKIR)"},{"date":"2020.10.11","time":"22:51:29","latitude":"35.7828","longitude":"28.2583","depth":"5.2","md":"-.-","ml":"1.9","mw":"-.-","location":"AKDENIZ"},{"date":"2020.10.11","time":"22:20:57","latitude":"35.8047","longitude":"28.2422","depth":"5.0","md":"-.-","ml":"2.3","mw":"-.-","location":"AKDENIZ"},{"date":"2020.10.11","time":"22:16:51","latitude":"35.8268","longitude":"28.2202","depth":"5.7","md":"-.-","ml":"2.6","mw":"-.-","location":"AKDENIZ"},{"date":"2020.10.11","time":"22:02:42","latitude":"36.8763","longitude":"27.6113","depth":"3.9","md":"-.-","ml":"1.5","mw":"-.-","location":"GOKOVA KORFEZI (AKDENIZ)"},{"date":"2020.10.11","time":"21:29:35","latitude":"38.2577","longitude":"38.7552","depth":"2.1","md":"-.-","ml":"2.5","mw":"-.-","location":"BALPINARI-PUTURGE (MALATYA)"},{"date":"2020.10.11","time":"21:26:23","latitude":"35.9080","longitude":"28.2490","depth":"5.7","md":"-.-","ml":"1.4","mw":"-.-","location":"AKDENIZ"},{"date":"2020.10.11","time":"21:23:49","latitude":"36.4653","longitude":"27.2080","depth":"17.9","md":"-.-","ml":"1.7","mw":"-.-","location":"ONIKI ADALAR (AKDENIZ)"},{"date":"2020.10.11","time":"19:57:59","latitude":"40.7165","longitude":"32.9747","depth":"7.1","md":"-.-","ml":"1.8","mw":"-.-","location":"HACILAR-CERKES (CANKIRI)"},{"date":"2020.10.11","time":"18:45:36","latitude":"38.5900","longitude":"39.7242","depth":"22.4","md":"-.-","ml":"1.5","mw":"-.-","location":"GUMUSKAYNAK-PALU (ELAZIG)"},{"date":"2020.10.11","time":"18:33:20","latitude":"41.0935","longitude":"34.9442","depth":"5.4","md":"-.-","ml":"1.8","mw":"-.-","location":"DANISMENT-OSMANCIK (CORUM)"},{"date":"2020.10.11","time":"18:31:42","latitude":"38.5668","longitude":"25.7367","depth":"5.1","md":"-.-","ml":"1.9","mw":"-.-","location":"EGE DENIZI"},{"date":"2020.10.11","time":"18:23:59","latitude":"36.8732","longitude":"27.6962","depth":"7.8","md":"-.-","ml":"1.8","mw":"-.-","location":"GOKOVA KORFEZI (AKDENIZ)"},{"date":"2020.10.11","time":"17:55:25","latitude":"34.6735","longitude":"24.1227","depth":"59.4","md":"-.-","ml":"3.5","mw":"-.-","location":"GIRIT ADASI ACIKLARI (AKDENIZ)"},{"date":"2020.10.11","time":"15:57:44","latitude":"37.0110","longitude":"29.2195","depth":"19.7","md":"-.-","ml":"1.8","mw":"-.-","location":"EMECIK-CAMELI (DENIZLI)"},{"date":"2020.10.11","time":"15:49:27","latitude":"36.5865","longitude":"31.7910","depth":"14.8","md":"-.-","ml":"2.4","mw":"-.-","location":"TURKLER-ALANYA (ANTALYA)"},{"date":"2020.10.11","time":"15:49:11","latitude":"37.0348","longitude":"28.1223","depth":"8.5","md":"-.-","ml":"1.7","mw":"-.-","location":"SARNICKOY-(MUGLA)"},{"date":"2020.10.11","time":"14:09:55","latitude":"38.4753","longitude":"25.5658","depth":"20.3","md":"-.-","ml":"2.6","mw":"-.-","location":"EGE DENIZI"},{"date":"2020.10.11","time":"13:30:46","latitude":"39.7743","longitude":"24.2210","depth":"31.4","md":"-.-","ml":"2.4","mw":"-.-","location":"YUNANISTAN"},{"date":"2020.10.11","time":"13:16:28","latitude":"37.3275","longitude":"26.6368","depth":"7.9","md":"-.-","ml":"1.8","mw":"-.-","location":"ONIKI ADALAR (AKDENIZ)"},{"date":"2020.10.11","time":"12:54:46","latitude":"36.0225","longitude":"31.5083","depth":"31.4","md":"-.-","ml":"2.3","mw":"-.-","location":"AKDENIZ"},{"date":"2020.10.11","time":"12:23:33","latitude":"34.5042","longitude":"28.9522","depth":"6.3","md":"-.-","ml":"2.4","mw":"-.-","location":"AKDENIZ"},{"date":"2020.10.11","time":"12:00:59","latitude":"39.4272","longitude":"29.3462","depth":"0.0","md":"-.-","ml":"1.2","mw":"-.-","location":"GUNLUCE-EMET (KUTAHYA)"},{"date":"2020.10.11","time":"11:39:51","latitude":"37.5747","longitude":"29.2175","depth":"0.0","md":"-.-","ml":"1.4","mw":"-.-","location":"SERINHISAR (DENIZLI)"},{"date":"2020.10.11","time":"10:56:54","latitude":"38.6190","longitude":"27.0238","depth":"17.2","md":"-.-","ml":"1.9","mw":"-.-","location":"MENEMEN (IZMIR)"},{"date":"2020.10.11","time":"08:41:25","latitude":"38.4802","longitude":"25.4348","depth":"17.6","md":"-.-","ml":"3.8","mw":"3.8","location":"EGE DENIZI"},{"date":"2020.10.11","time":"07:44:53","latitude":"37.6583","longitude":"26.9312","depth":"17.6","md":"-.-","ml":"1.3","mw":"-.-","location":"EGE DENIZI"},{"date":"2020.10.11","time":"07:27:49","latitude":"38.4105","longitude":"39.0378","depth":"17.1","md":"-.-","ml":"1.8","mw":"-.-","location":"TARLATEPE-SIVRICE (ELAZIG)"},{"date":"2020.10.11","time":"05:29:37","latitude":"39.1400","longitude":"29.3845","depth":"15.8","md":"-.-","ml":"2.0","mw":"-.-","location":"YESILOVA-GEDIZ (KUTAHYA)"},{"date":"2020.10.11","time":"02:39:50","latitude":"39.2285","longitude":"27.8155","depth":"11.6","md":"-.-","ml":"1.4","mw":"-.-","location":"SOGUTALANI-KIRKAGAC (MANISA)"},{"date":"2020.10.11","time":"02:28:31","latitude":"38.7327","longitude":"39.9620","depth":"11.4","md":"-.-","ml":"1.9","mw":"-.-","location":"SENOVA-KOVANCILAR (ELAZIG)"},{"date":"2020.10.11","time":"02:05:37","latitude":"38.1683","longitude":"38.7262","depth":"7.7","md":"-.-","ml":"1.7","mw":"-.-","location":"YAZICA-PUTURGE (MALATYA)"},{"date":"2020.10.11","time":"01:23:03","latitude":"38.7262","longitude":"41.9188","depth":"5.0","md":"-.-","ml":"2.5","mw":"-.-","location":"AKYILDIZ-KORKUT (MUS)"},{"date":"2020.10.11","time":"00:47:59","latitude":"35.2315","longitude":"27.1055","depth":"6.8","md":"-.-","ml":"2.6","mw":"-.-","location":"AKDENIZ"},{"date":"2020.10.11","time":"00:21:37","latitude":"37.3800","longitude":"26.6943","depth":"8.1","md":"-.-","ml":"1.8","mw":"-.-","location":"ONIKI ADALAR (AKDENIZ)"},{"date":"2020.10.10","time":"23:25:55","latitude":"37.8785","longitude":"26.7262","depth":"5.5","md":"-.-","ml":"1.3","mw":"-.-","location":"EGE DENIZI"},{"date":"2020.10.10","time":"23:07:19","latitude":"39.3808","longitude":"40.5270","depth":"3.5","md":"-.-","ml":"1.6","mw":"-.-","location":"SENKOY-YEDISU (BINGOL)"},{"date":"2020.10.10","time":"21:01:57","latitude":"37.9405","longitude":"34.0683","depth":"6.5","md":"-.-","ml":"1.9","mw":"-.-","location":"OBRUK-BOR (NIGDE)"},{"date":"2020.10.10","time":"19:34:19","latitude":"38.3957","longitude":"39.2218","depth":"3.6","md":"-.-","ml":"1.3","mw":"-.-","location":"DORTBOLUK-SIVRICE (ELAZIG)"},{"date":"2020.10.10","time":"18:30:25","latitude":"38.2375","longitude":"38.7810","depth":"2.1","md":"-.-","ml":"2.8","mw":"-.-","location":"ORMANICI-PUTURGE (MALATYA)"},{"date":"2020.10.10","time":"18:03:11","latitude":"36.0463","longitude":"27.4095","depth":"9.9","md":"-.-","ml":"2.1","mw":"-.-","location":"AKDENIZ"},{"date":"2020.10.10","time":"17:13:17","latitude":"40.8075","longitude":"33.0580","depth":"9.2","md":"-.-","ml":"2.0","mw":"-.-","location":"ATKARACALAR (CANKIRI)"},{"date":"2020.10.10","time":"17:04:03","latitude":"39.0013","longitude":"27.9008","depth":"5.4","md":"-.-","ml":"1.7","mw":"-.-","location":"YENICE-AKHISAR (MANISA)"},{"date":"2020.10.10","time":"16:38:52","latitude":"40.5247","longitude":"29.2400","depth":"2.5","md":"-.-","ml":"1.3","mw":"-.-","location":"HAMZALI-ORHANGAZI (BURSA)"},{"date":"2020.10.10","time":"16:06:52","latitude":"40.7930","longitude":"33.1100","depth":"1.4","md":"-.-","ml":"2.0","mw":"-.-","location":"ILIPINAR-ATKARACALAR (CANKIRI)"},{"date":"2020.10.10","time":"15:54:14","latitude":"38.4687","longitude":"34.1202","depth":"9.0","md":"-.-","ml":"2.0","mw":"-.-","location":"AGZIKARAHAN-(AKSARAY)"},{"date":"2020.10.10","time":"14:46:05","latitude":"40.7008","longitude":"32.9908","depth":"5.0","md":"-.-","ml":"3.8","mw":"3.8","location":"HACILAR-CERKES (CANKIRI)"},{"date":"2020.10.10","time":"14:35:53","latitude":"36.4740","longitude":"28.7307","depth":"4.9","md":"-.-","ml":"1.9","mw":"-.-","location":"AKDENIZ"},{"date":"2020.10.10","time":"13:44:46","latitude":"37.2452","longitude":"28.2312","depth":"5.0","md":"-.-","ml":"1.7","mw":"-.-","location":"PASAPINARI-(MUGLA)"},{"date":"2020.10.10","time":"13:14:19","latitude":"39.0953","longitude":"27.6643","depth":"0.0","md":"-.-","ml":"1.6","mw":"-.-","location":"KIRKAGAC (MANISA)"},{"date":"2020.10.10","time":"13:09:16","latitude":"36.1545","longitude":"33.5400","depth":"0.0","md":"-.-","ml":"1.4","mw":"-.-","location":"BUYUKECELI-GULNAR (MERSIN)"},{"date":"2020.10.10","time":"13:00:38","latitude":"37.2452","longitude":"28.2323","depth":"7.0","md":"-.-","ml":"1.7","mw":"-.-","location":"PASAPINARI-(MUGLA)"},{"date":"2020.10.10","time":"12:50:44","latitude":"37.2407","longitude":"28.1680","depth":"1.8","md":"-.-","ml":"1.6","mw":"-.-","location":"CAYBUKU-(MUGLA)"},{"date":"2020.10.10","time":"12:37:29","latitude":"35.8385","longitude":"28.1353","depth":"13.6","md":"-.-","ml":"2.1","mw":"-.-","location":"AKDENIZ"},{"date":"2020.10.10","time":"12:36:10","latitude":"36.2815","longitude":"30.0085","depth":"21.9","md":"-.-","ml":"1.5","mw":"-.-","location":"KOSKERLER-DEMRE (ANTALYA)"},{"date":"2020.10.10","time":"12:28:19","latitude":"38.4108","longitude":"34.3450","depth":"4.6","md":"-.-","ml":"1.8","mw":"-.-","location":"GULAGAC (AKSARAY)"},{"date":"2020.10.10","time":"12:23:13","latitude":"37.2188","longitude":"27.9545","depth":"4.4","md":"-.-","ml":"1.5","mw":"-.-","location":"CAMLICA-YATAGAN (MUGLA)"},{"date":"2020.10.10","time":"12:17:03","latitude":"37.2137","longitude":"27.8960","depth":"5.0","md":"-.-","ml":"1.1","mw":"-.-","location":"KAYADERE-MILAS (MUGLA)"},{"date":"2020.10.10","time":"12:11:51","latitude":"37.1250","longitude":"27.8380","depth":"5.2","md":"-.-","ml":"1.5","mw":"-.-","location":"PINARARASI-MILAS (MUGLA)"},{"date":"2020.10.10","time":"12:07:25","latitude":"37.2562","longitude":"37.5860","depth":"5.0","md":"-.-","ml":"1.8","mw":"-.-","location":"SARAYMAGARA-YAVUZELI (GAZIANTEP)"},{"date":"2020.10.10","time":"10:18:23","latitude":"36.2567","longitude":"28.0625","depth":"5.4","md":"-.-","ml":"3.2","mw":"3.3","location":"RODOS ADASI (AKDENIZ)"},{"date":"2020.10.10","time":"09:29:45","latitude":"45.2793","longitude":"25.5502","depth":"78.1","md":"-.-","ml":"3.8","mw":"3.8","location":"ROMANYA"},{"date":"2020.10.10","time":"09:02:54","latitude":"37.2417","longitude":"28.2585","depth":"8.3","md":"-.-","ml":"1.7","mw":"-.-","location":"SALIHPASALAR-(MUGLA)"},{"date":"2020.10.10","time":"08:52:44","latitude":"39.4135","longitude":"28.1245","depth":"1.7","md":"-.-","ml":"0.9","mw":"-.-","location":"ISIKLAR-BIGADIC (BALIKESIR)"},{"date":"2020.10.10","time":"08:46:54","latitude":"38.6420","longitude":"38.1132","depth":"1.8","md":"-.-","ml":"2.3","mw":"-.-","location":"FETHIYE-YAZIHAN (MALATYA)"},{"date":"2020.10.10","time":"08:45:07","latitude":"39.4503","longitude":"31.5492","depth":"10.1","md":"-.-","ml":"1.3","mw":"-.-","location":"SIVRIHISAR (ESKISEHIR)"},{"date":"2020.10.10","time":"08:30:27","latitude":"34.0450","longitude":"25.8755","depth":"8.5","md":"-.-","ml":"3.2","mw":"3.3","location":"GIRIT ADASI ACIKLARI (AKDENIZ)"},{"date":"2020.10.10","time":"07:07:29","latitude":"38.0787","longitude":"44.6380","depth":"9.2","md":"-.-","ml":"3.4","mw":"3.6","location":"TURKIYE-IRAN SINIR BOLGESI"},{"date":"2020.10.10","time":"06:11:46","latitude":"38.0218","longitude":"34.1177","depth":"11.6","md":"-.-","ml":"1.6","mw":"-.-","location":"KECIKALESI-ALTUNHISAR (NIGDE)"},{"date":"2020.10.10","time":"05:45:14","latitude":"39.1678","longitude":"29.3648","depth":"10.3","md":"-.-","ml":"0.6","mw":"-.-","location":"SEYHLER-HISARCIK (KUTAHYA)"},{"date":"2020.10.10","time":"05:41:59","latitude":"39.1473","longitude":"29.4280","depth":"10.7","md":"-.-","ml":"2.4","mw":"-.-","location":"YESILOVA-GEDIZ (KUTAHYA)"},{"date":"2020.10.10","time":"05:35:18","latitude":"37.3232","longitude":"26.7430","depth":"10.8","md":"-.-","ml":"1.8","mw":"-.-","location":"ONIKI ADALAR (AKDENIZ)"},{"date":"2020.10.10","time":"04:41:56","latitude":"38.3312","longitude":"38.9723","depth":"16.0","md":"-.-","ml":"2.0","mw":"-.-","location":"TOPALUSAGI-SIVRICE (ELAZIG)"},{"date":"2020.10.10","time":"04:10:51","latitude":"37.1567","longitude":"27.9252","depth":"4.6","md":"-.-","ml":"1.2","mw":"-.-","location":"KARACAAGAC-MILAS (MUGLA)"},{"date":"2020.10.10","time":"03:56:03","latitude":"40.3278","longitude":"43.0112","depth":"27.8","md":"-.-","ml":"2.2","mw":"-.-","location":"KOMURLU-KAGIZMAN (KARS)"},{"date":"2020.10.10","time":"03:15:46","latitude":"38.7970","longitude":"25.2912","depth":"5.0","md":"-.-","ml":"2.3","mw":"-.-","location":"EGE DENIZI"},{"date":"2020.10.10","time":"02:22:27","latitude":"41.0220","longitude":"31.7220","depth":"5.4","md":"-.-","ml":"2.0","mw":"-.-","location":"YAYLATEPE-YIGILCA (DUZCE)"},{"date":"2020.10.10","time":"00:28:21","latitude":"40.8248","longitude":"28.0153","depth":"14.5","md":"-.-","ml":"2.3","mw":"-.-","location":"MARMARA DENIZI"},{"date":"2020.10.10","time":"00:18:54","latitude":"38.4283","longitude":"39.2655","depth":"7.2","md":"-.-","ml":"1.6","mw":"-.-","location":"DUZBAHCE-SIVRICE (ELAZIG)"},{"date":"2020.10.09","time":"23:19:38","latitude":"39.0613","longitude":"30.1768","depth":"11.6","md":"-.-","ml":"1.3","mw":"-.-","location":"MERKEZ-ALTINTAS (KUTAHYA)"},{"date":"2020.10.09","time":"23:01:21","latitude":"38.7095","longitude":"26.5085","depth":"12.9","md":"-.-","ml":"1.9","mw":"-.-","location":"IZMIR KORFEZI (EGE DENIZI)"},{"date":"2020.10.09","time":"22:50:53","latitude":"39.5248","longitude":"28.8065","depth":"3.1","md":"-.-","ml":"0.9","mw":"-.-","location":"POYRACIK-DURSUNBEY (BALIKESIR)"},{"date":"2020.10.09","time":"22:18:12","latitude":"34.9067","longitude":"25.3558","depth":"73.7","md":"-.-","ml":"2.6","mw":"-.-","location":"GIRIT ADASI (AKDENIZ)"},{"date":"2020.10.09","time":"20:57:25","latitude":"38.0620","longitude":"38.6900","depth":"22.0","md":"-.-","ml":"1.3","mw":"-.-","location":"CAT-SINCIK (ADIYAMAN)"},{"date":"2020.10.09","time":"20:56:39","latitude":"37.5012","longitude":"27.5900","depth":"16.0","md":"-.-","ml":"1.8","mw":"-.-","location":"KARAHAYIT-MILAS (MUGLA)"},{"date":"2020.10.09","time":"20:28:45","latitude":"38.4103","longitude":"39.2370","depth":"7.6","md":"-.-","ml":"1.7","mw":"-.-","location":"SOGUKPINAR-SIVRICE (ELAZIG)"},{"date":"2020.10.09","time":"20:23:21","latitude":"37.2698","longitude":"26.5727","depth":"26.7","md":"-.-","ml":"2.0","mw":"-.-","location":"ONIKI ADALAR (AKDENIZ)"},{"date":"2020.10.09","time":"20:19:46","latitude":"36.9793","longitude":"27.8840","depth":"4.5","md":"-.-","ml":"1.6","mw":"-.-","location":"GOKOVA KORFEZI (AKDENIZ)"},{"date":"2020.10.09","time":"20:12:03","latitude":"36.9768","longitude":"27.7492","depth":"5.0","md":"-.-","ml":"2.5","mw":"-.-","location":"GOKOVA KORFEZI (AKDENIZ)"},{"date":"2020.10.09","time":"19:24:10","latitude":"38.9703","longitude":"27.8572","depth":"3.9","md":"-.-","ml":"1.8","mw":"-.-","location":"KARABORKLU-AKHISAR (MANISA)"},{"date":"2020.10.09","time":"19:11:24","latitude":"37.3303","longitude":"26.7595","depth":"17.1","md":"-.-","ml":"2.0","mw":"-.-","location":"ONIKI ADALAR (AKDENIZ)"},{"date":"2020.10.09","time":"19:09:52","latitude":"37.3142","longitude":"26.6922","depth":"18.1","md":"-.-","ml":"2.9","mw":"-.-","location":"ONIKI ADALAR (AKDENIZ)"},{"date":"2020.10.09","time":"18:39:03","latitude":"39.8937","longitude":"33.0750","depth":"0.0","md":"-.-","ml":"1.7","mw":"-.-","location":"ELMADAG (ANKARA)"},{"date":"2020.10.09","time":"18:30:16","latitude":"39.6445","longitude":"35.5932","depth":"7.9","md":"-.-","ml":"1.7","mw":"-.-","location":"OZAN-SARAYKENT (YOZGAT)"},{"date":"2020.10.09","time":"17:58:48","latitude":"40.5977","longitude":"27.4783","depth":"9.0","md":"-.-","ml":"1.6","mw":"-.-","location":"EKINLIK-MARMARA (BALIKESIR)"},{"date":"2020.10.09","time":"17:46:38","latitude":"36.8528","longitude":"27.8953","depth":"10.4","md":"-.-","ml":"1.8","mw":"-.-","location":"GOKOVA KORFEZI (AKDENIZ)"},{"date":"2020.10.09","time":"17:22:19","latitude":"37.2115","longitude":"37.2087","depth":"0.0","md":"-.-","ml":"1.1","mw":"-.-","location":"UCGOZE-SEHITKAMIL (GAZIANTEP)"},{"date":"2020.10.09","time":"16:59:02","latitude":"38.6657","longitude":"38.0415","depth":"5.0","md":"-.-","ml":"2.2","mw":"-.-","location":"ALICAN-YAZIHAN (MALATYA)"},{"date":"2020.10.09","time":"15:36:26","latitude":"36.4397","longitude":"27.7085","depth":"5.0","md":"-.-","ml":"2.5","mw":"-.-","location":"AKDENIZ"},{"date":"2020.10.09","time":"14:53:57","latitude":"38.1333","longitude":"45.0028","depth":"82.0","md":"-.-","ml":"2.5","mw":"-.-","location":"IRAN"},{"date":"2020.10.09","time":"14:13:14","latitude":"39.4107","longitude":"29.4803","depth":"27.0","md":"-.-","ml":"1.5","mw":"-.-","location":"UYUCEK-TAVSANLI (KUTAHYA)"},{"date":"2020.10.09","time":"13:33:21","latitude":"41.1108","longitude":"40.0858","depth":"6.8","md":"-.-","ml":"2.1","mw":"-.-","location":"TRABZON ACIKLARI (KARADENIZ)"},{"date":"2020.10.09","time":"13:11:02","latitude":"39.7442","longitude":"30.7858","depth":"0.0","md":"-.-","ml":"1.4","mw":"-.-","location":"KIRECKOYU-ODUNPAZARI (ESKISEHIR)"},{"date":"2020.10.09","time":"13:08:23","latitude":"36.4253","longitude":"34.2455","depth":"11.1","md":"-.-","ml":"1.6","mw":"-.-","location":"AYAS-ERDEMLI (MERSIN)"},{"date":"2020.10.09","time":"12:25:54","latitude":"39.1603","longitude":"29.4065","depth":"7.2","md":"-.-","ml":"1.7","mw":"-.-","location":"YESILOVA-GEDIZ (KUTAHYA)"},{"date":"2020.10.09","time":"12:12:04","latitude":"39.5850","longitude":"29.4193","depth":"0.0","md":"-.-","ml":"1.5","mw":"-.-","location":"KAYAARASI-TAVSANLI (KUTAHYA)"},{"date":"2020.10.09","time":"12:08:00","latitude":"39.4515","longitude":"28.1408","depth":"9.5","md":"-.-","ml":"1.4","mw":"-.-","location":"SALMANLI-BIGADIC (BALIKESIR)"},{"date":"2020.10.09","time":"11:59:16","latitude":"39.8900","longitude":"28.8268","depth":"0.0","md":"-.-","ml":"1.5","mw":"-.-","location":"YENIDANISMENT-ORHANELI (BURSA)"},{"date":"2020.10.09","time":"11:49:18","latitude":"37.6153","longitude":"29.2030","depth":"0.0","md":"-.-","ml":"1.2","mw":"-.-","location":"SARIABAT-TAVAS (DENIZLI)"},{"date":"2020.10.09","time":"11:45:51","latitude":"37.0297","longitude":"29.5482","depth":"5.0","md":"-.-","ml":"1.2","mw":"-.-","location":"CATAK-ALTINYAYLA (BURDUR)"},{"date":"2020.10.09","time":"11:26:24","latitude":"37.4470","longitude":"29.2175","depth":"31.2","md":"-.-","ml":"0.8","mw":"-.-","location":"OVACIK-TAVAS (DENIZLI)"},{"date":"2020.10.09","time":"09:44:44","latitude":"38.5362","longitude":"26.6670","depth":"5.5","md":"-.-","ml":"1.7","mw":"-.-","location":"IZMIR KORFEZI (EGE DENIZI)"},{"date":"2020.10.09","time":"09:38:46","latitude":"38.2487","longitude":"38.7562","depth":"10.8","md":"-.-","ml":"0.9","mw":"-.-","location":"BALPINARI-PUTURGE (MALATYA)"},{"date":"2020.10.09","time":"08:57:57","latitude":"39.1638","longitude":"29.3932","depth":"9.3","md":"-.-","ml":"1.6","mw":"-.-","location":"YESILOVA-GEDIZ (KUTAHYA)"},{"date":"2020.10.09","time":"08:38:22","latitude":"38.8145","longitude":"27.0192","depth":"6.0","md":"-.-","ml":"2.0","mw":"-.-","location":"GUZELHISAR-ALIAGA (IZMIR)"},{"date":"2020.10.09","time":"06:37:44","latitude":"34.9165","longitude":"26.7197","depth":"6.8","md":"-.-","ml":"3.0","mw":"-.-","location":"GIRIT ADASI ACIKLARI (AKDENIZ)"},{"date":"2020.10.09","time":"05:32:32","latitude":"36.8692","longitude":"29.1912","depth":"5.4","md":"-.-","ml":"1.3","mw":"-.-","location":"SOGUTLU-FETHIYE (MUGLA)"},{"date":"2020.10.09","time":"04:47:19","latitude":"39.4848","longitude":"29.0395","depth":"8.2","md":"-.-","ml":"1.9","mw":"-.-","location":"KAVAKLI-TAVSANLI (KUTAHYA)"},{"date":"2020.10.09","time":"03:35:34","latitude":"36.7837","longitude":"27.1250","depth":"25.9","md":"-.-","ml":"1.3","mw":"-.-","location":"KOS ADASI (AKDENIZ)"},{"date":"2020.10.09","time":"03:00:20","latitude":"37.8605","longitude":"26.7367","depth":"7.7","md":"-.-","ml":"3.6","mw":"3.6","location":"EGE DENIZI"},{"date":"2020.10.09","time":"02:01:04","latitude":"37.4585","longitude":"29.9223","depth":"5.0","md":"-.-","ml":"1.6","mw":"-.-","location":"MURSELLER-KARAMANLI (BURDUR)"},{"date":"2020.10.09","time":"01:03:26","latitude":"40.7267","longitude":"31.4693","depth":"15.7","md":"-.-","ml":"1.8","mw":"-.-","location":"YOLCATI-(BOLU)"},{"date":"2020.10.08","time":"23:45:18","latitude":"38.4202","longitude":"42.7638","depth":"5.3","md":"-.-","ml":"2.3","mw":"-.-","location":"DAGDIBI-TATVAN (BITLIS)"},{"date":"2020.10.08","time":"22:46:05","latitude":"36.3402","longitude":"28.1480","depth":"14.6","md":"-.-","ml":"1.4","mw":"-.-","location":"RODOS ADASI (AKDENIZ)"},{"date":"2020.10.08","time":"22:38:55","latitude":"36.8623","longitude":"28.8487","depth":"14.2","md":"-.-","ml":"1.2","mw":"-.-","location":"KIZILKAYA-DALAMAN (MUGLA)"},{"date":"2020.10.08","time":"21:07:07","latitude":"37.7158","longitude":"32.2300","depth":"0.0","md":"-.-","ml":"1.8","mw":"-.-","location":"KAYALI-MERAM (KONYA)"},{"date":"2020.10.08","time":"21:01:57","latitude":"38.9573","longitude":"27.1740","depth":"13.3","md":"-.-","ml":"1.7","mw":"-.-","location":"KOYUNELI-BERGAMA (IZMIR)"},{"date":"2020.10.08","time":"20:41:56","latitude":"37.2307","longitude":"32.3852","depth":"19.7","md":"-.-","ml":"1.9","mw":"-.-","location":"AYDINKISLA-BOZKIR (KONYA)"},{"date":"2020.10.08","time":"20:01:54","latitude":"37.9623","longitude":"34.0830","depth":"15.7","md":"-.-","ml":"1.8","mw":"-.-","location":"OBRUK-BOR (NIGDE)"},{"date":"2020.10.08","time":"20:00:09","latitude":"40.7230","longitude":"33.0127","depth":"11.9","md":"-.-","ml":"1.6","mw":"-.-","location":"GUZELYURT-CERKES (CANKIRI)"},{"date":"2020.10.08","time":"19:45:36","latitude":"38.2838","longitude":"38.7488","depth":"5.4","md":"-.-","ml":"2.7","mw":"-.-","location":"BALPINARI-PUTURGE (MALATYA)"},{"date":"2020.10.08","time":"19:36:43","latitude":"40.7635","longitude":"32.9933","depth":"9.9","md":"-.-","ml":"2.4","mw":"-.-","location":"YALIOZU-CERKES (CANKIRI)"},{"date":"2020.10.08","time":"19:06:04","latitude":"34.8522","longitude":"24.3087","depth":"5.0","md":"-.-","ml":"2.9","mw":"-.-","location":"GIRIT ADASI ACIKLARI (AKDENIZ)"},{"date":"2020.10.08","time":"16:55:52","latitude":"38.7518","longitude":"27.9365","depth":"5.3","md":"-.-","ml":"2.4","mw":"-.-","location":"HIROGLU-GOLMARMARA (MANISA)"},{"date":"2020.10.08","time":"16:55:30","latitude":"38.3877","longitude":"39.2262","depth":"11.5","md":"-.-","ml":"1.7","mw":"-.-","location":"DORTBOLUK-SIVRICE (ELAZIG)"},{"date":"2020.10.08","time":"16:44:07","latitude":"38.9687","longitude":"32.7377","depth":"0.0","md":"-.-","ml":"1.7","mw":"-.-","location":"BULDUK-CIHANBEYLI (KONYA)"},{"date":"2020.10.08","time":"16:17:37","latitude":"36.8892","longitude":"27.8208","depth":"3.2","md":"-.-","ml":"1.4","mw":"-.-","location":"GOKOVA KORFEZI (AKDENIZ)"},{"date":"2020.10.08","time":"16:08:12","latitude":"38.2167","longitude":"38.7780","depth":"14.6","md":"-.-","ml":"2.1","mw":"-.-","location":"ORMANICI-PUTURGE (MALATYA)"},{"date":"2020.10.08","time":"15:48:07","latitude":"36.2915","longitude":"27.9738","depth":"23.2","md":"-.-","ml":"1.9","mw":"-.-","location":"RODOS ADASI (AKDENIZ)"},{"date":"2020.10.08","time":"14:19:30","latitude":"39.2307","longitude":"33.3922","depth":"25.9","md":"-.-","ml":"1.2","mw":"-.-","location":"BUYUKDAMLACIK-SEREFLIKOCHISAR (ANKARA)"},{"date":"2020.10.08","time":"13:02:32","latitude":"34.7140","longitude":"24.3107","depth":"9.0","md":"-.-","ml":"3.2","mw":"3.2","location":"GIRIT ADASI ACIKLARI (AKDENIZ)"},{"date":"2020.10.08","time":"12:22:55","latitude":"39.6270","longitude":"29.4145","depth":"0.0","md":"-.-","ml":"1.4","mw":"-.-","location":"TUNCBILEK-TAVSANLI (KUTAHYA)"},{"date":"2020.10.08","time":"12:11:53","latitude":"39.6103","longitude":"29.3417","depth":"16.8","md":"-.-","ml":"1.5","mw":"-.-","location":"YENIKOY-TAVSANLI (KUTAHYA)"},{"date":"2020.10.08","time":"12:06:22","latitude":"36.5915","longitude":"30.1257","depth":"29.4","md":"-.-","ml":"1.4","mw":"-.-","location":"KARACAOREN-KUMLUCA (ANTALYA)"},{"date":"2020.10.08","time":"12:04:39","latitude":"38.8420","longitude":"37.8957","depth":"10.1","md":"-.-","ml":"1.8","mw":"-.-","location":"BEYKENT-HEKIMHAN (MALATYA)"},{"date":"2020.10.08","time":"11:57:20","latitude":"37.2223","longitude":"28.1820","depth":"0.0","md":"-.-","ml":"1.6","mw":"-.-","location":"CAYBUKU-(MUGLA)"},{"date":"2020.10.08","time":"11:49:51","latitude":"38.8435","longitude":"37.8988","depth":"2.8","md":"-.-","ml":"1.1","mw":"-.-","location":"BEYKENT-HEKIMHAN (MALATYA)"},{"date":"2020.10.08","time":"11:48:25","latitude":"37.2392","longitude":"31.7345","depth":"13.5","md":"-.-","ml":"1.8","mw":"-.-","location":"SALIHLER-AKSEKI (ANTALYA)"},{"date":"2020.10.08","time":"11:27:00","latitude":"40.4798","longitude":"29.2815","depth":"0.0","md":"-.-","ml":"1.7","mw":"-.-","location":"FINDIKLI-ORHANGAZI (BURSA)"},{"date":"2020.10.08","time":"11:18:41","latitude":"37.9627","longitude":"34.1057","depth":"4.3","md":"-.-","ml":"2.0","mw":"-.-","location":"OBRUK-BOR (NIGDE)"},{"date":"2020.10.08","time":"10:01:34","latitude":"39.1340","longitude":"27.6335","depth":"0.0","md":"-.-","ml":"1.3","mw":"-.-","location":"SARIKAYA-SOMA (MANISA)"},{"date":"2020.10.08","time":"09:32:40","latitude":"39.0370","longitude":"27.8230","depth":"3.2","md":"-.-","ml":"1.1","mw":"-.-","location":"MUSALAR-AKHISAR (MANISA)"},{"date":"2020.10.08","time":"09:16:36","latitude":"34.8690","longitude":"24.2952","depth":"5.0","md":"-.-","ml":"3.5","mw":"3.3","location":"GIRIT ADASI ACIKLARI (AKDENIZ)"},{"date":"2020.10.08","time":"09:12:28","latitude":"38.6582","longitude":"38.0487","depth":"6.2","md":"-.-","ml":"1.4","mw":"-.-","location":"ALICAN-YAZIHAN (MALATYA)"},{"date":"2020.10.08","time":"08:23:01","latitude":"40.0510","longitude":"35.7483","depth":"5.0","md":"-.-","ml":"1.9","mw":"-.-","location":"YAVUHASAN-KADISEHRI (YOZGAT)"},{"date":"2020.10.08","time":"07:00:49","latitude":"39.1763","longitude":"28.9833","depth":"5.3","md":"-.-","ml":"2.6","mw":"-.-","location":"NASA-SIMAV (KUTAHYA)"},{"date":"2020.10.08","time":"06:59:40","latitude":"39.1670","longitude":"29.0067","depth":"6.0","md":"-.-","ml":"2.1","mw":"-.-","location":"KARACAOREN-SIMAV (KUTAHYA)"},{"date":"2020.10.08","time":"05:59:20","latitude":"39.3620","longitude":"40.6972","depth":"4.3","md":"-.-","ml":"1.6","mw":"-.-","location":"DINARBEY-YEDISU (BINGOL)"},{"date":"2020.10.08","time":"05:56:00","latitude":"38.5423","longitude":"38.7938","depth":"2.5","md":"-.-","ml":"2.1","mw":"-.-","location":"SAHAPLI-BASKIL (ELAZIG)"},{"date":"2020.10.08","time":"04:36:48","latitude":"35.3847","longitude":"26.6488","depth":"5.0","md":"-.-","ml":"1.3","mw":"-.-","location":"GIRIT ADASI (AKDENIZ)"},{"date":"2020.10.08","time":"04:09:40","latitude":"35.3868","longitude":"26.6385","depth":"5.0","md":"-.-","ml":"1.2","mw":"-.-","location":"GIRIT ADASI (AKDENIZ)"},{"date":"2020.10.08","time":"04:05:52","latitude":"37.8965","longitude":"32.2107","depth":"3.5","md":"-.-","ml":"1.0","mw":"-.-","location":"ULUMUHSINE-SELCUKLU (KONYA)"},{"date":"2020.10.08","time":"03:58:38","latitude":"38.3800","longitude":"39.1683","depth":"6.7","md":"-.-","ml":"1.6","mw":"-.-","location":"KOSEBAYIR-SIVRICE (ELAZIG)"},{"date":"2020.10.08","time":"03:43:35","latitude":"35.0497","longitude":"26.9798","depth":"5.0","md":"-.-","ml":"2.6","mw":"-.-","location":"GIRIT ADASI ACIKLARI (AKDENIZ)"},{"date":"2020.10.08","time":"02:55:34","latitude":"35.7445","longitude":"26.9392","depth":"12.8","md":"-.-","ml":"1.4","mw":"-.-","location":"AKDENIZ"},{"date":"2020.10.08","time":"02:38:14","latitude":"36.8907","longitude":"28.0042","depth":"4.7","md":"-.-","ml":"1.3","mw":"-.-","location":"GOKOVA KORFEZI (AKDENIZ)"},{"date":"2020.10.08","time":"02:37:21","latitude":"37.8112","longitude":"27.2257","depth":"4.7","md":"-.-","ml":"1.5","mw":"-.-","location":"KUSADASI KORFEZI (EGE DENIZI)"},{"date":"2020.10.08","time":"02:32:16","latitude":"40.1787","longitude":"24.9762","depth":"17.5","md":"-.-","ml":"2.1","mw":"-.-","location":"EGE DENIZI"},{"date":"2020.10.08","time":"01:36:47","latitude":"39.8185","longitude":"27.7215","depth":"8.4","md":"-.-","ml":"1.7","mw":"-.-","location":"GOKMUSA-BALYA (BALIKESIR)"},{"date":"2020.10.08","time":"00:44:16","latitude":"35.1117","longitude":"32.8510","depth":"15.3","md":"-.-","ml":"2.0","mw":"-.-","location":"KIBRIS-LEFKE"},{"date":"2020.10.08","time":"00:22:53","latitude":"36.5027","longitude":"27.4882","depth":"10.1","md":"-.-","ml":"1.7","mw":"-.-","location":"AKDENIZ"},{"date":"2020.10.08","time":"00:13:03","latitude":"36.1433","longitude":"29.2938","depth":"6.1","md":"-.-","ml":"1.4","mw":"-.-","location":"KALKAN ACIKLARI-ANTALYA (AKDENIZ)"},{"date":"2020.10.07","time":"21:51:41","latitude":"38.4278","longitude":"26.6268","depth":"12.6","md":"-.-","ml":"2.2","mw":"-.-","location":"BALIKLIOVA-URLA (IZMIR)"},{"date":"2020.10.07","time":"21:39:54","latitude":"39.2408","longitude":"43.7225","depth":"24.8","md":"-.-","ml":"2.0","mw":"-.-","location":"DEDEBULAK-DIYADIN (AGRI)"},{"date":"2020.10.07","time":"21:32:02","latitude":"34.4963","longitude":"25.0052","depth":"22.5","md":"-.-","ml":"3.3","mw":"3.3","location":"GIRIT ADASI ACIKLARI (AKDENIZ)"},{"date":"2020.10.07","time":"21:17:09","latitude":"36.4507","longitude":"28.6803","depth":"3.6","md":"-.-","ml":"1.8","mw":"-.-","location":"AKDENIZ"},{"date":"2020.10.07","time":"21:08:34","latitude":"35.7518","longitude":"28.3125","depth":"5.2","md":"-.-","ml":"1.6","mw":"-.-","location":"AKDENIZ"},{"date":"2020.10.07","time":"21:01:19","latitude":"35.8087","longitude":"28.2415","depth":"5.0","md":"-.-","ml":"1.5","mw":"-.-","location":"AKDENIZ"},{"date":"2020.10.07","time":"20:40:28","latitude":"39.7867","longitude":"27.5840","depth":"7.4","md":"-.-","ml":"1.2","mw":"-.-","location":"YAZLIK-BALYA (BALIKESIR)"},{"date":"2020.10.07","time":"20:24:42","latitude":"38.0382","longitude":"34.0957","depth":"2.5","md":"-.-","ml":"1.5","mw":"-.-","location":"KECIKALESI-ALTUNHISAR (NIGDE)"},{"date":"2020.10.07","time":"19:31:31","latitude":"38.0085","longitude":"34.0717","depth":"6.0","md":"-.-","ml":"2.2","mw":"-.-","location":"OBRUK-BOR (NIGDE)"},{"date":"2020.10.07","time":"18:46:17","latitude":"38.4123","longitude":"39.2760","depth":"21.0","md":"-.-","ml":"1.8","mw":"-.-","location":"YEDIKARDES-SIVRICE (ELAZIG)"},{"date":"2020.10.07","time":"17:55:45","latitude":"39.8848","longitude":"33.0590","depth":"0.0","md":"-.-","ml":"1.5","mw":"-.-","location":"MAMAK (ANKARA)"},{"date":"2020.10.07","time":"16:42:58","latitude":"38.3635","longitude":"39.6048","depth":"11.8","md":"-.-","ml":"2.3","mw":"-.-","location":"CAYIRKOY-MADEN (ELAZIG)"},{"date":"2020.10.07","time":"16:26:44","latitude":"38.4825","longitude":"39.2407","depth":"3.8","md":"-.-","ml":"3.5","mw":"3.5","location":"ALINCIK-SIVRICE (ELAZIG)"},{"date":"2020.10.07","time":"16:10:09","latitude":"37.1018","longitude":"27.8657","depth":"8.9","md":"-.-","ml":"1.7","mw":"-.-","location":"BAYIRKOY-MILAS (MUGLA)"},{"date":"2020.10.07","time":"16:08:18","latitude":"37.1083","longitude":"27.8660","depth":"5.4","md":"-.-","ml":"2.3","mw":"-.-","location":"BAYIRKOY-MILAS (MUGLA)"},{"date":"2020.10.07","time":"15:16:28","latitude":"35.8655","longitude":"32.7258","depth":"25.6","md":"-.-","ml":"2.1","mw":"-.-","location":"ANAMUR ACIKLARI-MERSIN (AKDENIZ)"},{"date":"2020.10.07","time":"14:27:43","latitude":"36.0177","longitude":"30.7553","depth":"16.2","md":"-.-","ml":"2.6","mw":"-.-","location":"AKDENIZ"},{"date":"2020.10.07","time":"14:12:41","latitude":"36.0238","longitude":"30.7987","depth":"1.7","md":"-.-","ml":"2.6","mw":"-.-","location":"AKDENIZ"},{"date":"2020.10.07","time":"14:01:18","latitude":"36.7385","longitude":"29.9395","depth":"5.0","md":"-.-","ml":"1.2","mw":"-.-","location":"ELMALI (ANTALYA)"},{"date":"2020.10.07","time":"13:34:58","latitude":"38.2040","longitude":"38.7462","depth":"10.3","md":"-.-","ml":"2.2","mw":"-.-","location":"PAZARCIK-PUTURGE (MALATYA)"},{"date":"2020.10.07","time":"13:16:54","latitude":"39.8748","longitude":"33.0570","depth":"9.0","md":"-.-","ml":"1.6","mw":"-.-","location":"MAMAK (ANKARA)"},{"date":"2020.10.07","time":"13:05:17","latitude":"39.9058","longitude":"28.8565","depth":"0.0","md":"-.-","ml":"1.7","mw":"-.-","location":"DUNDAR-ORHANELI (BURSA)"},{"date":"2020.10.07","time":"13:03:00","latitude":"36.9537","longitude":"28.2415","depth":"5.0","md":"-.-","ml":"1.2","mw":"-.-","location":"CAMLI-MARMARIS (MUGLA)"},{"date":"2020.10.07","time":"12:27:44","latitude":"39.2753","longitude":"27.6058","depth":"14.3","md":"-.-","ml":"1.5","mw":"-.-","location":"HECIZ-SOMA (MANISA)"},{"date":"2020.10.07","time":"12:06:46","latitude":"39.8290","longitude":"29.6278","depth":"0.0","md":"-.-","ml":"1.9","mw":"-.-","location":"DURABEY-DOMANIC (KUTAHYA)"},{"date":"2020.10.07","time":"11:52:09","latitude":"37.2337","longitude":"28.1627","depth":"0.0","md":"-.-","ml":"1.6","mw":"-.-","location":"CAYBUKU-(MUGLA)"},{"date":"2020.10.07","time":"11:51:46","latitude":"39.9983","longitude":"30.1583","depth":"0.0","md":"-.-","ml":"1.8","mw":"-.-","location":"KIZILSARAY-SOGUT (BILECIK)"},{"date":"2020.10.07","time":"11:45:20","latitude":"40.5382","longitude":"29.2583","depth":"0.0","md":"-.-","ml":"1.8","mw":"-.-","location":"HAMZALI-ORHANGAZI (BURSA)"},{"date":"2020.10.07","time":"11:29:03","latitude":"36.8725","longitude":"27.9833","depth":"5.0","md":"-.-","ml":"1.4","mw":"-.-","location":"GOKOVA KORFEZI (AKDENIZ)"},{"date":"2020.10.07","time":"11:02:09","latitude":"39.8380","longitude":"24.3575","depth":"5.0","md":"-.-","ml":"2.6","mw":"-.-","location":"YUNANISTAN"},{"date":"2020.10.07","time":"10:08:31","latitude":"39.4338","longitude":"28.0878","depth":"9.9","md":"-.-","ml":"1.3","mw":"-.-","location":"BADEMLI-BIGADIC (BALIKESIR)"},{"date":"2020.10.07","time":"09:32:55","latitude":"36.8785","longitude":"26.6905","depth":"22.1","md":"-.-","ml":"1.8","mw":"-.-","location":"AKDENIZ"},{"date":"2020.10.07","time":"09:17:55","latitude":"36.8707","longitude":"28.0083","depth":"6.6","md":"-.-","ml":"1.7","mw":"-.-","location":"GOKOVA KORFEZI (AKDENIZ)"},{"date":"2020.10.07","time":"07:55:22","latitude":"37.9988","longitude":"34.1073","depth":"5.0","md":"-.-","ml":"2.9","mw":"-.-","location":"KECIKALESI-ALTUNHISAR (NIGDE)"},{"date":"2020.10.07","time":"07:35:27","latitude":"37.9897","longitude":"34.0870","depth":"5.4","md":"-.-","ml":"2.6","mw":"-.-","location":"OBRUK-BOR (NIGDE)"},{"date":"2020.10.07","time":"05:35:03","latitude":"38.5360","longitude":"25.7607","depth":"7.6","md":"-.-","ml":"3.0","mw":"3.1","location":"SAKIZ ADASI (EGE DENIZI)"},{"date":"2020.10.07","time":"05:30:53","latitude":"39.1557","longitude":"28.9898","depth":"5.4","md":"-.-","ml":"2.5","mw":"-.-","location":"NASA-SIMAV (KUTAHYA)"},{"date":"2020.10.07","time":"05:01:01","latitude":"40.8763","longitude":"28.2140","depth":"14.7","md":"-.-","ml":"1.9","mw":"-.-","location":"SILIVRI ACIKLARI-ISTANBUL (MARMARA DENIZI)"},{"date":"2020.10.07","time":"04:59:35","latitude":"36.8892","longitude":"28.0032","depth":"5.2","md":"-.-","ml":"1.1","mw":"-.-","location":"GOKOVA KORFEZI (AKDENIZ)"},{"date":"2020.10.07","time":"02:35:23","latitude":"39.7547","longitude":"33.3592","depth":"5.2","md":"-.-","ml":"2.6","mw":"-.-","location":"CAMLICA-BAHSILI (KIRIKKALE)"},{"date":"2020.10.07","time":"00:17:01","latitude":"34.9080","longitude":"24.2315","depth":"7.1","md":"-.-","ml":"2.4","mw":"-.-","location":"GIRIT ADASI (AKDENIZ)"},{"date":"2020.10.07","time":"00:04:27","latitude":"40.0342","longitude":"24.4200","depth":"5.0","md":"-.-","ml":"2.5","mw":"-.-","location":"YUNANISTAN"},{"date":"2020.10.06","time":"20:21:27","latitude":"35.4187","longitude":"22.3023","depth":"84.7","md":"-.-","ml":"3.8","mw":"3.8","location":"YUNANISTAN"},{"date":"2020.10.06","time":"19:17:23","latitude":"36.9377","longitude":"27.4917","depth":"14.9","md":"-.-","ml":"1.4","mw":"-.-","location":"GOKOVA KORFEZI (AKDENIZ)"},{"date":"2020.10.06","time":"18:55:29","latitude":"36.9433","longitude":"27.6078","depth":"4.8","md":"-.-","ml":"1.7","mw":"-.-","location":"GOKOVA KORFEZI (AKDENIZ)"},{"date":"2020.10.06","time":"18:17:20","latitude":"39.1592","longitude":"29.0578","depth":"6.9","md":"-.-","ml":"1.9","mw":"-.-","location":"AHLATLICESME-SIMAV (KUTAHYA)"},{"date":"2020.10.06","time":"18:07:27","latitude":"39.2170","longitude":"27.6510","depth":"4.4","md":"-.-","ml":"2.3","mw":"-.-","location":"EVCILER-SOMA (MANISA)"},{"date":"2020.10.06","time":"17:12:13","latitude":"37.9898","longitude":"34.0237","depth":"5.0","md":"-.-","ml":"2.1","mw":"-.-","location":"OBRUK-BOR (NIGDE)"},{"date":"2020.10.06","time":"16:18:11","latitude":"40.8732","longitude":"25.5962","depth":"6.2","md":"-.-","ml":"1.4","mw":"-.-","location":"EGE DENIZI"},{"date":"2020.10.06","time":"15:56:30","latitude":"39.2102","longitude":"27.3658","depth":"12.6","md":"-.-","ml":"1.7","mw":"-.-","location":"ALIBEYLI-BERGAMA (IZMIR)"},{"date":"2020.10.06","time":"15:39:05","latitude":"36.9428","longitude":"29.4305","depth":"17.9","md":"-.-","ml":"2.0","mw":"-.-","location":"ELMALIYURT-GOLHISAR (BURDUR)"},{"date":"2020.10.06","time":"15:28:00","latitude":"40.1557","longitude":"29.9777","depth":"0.0","md":"-.-","ml":"1.6","mw":"-.-","location":"BILECIK (BILECIK)"},{"date":"2020.10.06","time":"14:37:54","latitude":"36.9583","longitude":"34.7832","depth":"0.0","md":"-.-","ml":"1.4","mw":"-.-","location":"DEDELER-TARSUS (MERSIN)"},{"date":"2020.10.06","time":"14:30:03","latitude":"40.7917","longitude":"30.9165","depth":"11.5","md":"-.-","ml":"2.3","mw":"-.-","location":"DEREKOY-GUMUSOVA (DUZCE)"},{"date":"2020.10.06","time":"13:59:19","latitude":"39.0557","longitude":"29.7320","depth":"29.5","md":"-.-","ml":"1.6","mw":"-.-","location":"TOKUL-ASLANAPA (KUTAHYA)"},{"date":"2020.10.06","time":"13:50:04","latitude":"39.8995","longitude":"28.8917","depth":"0.0","md":"-.-","ml":"1.6","mw":"-.-","location":"YESILLER-ORHANELI (BURSA)"},{"date":"2020.10.06","time":"13:25:36","latitude":"38.1822","longitude":"38.7590","depth":"19.1","md":"-.-","ml":"2.2","mw":"-.-","location":"YAZICA-PUTURGE (MALATYA)"},{"date":"2020.10.06","time":"13:12:54","latitude":"41.1783","longitude":"28.8155","depth":"0.0","md":"-.-","ml":"0.9","mw":"-.-","location":"PIRINCCI-EYUP (ISTANBUL)"},{"date":"2020.10.06","time":"12:45:58","latitude":"40.2755","longitude":"30.6967","depth":"4.8","md":"-.-","ml":"2.0","mw":"-.-","location":"SARICALAR-GOYNUK (BOLU)"},{"date":"2020.10.06","time":"12:30:54","latitude":"37.2637","longitude":"28.4532","depth":"22.3","md":"-.-","ml":"1.4","mw":"-.-","location":"OZLUCE-(MUGLA)"},{"date":"2020.10.06","time":"12:29:18","latitude":"39.3452","longitude":"33.4168","depth":"0.0","md":"-.-","ml":"1.8","mw":"-.-","location":"KUCUKCAMILI-BALA (ANKARA)"},{"date":"2020.10.06","time":"12:24:22","latitude":"37.2205","longitude":"28.1743","depth":"0.0","md":"-.-","ml":"1.7","mw":"-.-","location":"CAYBUKU-(MUGLA)"},{"date":"2020.10.06","time":"12:15:45","latitude":"40.8343","longitude":"29.4665","depth":"0.0","md":"-.-","ml":"1.2","mw":"-.-","location":"PELITLI-GEBZE (KOCAELI)"},{"date":"2020.10.06","time":"12:05:24","latitude":"38.3372","longitude":"39.3630","depth":"26.4","md":"-.-","ml":"1.8","mw":"-.-","location":"CAKIROGLU-MADEN (ELAZIG)"},{"date":"2020.10.06","time":"11:58:30","latitude":"38.2667","longitude":"38.8245","depth":"1.4","md":"-.-","ml":"3.5","mw":"3.4","location":"AKTARLI-PUTURGE (MALATYA)"},{"date":"2020.10.06","time":"11:36:43","latitude":"39.1472","longitude":"27.5358","depth":"0.0","md":"-.-","ml":"1.5","mw":"-.-","location":"AVDAN-SOMA (MANISA)"},{"date":"2020.10.06","time":"10:28:59","latitude":"39.5303","longitude":"38.6770","depth":"9.1","md":"-.-","ml":"2.6","mw":"-.-","location":"KAYABASI-KEMAH (ERZINCAN)"},{"date":"2020.10.06","time":"10:23:25","latitude":"38.9868","longitude":"27.4905","depth":"17.7","md":"-.-","ml":"1.5","mw":"-.-","location":"ARPADERE-KINIK (IZMIR)"},{"date":"2020.10.06","time":"09:30:49","latitude":"36.7968","longitude":"26.4960","depth":"19.0","md":"-.-","ml":"2.2","mw":"-.-","location":"AKDENIZ"},{"date":"2020.10.06","time":"09:16:35","latitude":"36.9478","longitude":"27.7045","depth":"6.7","md":"-.-","ml":"2.7","mw":"-.-","location":"GOKOVA KORFEZI (AKDENIZ)"},{"date":"2020.10.06","time":"08:50:18","latitude":"37.9900","longitude":"34.0842","depth":"5.0","md":"-.-","ml":"3.0","mw":"2.9","location":"OBRUK-BOR (NIGDE)"},{"date":"2020.10.06","time":"07:04:00","latitude":"40.3245","longitude":"24.0580","depth":"5.0","md":"-.-","ml":"1.9","mw":"-.-","location":"YUNANISTAN"},{"date":"2020.10.06","time":"06:47:54","latitude":"38.6912","longitude":"38.0557","depth":"8.3","md":"-.-","ml":"1.2","mw":"-.-","location":"ALICAN-YAZIHAN (MALATYA)"},{"date":"2020.10.06","time":"06:19:13","latitude":"39.4828","longitude":"25.8268","depth":"6.8","md":"-.-","ml":"1.8","mw":"-.-","location":"GULPINAR ACIKLARI-CANAKKALE (EGE DENIZI)"},{"date":"2020.10.06","time":"06:18:45","latitude":"38.8173","longitude":"26.8940","depth":"6.3","md":"-.-","ml":"1.6","mw":"-.-","location":"CANDARLI KORFEZI (EGE DENIZI)"},{"date":"2020.10.06","time":"06:06:58","latitude":"38.7253","longitude":"38.0600","depth":"13.4","md":"-.-","ml":"1.2","mw":"-.-","location":"YESILPINAR-HEKIMHAN (MALATYA)"},{"date":"2020.10.06","time":"06:06:41","latitude":"35.8950","longitude":"28.1950","depth":"5.0","md":"-.-","ml":"2.2","mw":"-.-","location":"AKDENIZ"},{"date":"2020.10.06","time":"06:03:59","latitude":"38.4988","longitude":"40.5453","depth":"8.9","md":"-.-","ml":"2.0","mw":"-.-","location":"ERGIN-LICE (DIYARBAKIR)"},{"date":"2020.10.06","time":"05:54:13","latitude":"36.7212","longitude":"28.0283","depth":"19.1","md":"-.-","ml":"1.0","mw":"-.-","location":"BOZBURUN-MARMARIS (MUGLA)"},{"date":"2020.10.06","time":"04:46:31","latitude":"37.8367","longitude":"27.3302","depth":"4.9","md":"-.-","ml":"1.5","mw":"-.-","location":"YENIKOY-KUSADASI (AYDIN)"},{"date":"2020.10.06","time":"04:46:29","latitude":"39.8593","longitude":"39.8775","depth":"8.3","md":"-.-","ml":"2.3","mw":"-.-","location":"DOGANYUVA-CAYIRLI (ERZINCAN)"},{"date":"2020.10.06","time":"04:42:41","latitude":"38.8273","longitude":"43.3642","depth":"13.5","md":"-.-","ml":"1.5","mw":"-.-","location":"YAYLIYAKA-(VAN)"},{"date":"2020.10.06","time":"04:38:24","latitude":"37.8315","longitude":"27.2643","depth":"5.4","md":"-.-","ml":"2.2","mw":"-.-","location":"KUSADASI (AYDIN)"},{"date":"2020.10.06","time":"03:31:26","latitude":"35.4710","longitude":"29.5598","depth":"8.6","md":"-.-","ml":"1.6","mw":"-.-","location":"AKDENIZ"},{"date":"2020.10.06","time":"03:18:08","latitude":"35.0553","longitude":"30.7832","depth":"30.2","md":"-.-","ml":"2.3","mw":"-.-","location":"AKDENIZ"},{"date":"2020.10.06","time":"02:45:55","latitude":"35.8217","longitude":"28.2205","depth":"5.0","md":"-.-","ml":"2.0","mw":"-.-","location":"AKDENIZ"},{"date":"2020.10.06","time":"02:38:18","latitude":"35.8093","longitude":"28.2200","depth":"5.0","md":"-.-","ml":"1.2","mw":"-.-","location":"AKDENIZ"},{"date":"2020.10.06","time":"01:04:20","latitude":"36.7918","longitude":"28.1038","depth":"21.0","md":"-.-","ml":"0.6","mw":"-.-","location":"HISARONU-MARMARIS (MUGLA)"},{"date":"2020.10.06","time":"00:58:48","latitude":"35.8318","longitude":"28.2372","depth":"5.0","md":"-.-","ml":"1.3","mw":"-.-","location":"AKDENIZ"},{"date":"2020.10.06","time":"00:54:12","latitude":"37.3778","longitude":"27.9392","depth":"5.0","md":"-.-","ml":"1.3","mw":"-.-","location":"KATRANCI-YATAGAN (MUGLA)"},{"date":"2020.10.05","time":"23:50:26","latitude":"34.4287","longitude":"25.3138","depth":"86.3","md":"-.-","ml":"3.3","mw":"3.4","location":"GIRIT ADASI ACIKLARI (AKDENIZ)"},{"date":"2020.10.05","time":"23:35:35","latitude":"39.4250","longitude":"29.2890","depth":"10.3","md":"-.-","ml":"1.3","mw":"-.-","location":"GUNLUCE-EMET (KUTAHYA)"},{"date":"2020.10.05","time":"23:20:36","latitude":"36.5448","longitude":"28.8042","depth":"12.7","md":"-.-","ml":"2.0","mw":"-.-","location":"AKDENIZ"},{"date":"2020.10.05","time":"22:53:00","latitude":"38.7085","longitude":"43.0705","depth":"19.4","md":"-.-","ml":"1.8","mw":"-.-","location":"VAN GOLU"},{"date":"2020.10.05","time":"22:10:32","latitude":"41.1135","longitude":"44.0093","depth":"5.0","md":"-.-","ml":"3.2","mw":"3.3","location":"ERMEN\ufffdSTAN"},{"date":"2020.10.05","time":"20:35:40","latitude":"39.3487","longitude":"40.6935","depth":"5.8","md":"-.-","ml":"2.3","mw":"-.-","location":"DINARBEY-YEDISU (BINGOL)"},{"date":"2020.10.05","time":"20:27:16","latitude":"35.8035","longitude":"28.2677","depth":"7.9","md":"-.-","ml":"2.0","mw":"-.-","location":"AKDENIZ"},{"date":"2020.10.05","time":"19:39:47","latitude":"40.8062","longitude":"28.0427","depth":"13.7","md":"-.-","ml":"2.2","mw":"-.-","location":"MARMARA DENIZI"},{"date":"2020.10.05","time":"19:12:17","latitude":"38.2875","longitude":"38.8428","depth":"1.5","md":"-.-","ml":"3.3","mw":"3.4","location":"GUNDEGER-PUTURGE (MALATYA)"},{"date":"2020.10.05","time":"18:47:43","latitude":"37.8352","longitude":"32.7012","depth":"4.8","md":"-.-","ml":"1.6","mw":"-.-","location":"BAKIRTOLU-KARATAY (KONYA)"},{"date":"2020.10.05","time":"18:30:37","latitude":"36.9868","longitude":"27.3670","depth":"9.4","md":"-.-","ml":"1.8","mw":"-.-","location":"YALI-BODRUM (MUGLA)"},{"date":"2020.10.05","time":"18:27:13","latitude":"37.7067","longitude":"32.2600","depth":"9.5","md":"-.-","ml":"1.2","mw":"-.-","location":"KUMRALI-MERAM (KONYA)"},{"date":"2020.10.05","time":"18:22:35","latitude":"38.9602","longitude":"26.6958","depth":"13.3","md":"-.-","ml":"2.1","mw":"-.-","location":"DENIZKOY-DIKILI (IZMIR)"},{"date":"2020.10.05","time":"17:57:52","latitude":"39.8580","longitude":"23.5578","depth":"15.1","md":"-.-","ml":"4.0","mw":"4.1","location":"YUNANISTAN"},{"date":"2020.10.05","time":"17:55:09","latitude":"39.9362","longitude":"24.3797","depth":"8.2","md":"-.-","ml":"3.8","mw":"3.9","location":"YUNANISTAN"},{"date":"2020.10.05","time":"16:15:54","latitude":"37.9852","longitude":"34.1072","depth":"1.4","md":"-.-","ml":"2.3","mw":"-.-","location":"OBRUK-BOR (NIGDE)"},{"date":"2020.10.05","time":"16:13:27","latitude":"38.0392","longitude":"34.1332","depth":"1.9","md":"-.-","ml":"2.2","mw":"-.-","location":"KECIKALESI-ALTUNHISAR (NIGDE)"},{"date":"2020.10.05","time":"16:00:54","latitude":"39.0208","longitude":"43.9462","depth":"3.5","md":"-.-","ml":"2.1","mw":"-.-","location":"SALHANE-CALDIRAN (VAN)"},{"date":"2020.10.05","time":"15:39:38","latitude":"40.9153","longitude":"31.8092","depth":"13.0","md":"-.-","ml":"1.7","mw":"-.-","location":"HAYRANLAR-MENGEN (BOLU)"},{"date":"2020.10.05","time":"14:53:37","latitude":"40.8558","longitude":"28.2523","depth":"5.4","md":"-.-","ml":"1.7","mw":"-.-","location":"SILIVRI ACIKLARI-ISTANBUL (MARMARA DENIZI)"},{"date":"2020.10.05","time":"14:45:30","latitude":"37.2115","longitude":"27.9112","depth":"0.0","md":"-.-","ml":"1.4","mw":"-.-","location":"KAYADERE-MILAS (MUGLA)"},{"date":"2020.10.05","time":"14:28:21","latitude":"35.7990","longitude":"28.2220","depth":"8.2","md":"-.-","ml":"2.6","mw":"-.-","location":"AKDENIZ"},{"date":"2020.10.05","time":"13:55:13","latitude":"38.0668","longitude":"26.1482","depth":"5.0","md":"-.-","ml":"2.0","mw":"-.-","location":"EGE DENIZI"},{"date":"2020.10.05","time":"13:45:30","latitude":"38.0023","longitude":"34.0697","depth":"5.0","md":"-.-","ml":"3.1","mw":"3.1","location":"OBRUK-BOR (NIGDE)"},{"date":"2020.10.05","time":"13:08:26","latitude":"39.1270","longitude":"27.5722","depth":"0.0","md":"-.-","ml":"1.8","mw":"-.-","location":"DEREKOY-SOMA (MANISA)"},{"date":"2020.10.05","time":"12:29:04","latitude":"39.9402","longitude":"28.8425","depth":"0.0","md":"-.-","ml":"1.8","mw":"-.-","location":"GUMUSPINAR-ORHANELI (BURSA)"},{"date":"2020.10.05","time":"12:17:24","latitude":"39.8505","longitude":"26.2422","depth":"5.0","md":"-.-","ml":"1.6","mw":"-.-","location":"BOZALAN-EZINE (CANAKKALE)"},{"date":"2020.10.05","time":"12:03:28","latitude":"39.6912","longitude":"29.3365","depth":"0.0","md":"-.-","ml":"1.3","mw":"-.-","location":"ELMAAGACI-TAVSANLI (KUTAHYA)"},{"date":"2020.10.05","time":"11:59:52","latitude":"37.2498","longitude":"28.1923","depth":"0.0","md":"-.-","ml":"1.6","mw":"-.-","location":"PASAPINARI-(MUGLA)"},{"date":"2020.10.05","time":"11:52:54","latitude":"37.2462","longitude":"28.1755","depth":"0.0","md":"-.-","ml":"1.4","mw":"-.-","location":"CAYBUKU-(MUGLA)"},{"date":"2020.10.05","time":"11:46:28","latitude":"39.6643","longitude":"29.4283","depth":"0.0","md":"-.-","ml":"1.4","mw":"-.-","location":"BOZBELEN-TAVSANLI (KUTAHYA)"},{"date":"2020.10.05","time":"11:15:54","latitude":"39.9990","longitude":"28.9045","depth":"0.0","md":"-.-","ml":"2.2","mw":"-.-","location":"NALINLAR-ORHANELI (BURSA)"},{"date":"2020.10.05","time":"10:40:34","latitude":"39.7190","longitude":"27.5612","depth":"17.8","md":"-.-","ml":"1.5","mw":"-.-","location":"CAKALLAR-BALYA (BALIKESIR)"},{"date":"2020.10.05","time":"10:23:19","latitude":"39.4500","longitude":"28.0938","depth":"6.8","md":"-.-","ml":"1.4","mw":"-.-","location":"KADIKOY-BIGADIC (BALIKESIR)"},{"date":"2020.10.05","time":"09:39:54","latitude":"38.7917","longitude":"38.0618","depth":"22.3","md":"-.-","ml":"1.8","mw":"-.-","location":"YAGCA-HEKIMHAN (MALATYA)"},{"date":"2020.10.05","time":"09:21:38","latitude":"39.5437","longitude":"26.1830","depth":"4.8","md":"-.-","ml":"1.5","mw":"-.-","location":"YUKARIKOY-AYVACIK (CANAKKALE)"},{"date":"2020.10.05","time":"08:58:46","latitude":"37.0013","longitude":"27.7595","depth":"0.0","md":"-.-","ml":"1.3","mw":"-.-","location":"MAZIKOY-BODRUM (MUGLA)"},{"date":"2020.10.05","time":"08:43:20","latitude":"37.7317","longitude":"32.1800","depth":"0.0","md":"-.-","ml":"1.6","mw":"-.-","location":"KAYALI-MERAM (KONYA)"},{"date":"2020.10.05","time":"07:39:30","latitude":"37.0968","longitude":"28.9948","depth":"10.9","md":"-.-","ml":"1.6","mw":"-.-","location":"KARACAM-KOYCEGIZ (MUGLA)"},{"date":"2020.10.05","time":"06:57:36","latitude":"35.8357","longitude":"28.1948","depth":"5.0","md":"-.-","ml":"1.8","mw":"-.-","location":"AKDENIZ"},{"date":"2020.10.05","time":"06:44:28","latitude":"40.0813","longitude":"24.2152","depth":"28.3","md":"-.-","ml":"3.1","mw":"3.2","location":"YUNANISTAN"},{"date":"2020.10.05","time":"06:26:22","latitude":"37.7202","longitude":"32.1425","depth":"13.5","md":"-.-","ml":"0.8","mw":"-.-","location":"KAYALI-MERAM (KONYA)"},{"date":"2020.10.05","time":"05:34:57","latitude":"37.9013","longitude":"28.1863","depth":"3.6","md":"-.-","ml":"1.2","mw":"-.-","location":"YAGDERE-SULTANHISAR (AYDIN)"},{"date":"2020.10.05","time":"04:48:52","latitude":"35.2877","longitude":"29.6220","depth":"7.6","md":"-.-","ml":"1.9","mw":"-.-","location":"AKDENIZ"},{"date":"2020.10.05","time":"04:06:08","latitude":"39.1418","longitude":"29.0223","depth":"5.6","md":"-.-","ml":"1.6","mw":"-.-","location":"HACIAHMETOGLU-SIMAV (KUTAHYA)"},{"date":"2020.10.05","time":"03:04:25","latitude":"39.0678","longitude":"43.6022","depth":"6.3","md":"-.-","ml":"1.3","mw":"-.-","location":"TOPRAKLI-ERCIS (VAN)"},{"date":"2020.10.05","time":"02:53:29","latitude":"38.4518","longitude":"39.1602","depth":"11.3","md":"-.-","ml":"1.6","mw":"-.-","location":"KAVALLI-SIVRICE (ELAZIG)"},{"date":"2020.10.05","time":"02:46:11","latitude":"38.6175","longitude":"31.0370","depth":"8.0","md":"-.-","ml":"1.6","mw":"-.-","location":"CAY (AFYONKARAHISAR)"},{"date":"2020.10.05","time":"02:29:43","latitude":"35.1293","longitude":"29.7760","depth":"5.0","md":"-.-","ml":"2.4","mw":"-.-","location":"AKDENIZ"},{"date":"2020.10.05","time":"01:38:49","latitude":"39.4602","longitude":"26.9047","depth":"10.9","md":"-.-","ml":"1.8","mw":"-.-","location":"PELITKOY-BURHANIYE (BALIKESIR)"},{"date":"2020.10.05","time":"01:38:07","latitude":"34.3667","longitude":"25.8880","depth":"83.0","md":"-.-","ml":"2.7","mw":"-.-","location":"GIRIT ADASI ACIKLARI (AKDENIZ)"},{"date":"2020.10.05","time":"01:31:19","latitude":"37.7592","longitude":"32.2077","depth":"7.9","md":"-.-","ml":"1.8","mw":"-.-","location":"ERENKAYA-MERAM (KONYA)"},{"date":"2020.10.05","time":"01:20:16","latitude":"33.7105","longitude":"24.9522","depth":"77.9","md":"-.-","ml":"3.3","mw":"3.3","location":"GIRIT ADASI ACIKLARI (AKDENIZ)"},{"date":"2020.10.05","time":"01:07:48","latitude":"36.8700","longitude":"27.9653","depth":"7.7","md":"-.-","ml":"1.3","mw":"-.-","location":"GOKOVA KORFEZI (AKDENIZ)"},{"date":"2020.10.04","time":"23:47:29","latitude":"37.7605","longitude":"32.0805","depth":"5.2","md":"-.-","ml":"1.0","mw":"-.-","location":"YATAGAN-MERAM (KONYA)"},{"date":"2020.10.04","time":"23:45:58","latitude":"37.7237","longitude":"32.1380","depth":"5.4","md":"-.-","ml":"1.3","mw":"-.-","location":"KAYALI-MERAM (KONYA)"},{"date":"2020.10.04","time":"23:38:30","latitude":"37.7592","longitude":"32.1697","depth":"4.5","md":"-.-","ml":"2.1","mw":"-.-","location":"ERENKAYA-MERAM (KONYA)"},{"date":"2020.10.04","time":"23:33:29","latitude":"37.7750","longitude":"32.1470","depth":"17.1","md":"-.-","ml":"1.1","mw":"-.-","location":"SEFAKOY-MERAM (KONYA)"},{"date":"2020.10.04","time":"22:43:03","latitude":"35.0003","longitude":"26.4238","depth":"8.2","md":"-.-","ml":"2.9","mw":"-.-","location":"GIRIT ADASI ACIKLARI (AKDENIZ)"},{"date":"2020.10.04","time":"22:18:20","latitude":"37.7540","longitude":"32.1245","depth":"5.4","md":"-.-","ml":"1.9","mw":"-.-","location":"ERENKAYA-MERAM (KONYA)"},{"date":"2020.10.04","time":"22:00:20","latitude":"37.7060","longitude":"32.2705","depth":"14.6","md":"-.-","ml":"1.2","mw":"-.-","location":"KUMRALI-MERAM (KONYA)"},{"date":"2020.10.04","time":"21:48:44","latitude":"36.9515","longitude":"27.3405","depth":"7.5","md":"-.-","ml":"2.0","mw":"-.-","location":"GOKOVA KORFEZI (AKDENIZ)"},{"date":"2020.10.04","time":"20:59:37","latitude":"38.4580","longitude":"39.3573","depth":"13.0","md":"-.-","ml":"0.9","mw":"-.-","location":"SUREK-SIVRICE (ELAZIG)"},{"date":"2020.10.04","time":"20:32:32","latitude":"38.3910","longitude":"39.2638","depth":"7.3","md":"-.-","ml":"1.9","mw":"-.-","location":"SOGUKPINAR-SIVRICE (ELAZIG)"},{"date":"2020.10.04","time":"19:07:54","latitude":"36.9570","longitude":"27.5267","depth":"1.4","md":"-.-","ml":"1.5","mw":"-.-","location":"GOKOVA KORFEZI (AKDENIZ)"},{"date":"2020.10.04","time":"18:45:42","latitude":"36.9508","longitude":"27.5997","depth":"4.0","md":"-.-","ml":"1.9","mw":"-.-","location":"GOKOVA KORFEZI (AKDENIZ)"},{"date":"2020.10.04","time":"18:21:38","latitude":"38.4015","longitude":"39.2163","depth":"3.5","md":"-.-","ml":"1.9","mw":"-.-","location":"DORTBOLUK-SIVRICE (ELAZIG)"},{"date":"2020.10.04","time":"18:16:15","latitude":"36.9847","longitude":"27.6692","depth":"10.4","md":"-.-","ml":"1.6","mw":"-.-","location":"GOKOVA KORFEZI (AKDENIZ)"},{"date":"2020.10.04","time":"17:56:13","latitude":"36.9005","longitude":"31.6620","depth":"137.8","md":"-.-","ml":"2.6","mw":"-.-","location":"HOCAKOY-AKSEKI (ANTALYA)"},{"date":"2020.10.04","time":"17:03:38","latitude":"36.0063","longitude":"31.1387","depth":"5.4","md":"-.-","ml":"2.4","mw":"-.-","location":"AKDENIZ"},{"date":"2020.10.04","time":"13:38:50","latitude":"38.4507","longitude":"31.8143","depth":"5.5","md":"-.-","ml":"1.9","mw":"-.-","location":"KUNDULLU-TUZLUKCU (KONYA)"},{"date":"2020.10.04","time":"13:33:08","latitude":"38.8625","longitude":"26.6417","depth":"10.7","md":"-.-","ml":"2.9","mw":"-.-","location":"EGE DENIZI"},{"date":"2020.10.04","time":"13:05:04","latitude":"37.0427","longitude":"34.4465","depth":"5.2","md":"-.-","ml":"1.4","mw":"-.-","location":"HOROZLU-TOROSLAR (MERSIN)"},{"date":"2020.10.04","time":"12:51:38","latitude":"39.9612","longitude":"28.7888","depth":"0.0","md":"-.-","ml":"1.7","mw":"-.-","location":"OMERALTI-MUSTAFAKEMALPASA (BURSA)"},{"date":"2020.10.04","time":"12:31:19","latitude":"37.5868","longitude":"29.2392","depth":"0.0","md":"-.-","ml":"1.2","mw":"-.-","location":"SERINHISAR (DENIZLI)"},{"date":"2020.10.04","time":"11:15:38","latitude":"38.9697","longitude":"26.0042","depth":"4.2","md":"-.-","ml":"1.7","mw":"-.-","location":"EGE DENIZI"},{"date":"2020.10.04","time":"10:17:35","latitude":"39.3850","longitude":"28.0877","depth":"11.7","md":"-.-","ml":"1.8","mw":"-.-","location":"BALATLI-BIGADIC (BALIKESIR)"},{"date":"2020.10.04","time":"10:16:48","latitude":"35.7775","longitude":"26.9352","depth":"5.4","md":"-.-","ml":"2.9","mw":"-.-","location":"AKDENIZ"},{"date":"2020.10.04","time":"10:14:05","latitude":"35.7218","longitude":"28.5123","depth":"6.0","md":"-.-","ml":"2.0","mw":"-.-","location":"AKDENIZ"},{"date":"2020.10.04","time":"09:10:34","latitude":"36.9708","longitude":"34.4163","depth":"6.0","md":"-.-","ml":"2.9","mw":"-.-","location":"YUKSEKOLUK-TOROSLAR (MERSIN)"},{"date":"2020.10.04","time":"08:46:02","latitude":"36.9153","longitude":"26.6413","depth":"8.6","md":"-.-","ml":"1.9","mw":"-.-","location":"AKDENIZ"},{"date":"2020.10.04","time":"07:23:02","latitude":"36.9863","longitude":"27.9020","depth":"17.3","md":"-.-","ml":"1.2","mw":"-.-","location":"TURKEVLERI-MILAS (MUGLA)"},{"date":"2020.10.04","time":"06:50:23","latitude":"39.0852","longitude":"27.8170","depth":"4.1","md":"-.-","ml":"1.5","mw":"-.-","location":"ILYASLAR-KIRKAGAC (MANISA)"},{"date":"2020.10.04","time":"06:32:37","latitude":"40.6600","longitude":"27.2610","depth":"13.6","md":"-.-","ml":"1.6","mw":"-.-","location":"MUREFTE-SARKOY (TEKIRDAG)"},{"date":"2020.10.04","time":"06:24:59","latitude":"39.8478","longitude":"38.9318","depth":"5.8","md":"-.-","ml":"1.8","mw":"-.-","location":"KIRBULAK-REFAHIYE (ERZINCAN)"},{"date":"2020.10.04","time":"05:44:55","latitude":"35.4002","longitude":"26.9670","depth":"29.9","md":"-.-","ml":"3.5","mw":"3.6","location":"AKDENIZ"},{"date":"2020.10.04","time":"05:36:47","latitude":"40.5458","longitude":"28.1420","depth":"5.1","md":"-.-","ml":"2.3","mw":"-.-","location":"ERDEK ACIKLARI-BALIKESIR (MARMARA DENIZI)"},{"date":"2020.10.04","time":"05:30:05","latitude":"35.4345","longitude":"26.9552","depth":"63.4","md":"-.-","ml":"1.9","mw":"-.-","location":"AKDENIZ"},{"date":"2020.10.04","time":"04:27:30","latitude":"37.7730","longitude":"29.3553","depth":"9.8","md":"-.-","ml":"1.4","mw":"-.-","location":"KIZILYER-HONAZ (DENIZLI)"},{"date":"2020.10.04","time":"03:56:36","latitude":"38.1173","longitude":"31.6348","depth":"19.3","md":"-.-","ml":"1.2","mw":"-.-","location":"FURUNLU-DOGANHISAR (KONYA)"},{"date":"2020.10.04","time":"02:54:30","latitude":"38.4622","longitude":"39.2575","depth":"5.7","md":"-.-","ml":"1.6","mw":"-.-","location":"ALINCIK-SIVRICE (ELAZIG)"},{"date":"2020.10.04","time":"02:45:27","latitude":"35.7838","longitude":"28.1348","depth":"3.4","md":"-.-","ml":"1.4","mw":"-.-","location":"AKDENIZ"},{"date":"2020.10.04","time":"02:28:18","latitude":"36.9157","longitude":"27.7025","depth":"8.2","md":"-.-","ml":"1.1","mw":"-.-","location":"GOKOVA KORFEZI (AKDENIZ)"},{"date":"2020.10.04","time":"02:00:38","latitude":"38.1003","longitude":"34.0632","depth":"7.4","md":"-.-","ml":"1.6","mw":"-.-","location":"AKCAKENT-(AKSARAY)"},{"date":"2020.10.04","time":"01:10:30","latitude":"38.4097","longitude":"39.2165","depth":"6.7","md":"-.-","ml":"1.0","mw":"-.-","location":"YEDIPINAR-SIVRICE (ELAZIG)"},{"date":"2020.10.03","time":"23:21:13","latitude":"36.9105","longitude":"27.7685","depth":"5.6","md":"-.-","ml":"1.5","mw":"-.-","location":"GOKOVA KORFEZI (AKDENIZ)"},{"date":"2020.10.03","time":"22:05:17","latitude":"37.9280","longitude":"26.9227","depth":"15.0","md":"-.-","ml":"1.9","mw":"-.-","location":"KUSADASI KORFEZI (EGE DENIZI)"},{"date":"2020.10.03","time":"21:22:57","latitude":"39.1247","longitude":"27.8298","depth":"1.2","md":"-.-","ml":"1.7","mw":"-.-","location":"KARAKURT-KIRKAGAC (MANISA)"},{"date":"2020.10.03","time":"18:05:04","latitude":"36.9422","longitude":"27.6292","depth":"6.7","md":"-.-","ml":"2.0","mw":"-.-","location":"GOKOVA KORFEZI (AKDENIZ)"},{"date":"2020.10.03","time":"15:23:10","latitude":"38.2270","longitude":"38.6980","depth":"8.0","md":"-.-","ml":"1.9","mw":"-.-","location":"KOKPINAR-PUTURGE (MALATYA)"},{"date":"2020.10.03","time":"15:21:00","latitude":"36.5090","longitude":"26.6467","depth":"6.8","md":"-.-","ml":"2.1","mw":"-.-","location":"AKDENIZ"},{"date":"2020.10.03","time":"15:13:40","latitude":"38.6962","longitude":"26.6035","depth":"5.0","md":"-.-","ml":"1.7","mw":"-.-","location":"IZMIR KORFEZI (EGE DENIZI)"},{"date":"2020.10.03","time":"15:10:38","latitude":"38.4090","longitude":"31.8312","depth":"5.8","md":"-.-","ml":"2.1","mw":"-.-","location":"CAVUSCUGOL-ILGIN (KONYA)"},{"date":"2020.10.03","time":"14:29:15","latitude":"39.5672","longitude":"29.4112","depth":"8.8","md":"-.-","ml":"1.4","mw":"-.-","location":"DERECIK-TAVSANLI (KUTAHYA)"},{"date":"2020.10.03","time":"13:47:03","latitude":"38.2927","longitude":"38.8890","depth":"2.5","md":"-.-","ml":"1.7","mw":"-.-","location":"TATLICAK-PUTURGE (MALATYA)"},{"date":"2020.10.03","time":"13:16:54","latitude":"39.5135","longitude":"28.1912","depth":"9.1","md":"-.-","ml":"1.9","mw":"-.-","location":"BEGENDIKLER-BIGADIC (BALIKESIR)"},{"date":"2020.10.03","time":"12:48:57","latitude":"35.0055","longitude":"33.7387","depth":"57.9","md":"-.-","ml":"1.8","mw":"-.-","location":"KIBRIS-TUZLA"},{"date":"2020.10.03","time":"11:34:08","latitude":"38.7083","longitude":"40.0088","depth":"4.4","md":"-.-","ml":"1.9","mw":"-.-","location":"ORGULU-PALU (ELAZIG)"},{"date":"2020.10.03","time":"11:10:12","latitude":"38.3093","longitude":"39.2528","depth":"16.8","md":"-.-","ml":"1.9","mw":"-.-","location":"HACILAR-SIVRICE (ELAZIG)"},{"date":"2020.10.03","time":"10:03:31","latitude":"35.0137","longitude":"31.1150","depth":"9.3","md":"-.-","ml":"2.6","mw":"-.-","location":"AKDENIZ"},{"date":"2020.10.03","time":"09:30:26","latitude":"37.1953","longitude":"36.2657","depth":"4.9","md":"-.-","ml":"1.9","mw":"-.-","location":"SELVERLER-DUZICI (OSMANIYE)"},{"date":"2020.10.03","time":"08:06:50","latitude":"38.9982","longitude":"43.7163","depth":"34.1","md":"-.-","ml":"1.8","mw":"-.-","location":"ACIKYOL-MURADIYE (VAN)"},{"date":"2020.10.03","time":"07:49:51","latitude":"35.9100","longitude":"30.4860","depth":"5.0","md":"-.-","ml":"2.4","mw":"-.-","location":"AKDENIZ"},{"date":"2020.10.03","time":"06:43:56","latitude":"38.4330","longitude":"28.4603","depth":"1.8","md":"-.-","ml":"2.4","mw":"-.-","location":"PIYADELER-ALASEHIR (MANISA)"},{"date":"2020.10.03","time":"06:36:19","latitude":"38.9847","longitude":"26.2548","depth":"13.3","md":"-.-","ml":"1.5","mw":"-.-","location":"MIDILLI ADASI (EGE DENIZI)"},{"date":"2020.10.03","time":"06:26:42","latitude":"35.6807","longitude":"26.5850","depth":"8.2","md":"-.-","ml":"2.4","mw":"-.-","location":"AKDENIZ"},{"date":"2020.10.03","time":"06:14:33","latitude":"40.8690","longitude":"31.6873","depth":"5.2","md":"-.-","ml":"0.9","mw":"-.-","location":"MESCICELE-(BOLU)"},{"date":"2020.10.03","time":"05:56:21","latitude":"38.7208","longitude":"38.0530","depth":"1.5","md":"-.-","ml":"1.6","mw":"-.-","location":"YESILPINAR-HEKIMHAN (MALATYA)"},{"date":"2020.10.03","time":"05:55:36","latitude":"36.1828","longitude":"27.6513","depth":"11.1","md":"-.-","ml":"1.5","mw":"-.-","location":"AKDENIZ"},{"date":"2020.10.03","time":"05:52:23","latitude":"37.3177","longitude":"36.3097","depth":"14.2","md":"-.-","ml":"1.1","mw":"-.-","location":"PIRSULTANLI-DUZICI (OSMANIYE)"},{"date":"2020.10.03","time":"05:49:46","latitude":"35.5637","longitude":"26.9087","depth":"5.5","md":"-.-","ml":"1.7","mw":"-.-","location":"AKDENIZ"}]
