[{"date":"2020.09.10","time":"07:04:42","latitude":"36.4512","longitude":"28.7112","depth":"5.0","md":"-.-","ml":"2.7","mw":"-.-","location":"AKDENIZ"},{"date":"2020.09.10","time":"06:28:12","latitude":"38.4935","longitude":"39.1500","depth":"13.8","md":"-.-","ml":"1.3","mw":"-.-","location":"DEDEPINARI-(ELAZIG)"},{"date":"2020.09.10","time":"06:17:17","latitude":"40.6638","longitude":"27.4203","depth":"6.6","md":"-.-","ml":"1.5","mw":"-.-","location":"GUZELKOY ACIKLARI-TEKIRDAG (MARMARA DENIZI)"},{"date":"2020.09.10","time":"05:31:06","latitude":"36.8965","longitude":"27.5825","depth":"7.2","md":"-.-","ml":"2.0","mw":"-.-","location":"GOKOVA KORFEZI (AKDENIZ)"},{"date":"2020.09.10","time":"05:26:15","latitude":"40.6772","longitude":"31.6562","depth":"11.6","md":"-.-","ml":"1.6","mw":"-.-","location":"CAMYAYLA-(BOLU)"},{"date":"2020.09.10","time":"04:55:04","latitude":"37.9338","longitude":"27.0820","depth":"8.1","md":"-.-","ml":"1.9","mw":"-.-","location":"KUSADASI KORFEZI (EGE DENIZI)"},{"date":"2020.09.10","time":"03:33:03","latitude":"40.6802","longitude":"27.4215","depth":"12.3","md":"-.-","ml":"1.3","mw":"-.-","location":"GUZELKOY ACIKLARI-TEKIRDAG (MARMARA DENIZI)"},{"date":"2020.09.10","time":"03:31:20","latitude":"40.7137","longitude":"27.4263","depth":"15.0","md":"-.-","ml":"2.2","mw":"-.-","location":"GUZELKOY ACIKLARI-TEKIRDAG (MARMARA DENIZI)"},{"date":"2020.09.10","time":"03:23:43","latitude":"40.7408","longitude":"27.4427","depth":"16.2","md":"-.-","ml":"1.9","mw":"-.-","location":"GUZELKOY ACIKLARI-TEKIRDAG (MARMARA DENIZI)"},{"date":"2020.09.10","time":"03:19:35","latitude":"40.6792","longitude":"27.4012","depth":"11.6","md":"-.-","ml":"1.3","mw":"-.-","location":"GUZELKOY ACIKLARI-TEKIRDAG (MARMARA DENIZI)"},{"date":"2020.09.10","time":"03:13:06","latitude":"38.2908","longitude":"39.0240","depth":"11.1","md":"-.-","ml":"1.2","mw":"-.-","location":"GOKCE-DOGANYOL (MALATYA)"},{"date":"2020.09.10","time":"03:03:31","latitude":"40.6545","longitude":"27.4182","depth":"3.2","md":"-.-","ml":"1.7","mw":"-.-","location":"GUZELKOY ACIKLARI-TEKIRDAG (MARMARA DENIZI)"},{"date":"2020.09.10","time":"02:35:32","latitude":"39.0467","longitude":"40.7405","depth":"6.8","md":"-.-","ml":"1.7","mw":"-.-","location":"ALATEPE-(BINGOL)"},{"date":"2020.09.10","time":"02:26:15","latitude":"39.1242","longitude":"27.8085","depth":"8.9","md":"-.-","ml":"1.8","mw":"-.-","location":"KARAKURT-KIRKAGAC (MANISA)"},{"date":"2020.09.10","time":"02:12:45","latitude":"38.4825","longitude":"26.2867","depth":"4.6","md":"-.-","ml":"2.1","mw":"-.-","location":"KUCUKBAHCE ACIKLARI-IZMIR (EGE DENIZI)"},{"date":"2020.09.10","time":"01:56:39","latitude":"38.8825","longitude":"43.5000","depth":"2.1","md":"-.-","ml":"1.5","mw":"-.-","location":"ERMISLER-(VAN)"},{"date":"2020.09.10","time":"01:42:26","latitude":"40.7110","longitude":"27.4017","depth":"15.2","md":"-.-","ml":"1.8","mw":"-.-","location":"GUZELKOY ACIKLARI-TEKIRDAG (MARMARA DENIZI)"},{"date":"2020.09.10","time":"01:38:16","latitude":"40.6700","longitude":"27.4493","depth":"10.9","md":"-.-","ml":"1.5","mw":"-.-","location":"GUZELKOY ACIKLARI-TEKIRDAG (MARMARA DENIZI)"},{"date":"2020.09.10","time":"01:35:03","latitude":"40.7495","longitude":"27.4870","depth":"2.4","md":"-.-","ml":"1.8","mw":"-.-","location":"GUZELKOY ACIKLARI-TEKIRDAG (MARMARA DENIZI)"},{"date":"2020.09.10","time":"01:31:38","latitude":"40.7023","longitude":"27.4030","depth":"14.8","md":"-.-","ml":"1.9","mw":"-.-","location":"GUZELKOY ACIKLARI-TEKIRDAG (MARMARA DENIZI)"},{"date":"2020.09.10","time":"01:31:18","latitude":"38.7143","longitude":"43.3623","depth":"16.3","md":"-.-","ml":"1.9","mw":"-.-","location":"OTLUCA-(VAN)"},{"date":"2020.09.10","time":"01:24:46","latitude":"40.7053","longitude":"27.4375","depth":"6.9","md":"-.-","ml":"1.5","mw":"-.-","location":"GUZELKOY ACIKLARI-TEKIRDAG (MARMARA DENIZI)"},{"date":"2020.09.10","time":"01:10:40","latitude":"39.3137","longitude":"41.0447","depth":"4.9","md":"-.-","ml":"3.0","mw":"2.7","location":"KARLIOVA (BINGOL)"},{"date":"2020.09.10","time":"00:29:18","latitude":"40.6908","longitude":"27.4240","depth":"8.3","md":"-.-","ml":"2.0","mw":"-.-","location":"GUZELKOY ACIKLARI-TEKIRDAG (MARMARA DENIZI)"},{"date":"2020.09.10","time":"00:06:50","latitude":"40.6998","longitude":"27.4092","depth":"11.9","md":"-.-","ml":"1.8","mw":"-.-","location":"GUZELKOY ACIKLARI-TEKIRDAG (MARMARA DENIZI)"},{"date":"2020.09.09","time":"23:41:11","latitude":"40.7000","longitude":"27.4338","depth":"10.3","md":"-.-","ml":"1.8","mw":"-.-","location":"GUZELKOY ACIKLARI-TEKIRDAG (MARMARA DENIZI)"},{"date":"2020.09.09","time":"23:36:18","latitude":"39.3168","longitude":"41.0158","depth":"4.9","md":"-.-","ml":"2.0","mw":"-.-","location":"KARLIOVA (BINGOL)"},{"date":"2020.09.09","time":"23:24:42","latitude":"40.7273","longitude":"27.4213","depth":"5.4","md":"-.-","ml":"2.0","mw":"-.-","location":"GUZELKOY ACIKLARI-TEKIRDAG (MARMARA DENIZI)"},{"date":"2020.09.09","time":"23:20:31","latitude":"40.7030","longitude":"27.4177","depth":"12.8","md":"-.-","ml":"1.8","mw":"-.-","location":"GUZELKOY ACIKLARI-TEKIRDAG (MARMARA DENIZI)"},{"date":"2020.09.09","time":"22:54:22","latitude":"39.3730","longitude":"41.0078","depth":"5.4","md":"-.-","ml":"1.9","mw":"-.-","location":"DORTYOL-KARLIOVA (BINGOL)"},{"date":"2020.09.09","time":"22:54:12","latitude":"40.6972","longitude":"27.4300","depth":"9.0","md":"-.-","ml":"1.7","mw":"-.-","location":"GUZELKOY ACIKLARI-TEKIRDAG (MARMARA DENIZI)"},{"date":"2020.09.09","time":"22:53:11","latitude":"38.8765","longitude":"43.5622","depth":"8.7","md":"-.-","ml":"2.4","mw":"-.-","location":"CAKIRBEY-(VAN)"},{"date":"2020.09.09","time":"22:46:56","latitude":"40.7023","longitude":"27.4213","depth":"12.5","md":"-.-","ml":"3.0","mw":"-.-","location":"GUZELKOY ACIKLARI-TEKIRDAG (MARMARA DENIZI)"},{"date":"2020.09.09","time":"22:39:11","latitude":"40.6940","longitude":"27.4257","depth":"10.3","md":"-.-","ml":"1.5","mw":"-.-","location":"GUZELKOY ACIKLARI-TEKIRDAG (MARMARA DENIZI)"},{"date":"2020.09.09","time":"22:32:32","latitude":"39.3302","longitude":"41.0182","depth":"4.8","md":"-.-","ml":"4.1","mw":"4.2","location":"KANTARKAYA-KARLIOVA (BINGOL)"},{"date":"2020.09.09","time":"22:23:07","latitude":"39.3353","longitude":"41.0130","depth":"4.9","md":"-.-","ml":"3.3","mw":"3.3","location":"KANTARKAYA-KARLIOVA (BINGOL)"},{"date":"2020.09.09","time":"22:11:58","latitude":"38.7000","longitude":"42.0098","depth":"6.4","md":"-.-","ml":"2.1","mw":"-.-","location":"YUNOREN-KORKUT (MUS)"},{"date":"2020.09.09","time":"20:51:39","latitude":"40.6598","longitude":"27.3945","depth":"9.8","md":"-.-","ml":"1.4","mw":"-.-","location":"GUZELKOY ACIKLARI-TEKIRDAG (MARMARA DENIZI)"},{"date":"2020.09.09","time":"20:45:53","latitude":"40.7052","longitude":"27.4202","depth":"12.3","md":"-.-","ml":"1.6","mw":"-.-","location":"GUZELKOY ACIKLARI-TEKIRDAG (MARMARA DENIZI)"},{"date":"2020.09.09","time":"20:28:47","latitude":"38.9248","longitude":"27.9228","depth":"0.0","md":"-.-","ml":"1.8","mw":"-.-","location":"HASKOY-AKHISAR (MANISA)"},{"date":"2020.09.09","time":"19:31:35","latitude":"40.6865","longitude":"27.3937","depth":"10.9","md":"-.-","ml":"2.2","mw":"-.-","location":"GUZELKOY ACIKLARI-TEKIRDAG (MARMARA DENIZI)"},{"date":"2020.09.09","time":"19:25:05","latitude":"40.7012","longitude":"27.4245","depth":"14.6","md":"-.-","ml":"1.5","mw":"-.-","location":"GUZELKOY ACIKLARI-TEKIRDAG (MARMARA DENIZI)"},{"date":"2020.09.09","time":"19:23:16","latitude":"40.5360","longitude":"34.9478","depth":"3.6","md":"-.-","ml":"2.8","mw":"-.-","location":"CORUM (CORUM)"},{"date":"2020.09.09","time":"18:06:17","latitude":"40.6988","longitude":"27.4275","depth":"11.2","md":"-.-","ml":"1.4","mw":"-.-","location":"GUZELKOY ACIKLARI-TEKIRDAG (MARMARA DENIZI)"},{"date":"2020.09.09","time":"17:35:22","latitude":"37.0832","longitude":"28.4850","depth":"0.0","md":"-.-","ml":"1.6","mw":"-.-","location":"CICEKLI-ULA (MUGLA)"},{"date":"2020.09.09","time":"16:57:20","latitude":"39.4597","longitude":"39.1415","depth":"5.0","md":"-.-","ml":"2.1","mw":"-.-","location":"KOSELER-OVACIK (TUNCELI)"},{"date":"2020.09.09","time":"16:14:04","latitude":"40.7052","longitude":"27.3878","depth":"4.9","md":"-.-","ml":"2.1","mw":"-.-","location":"GUZELKOY ACIKLARI-TEKIRDAG (MARMARA DENIZI)"},{"date":"2020.09.09","time":"15:44:27","latitude":"36.6577","longitude":"28.0037","depth":"18.1","md":"-.-","ml":"1.7","mw":"-.-","location":"BOZBURUN-MARMARIS (MUGLA)"},{"date":"2020.09.09","time":"15:36:51","latitude":"40.2838","longitude":"28.9475","depth":"15.9","md":"-.-","ml":"1.5","mw":"-.-","location":"NILUFER-OSMANGAZI (BURSA)"},{"date":"2020.09.09","time":"15:29:08","latitude":"40.6745","longitude":"27.4600","depth":"4.4","md":"-.-","ml":"1.5","mw":"-.-","location":"GUZELKOY ACIKLARI-TEKIRDAG (MARMARA DENIZI)"},{"date":"2020.09.09","time":"14:58:05","latitude":"40.6875","longitude":"27.2702","depth":"5.0","md":"-.-","ml":"1.9","mw":"-.-","location":"KIRAZLI-SARKOY (TEKIRDAG)"},{"date":"2020.09.09","time":"14:25:42","latitude":"38.6248","longitude":"39.0997","depth":"2.3","md":"-.-","ml":"1.6","mw":"-.-","location":"ASAGIDEMIRTAS-(ELAZIG)"},{"date":"2020.09.09","time":"14:16:06","latitude":"36.2135","longitude":"33.6915","depth":"0.0","md":"-.-","ml":"1.4","mw":"-.-","location":"ISIKLI-SILIFKE (MERSIN)"},{"date":"2020.09.09","time":"13:43:21","latitude":"37.2437","longitude":"28.1902","depth":"0.0","md":"-.-","ml":"2.0","mw":"-.-","location":"PASAPINARI-(MUGLA)"},{"date":"2020.09.09","time":"13:26:43","latitude":"37.0038","longitude":"27.4042","depth":"12.8","md":"-.-","ml":"1.7","mw":"-.-","location":"BODRUM (MUGLA)"},{"date":"2020.09.09","time":"13:24:39","latitude":"39.7332","longitude":"42.4710","depth":"5.0","md":"-.-","ml":"1.5","mw":"-.-","location":"CETINSU-ELESKIRT (AGRI)"},{"date":"2020.09.09","time":"13:03:54","latitude":"37.4838","longitude":"36.9358","depth":"5.0","md":"-.-","ml":"1.8","mw":"-.-","location":"SEREFOGLU-(KAHRAMANMARAS)"},{"date":"2020.09.09","time":"12:15:10","latitude":"39.2165","longitude":"28.1023","depth":"5.1","md":"-.-","ml":"1.8","mw":"-.-","location":"KERTIL-SINDIRGI (BALIKESIR)"},{"date":"2020.09.09","time":"12:07:09","latitude":"37.3383","longitude":"28.1105","depth":"0.0","md":"-.-","ml":"1.4","mw":"-.-","location":"YENIKOY-YATAGAN (MUGLA)"},{"date":"2020.09.09","time":"12:02:50","latitude":"37.2030","longitude":"27.8575","depth":"0.0","md":"-.-","ml":"1.6","mw":"-.-","location":"CAMKOY-MILAS (MUGLA)"},{"date":"2020.09.09","time":"12:01:50","latitude":"39.8627","longitude":"26.2620","depth":"5.0","md":"-.-","ml":"1.4","mw":"-.-","location":"BOZALAN-EZINE (CANAKKALE)"},{"date":"2020.09.09","time":"11:45:20","latitude":"38.7700","longitude":"42.0190","depth":"5.5","md":"-.-","ml":"2.1","mw":"-.-","location":"DURUCAK-KORKUT (MUS)"},{"date":"2020.09.09","time":"11:43:18","latitude":"40.6722","longitude":"27.3565","depth":"5.1","md":"-.-","ml":"1.9","mw":"-.-","location":"HOSKOY-SARKOY (TEKIRDAG)"},{"date":"2020.09.09","time":"11:37:17","latitude":"36.2568","longitude":"33.7200","depth":"0.0","md":"-.-","ml":"1.3","mw":"-.-","location":"AKDERE-SILIFKE (MERSIN)"},{"date":"2020.09.09","time":"11:10:41","latitude":"40.7142","longitude":"27.2430","depth":"18.7","md":"-.-","ml":"1.5","mw":"-.-","location":"MURSALLI-SARKOY (TEKIRDAG)"},{"date":"2020.09.09","time":"11:00:21","latitude":"39.8962","longitude":"40.8962","depth":"8.8","md":"-.-","ml":"2.4","mw":"-.-","location":"ATLIKONAK-AZIZIYE (ERZURUM)"},{"date":"2020.09.09","time":"10:07:16","latitude":"38.3450","longitude":"38.9223","depth":"13.0","md":"-.-","ml":"1.4","mw":"-.-","location":"KARAHUSEYIN-KALE (MALATYA)"},{"date":"2020.09.09","time":"09:59:08","latitude":"38.1275","longitude":"38.5970","depth":"5.5","md":"-.-","ml":"2.4","mw":"-.-","location":"TEKEDERESI-PUTURGE (MALATYA)"},{"date":"2020.09.09","time":"09:19:29","latitude":"40.6080","longitude":"27.3578","depth":"5.0","md":"-.-","ml":"1.5","mw":"-.-","location":"MUREFTE ACIKLARI-TEKIRDAG (MARMARA DENIZI)"},{"date":"2020.09.09","time":"09:06:34","latitude":"40.6753","longitude":"27.4042","depth":"5.9","md":"-.-","ml":"1.7","mw":"-.-","location":"GUZELKOY ACIKLARI-TEKIRDAG (MARMARA DENIZI)"},{"date":"2020.09.09","time":"09:04:48","latitude":"37.5275","longitude":"29.9752","depth":"28.4","md":"-.-","ml":"1.4","mw":"-.-","location":"KOCAPINAR-(BURDUR)"},{"date":"2020.09.09","time":"08:56:13","latitude":"39.6715","longitude":"24.8240","depth":"5.7","md":"-.-","ml":"2.8","mw":"-.-","location":"EGE DENIZI"},{"date":"2020.09.09","time":"08:47:33","latitude":"38.8538","longitude":"26.5327","depth":"10.6","md":"-.-","ml":"2.4","mw":"-.-","location":"EGE DENIZI"},{"date":"2020.09.09","time":"08:46:28","latitude":"38.5792","longitude":"27.2153","depth":"17.5","md":"-.-","ml":"2.3","mw":"-.-","location":"ALANICI-MENEMEN (IZMIR)"},{"date":"2020.09.09","time":"07:55:09","latitude":"39.1492","longitude":"29.0698","depth":"9.9","md":"-.-","ml":"1.3","mw":"-.-","location":"SOGUT-SIMAV (KUTAHYA)"},{"date":"2020.09.09","time":"07:49:35","latitude":"40.6660","longitude":"27.4157","depth":"3.5","md":"-.-","ml":"1.3","mw":"-.-","location":"GUZELKOY ACIKLARI-TEKIRDAG (MARMARA DENIZI)"},{"date":"2020.09.09","time":"07:46:28","latitude":"38.9945","longitude":"29.1142","depth":"3.8","md":"-.-","ml":"2.0","mw":"-.-","location":"PAZARLAR (KUTAHYA)"},{"date":"2020.09.09","time":"07:39:41","latitude":"40.7162","longitude":"27.4345","depth":"9.1","md":"-.-","ml":"1.7","mw":"-.-","location":"GUZELKOY ACIKLARI-TEKIRDAG (MARMARA DENIZI)"},{"date":"2020.09.09","time":"06:36:12","latitude":"38.4387","longitude":"37.5195","depth":"5.0","md":"-.-","ml":"2.8","mw":"-.-","location":"SUGUL-DARENDE (MALATYA)"},{"date":"2020.09.09","time":"06:02:27","latitude":"40.6995","longitude":"27.4247","depth":"12.0","md":"-.-","ml":"2.9","mw":"-.-","location":"GUZELKOY ACIKLARI-TEKIRDAG (MARMARA DENIZI)"},{"date":"2020.09.09","time":"05:46:28","latitude":"40.7040","longitude":"27.4298","depth":"10.2","md":"-.-","ml":"1.6","mw":"-.-","location":"GUZELKOY ACIKLARI-TEKIRDAG (MARMARA DENIZI)"},{"date":"2020.09.09","time":"04:49:26","latitude":"38.8282","longitude":"26.9777","depth":"7.9","md":"-.-","ml":"1.9","mw":"-.-","location":"ALIAGA (IZMIR)"},{"date":"2020.09.09","time":"04:49:18","latitude":"38.0737","longitude":"38.6353","depth":"5.0","md":"-.-","ml":"1.5","mw":"-.-","location":"SAKIZ-SINCIK (ADIYAMAN)"},{"date":"2020.09.09","time":"04:43:14","latitude":"40.7073","longitude":"27.3890","depth":"12.5","md":"-.-","ml":"2.0","mw":"-.-","location":"GUZELKOY ACIKLARI-TEKIRDAG (MARMARA DENIZI)"},{"date":"2020.09.09","time":"04:18:32","latitude":"40.7178","longitude":"27.4242","depth":"13.1","md":"-.-","ml":"1.2","mw":"-.-","location":"GUZELKOY ACIKLARI-TEKIRDAG (MARMARA DENIZI)"},{"date":"2020.09.09","time":"03:46:47","latitude":"40.6960","longitude":"27.4473","depth":"11.0","md":"-.-","ml":"1.9","mw":"-.-","location":"GUZELKOY ACIKLARI-TEKIRDAG (MARMARA DENIZI)"},{"date":"2020.09.09","time":"03:18:31","latitude":"40.6858","longitude":"27.4315","depth":"6.3","md":"-.-","ml":"1.4","mw":"-.-","location":"GUZELKOY ACIKLARI-TEKIRDAG (MARMARA DENIZI)"},{"date":"2020.09.09","time":"03:15:56","latitude":"40.7343","longitude":"27.4473","depth":"17.6","md":"-.-","ml":"1.5","mw":"-.-","location":"GUZELKOY ACIKLARI-TEKIRDAG (MARMARA DENIZI)"},{"date":"2020.09.09","time":"03:14:32","latitude":"40.7002","longitude":"27.4437","depth":"9.9","md":"-.-","ml":"1.9","mw":"-.-","location":"GUZELKOY ACIKLARI-TEKIRDAG (MARMARA DENIZI)"},{"date":"2020.09.09","time":"03:09:36","latitude":"40.6965","longitude":"27.4283","depth":"11.0","md":"-.-","ml":"1.2","mw":"-.-","location":"GUZELKOY ACIKLARI-TEKIRDAG (MARMARA DENIZI)"},{"date":"2020.09.09","time":"03:00:19","latitude":"40.6807","longitude":"27.4062","depth":"9.8","md":"-.-","ml":"1.8","mw":"-.-","location":"GUZELKOY ACIKLARI-TEKIRDAG (MARMARA DENIZI)"},{"date":"2020.09.09","time":"02:54:46","latitude":"40.7638","longitude":"27.4800","depth":"10.1","md":"-.-","ml":"1.2","mw":"-.-","location":"GUZELKOY ACIKLARI-TEKIRDAG (MARMARA DENIZI)"},{"date":"2020.09.09","time":"02:52:30","latitude":"40.7010","longitude":"27.4405","depth":"6.2","md":"-.-","ml":"1.7","mw":"-.-","location":"GUZELKOY ACIKLARI-TEKIRDAG (MARMARA DENIZI)"},{"date":"2020.09.09","time":"02:39:50","latitude":"40.7137","longitude":"27.4205","depth":"13.2","md":"-.-","ml":"1.6","mw":"-.-","location":"GUZELKOY ACIKLARI-TEKIRDAG (MARMARA DENIZI)"},{"date":"2020.09.09","time":"02:39:03","latitude":"39.0108","longitude":"25.7947","depth":"5.4","md":"-.-","ml":"2.1","mw":"-.-","location":"EGE DENIZI"},{"date":"2020.09.09","time":"02:38:40","latitude":"39.8667","longitude":"26.8810","depth":"12.9","md":"-.-","ml":"1.7","mw":"-.-","location":"KARAKOY-BAYRAMIC (CANAKKALE)"},{"date":"2020.09.09","time":"02:21:48","latitude":"40.7152","longitude":"27.5013","depth":"5.4","md":"-.-","ml":"1.4","mw":"-.-","location":"GUZELKOY ACIKLARI-TEKIRDAG (MARMARA DENIZI)"},{"date":"2020.09.09","time":"02:17:50","latitude":"40.6992","longitude":"27.4272","depth":"12.1","md":"-.-","ml":"1.7","mw":"-.-","location":"GUZELKOY ACIKLARI-TEKIRDAG (MARMARA DENIZI)"},{"date":"2020.09.09","time":"02:15:52","latitude":"40.7182","longitude":"27.4555","depth":"17.4","md":"-.-","ml":"1.5","mw":"-.-","location":"GUZELKOY ACIKLARI-TEKIRDAG (MARMARA DENIZI)"},{"date":"2020.09.09","time":"02:15:28","latitude":"40.7120","longitude":"27.4570","depth":"7.7","md":"-.-","ml":"1.8","mw":"-.-","location":"GUZELKOY ACIKLARI-TEKIRDAG (MARMARA DENIZI)"},{"date":"2020.09.09","time":"02:12:12","latitude":"40.7043","longitude":"27.4415","depth":"8.6","md":"-.-","ml":"2.0","mw":"-.-","location":"GUZELKOY ACIKLARI-TEKIRDAG (MARMARA DENIZI)"},{"date":"2020.09.09","time":"02:03:46","latitude":"40.7010","longitude":"27.4342","depth":"12.1","md":"-.-","ml":"1.7","mw":"-.-","location":"GUZELKOY ACIKLARI-TEKIRDAG (MARMARA DENIZI)"},{"date":"2020.09.09","time":"01:59:13","latitude":"40.7102","longitude":"27.3823","depth":"9.9","md":"-.-","ml":"1.5","mw":"-.-","location":"GUZELKOY ACIKLARI-TEKIRDAG (MARMARA DENIZI)"},{"date":"2020.09.09","time":"01:55:56","latitude":"40.7188","longitude":"27.4193","depth":"5.4","md":"-.-","ml":"1.9","mw":"-.-","location":"GUZELKOY ACIKLARI-TEKIRDAG (MARMARA DENIZI)"},{"date":"2020.09.09","time":"01:41:09","latitude":"38.0793","longitude":"38.6945","depth":"3.7","md":"-.-","ml":"2.5","mw":"-.-","location":"ULUTAS-PUTURGE (MALATYA)"},{"date":"2020.09.09","time":"01:32:13","latitude":"40.7242","longitude":"27.4345","depth":"14.4","md":"-.-","ml":"1.8","mw":"-.-","location":"GUZELKOY ACIKLARI-TEKIRDAG (MARMARA DENIZI)"},{"date":"2020.09.09","time":"01:27:49","latitude":"40.7142","longitude":"27.4263","depth":"14.3","md":"-.-","ml":"1.8","mw":"-.-","location":"GUZELKOY ACIKLARI-TEKIRDAG (MARMARA DENIZI)"},{"date":"2020.09.09","time":"01:25:58","latitude":"40.7040","longitude":"27.4297","depth":"10.9","md":"-.-","ml":"1.4","mw":"-.-","location":"GUZELKOY ACIKLARI-TEKIRDAG (MARMARA DENIZI)"},{"date":"2020.09.09","time":"01:20:03","latitude":"38.1657","longitude":"38.6855","depth":"5.0","md":"-.-","ml":"3.9","mw":"4.0","location":"SAHILKOY-PUTURGE (MALATYA)"},{"date":"2020.09.09","time":"01:19:41","latitude":"40.6787","longitude":"27.4610","depth":"2.5","md":"-.-","ml":"1.6","mw":"-.-","location":"GUZELKOY ACIKLARI-TEKIRDAG (MARMARA DENIZI)"},{"date":"2020.09.09","time":"01:18:18","latitude":"40.7258","longitude":"27.4760","depth":"7.4","md":"-.-","ml":"1.6","mw":"-.-","location":"GUZELKOY ACIKLARI-TEKIRDAG (MARMARA DENIZI)"},{"date":"2020.09.09","time":"01:17:17","latitude":"40.7210","longitude":"27.4490","depth":"16.5","md":"-.-","ml":"1.7","mw":"-.-","location":"GUZELKOY ACIKLARI-TEKIRDAG (MARMARA DENIZI)"},{"date":"2020.09.09","time":"01:08:08","latitude":"40.7082","longitude":"27.4267","depth":"13.3","md":"-.-","ml":"2.7","mw":"-.-","location":"GUZELKOY ACIKLARI-TEKIRDAG (MARMARA DENIZI)"},{"date":"2020.09.09","time":"01:06:27","latitude":"40.7072","longitude":"27.4222","depth":"14.3","md":"-.-","ml":"3.3","mw":"3.2","location":"GUZELKOY ACIKLARI-TEKIRDAG (MARMARA DENIZI)"},{"date":"2020.09.09","time":"00:57:23","latitude":"40.7033","longitude":"27.4228","depth":"13.7","md":"-.-","ml":"4.6","mw":"4.3","location":"GUZELKOY ACIKLARI-TEKIRDAG (MARMARA DENIZI)"},{"date":"2020.09.09","time":"00:55:58","latitude":"40.6988","longitude":"27.4203","depth":"12.7","md":"-.-","ml":"3.0","mw":"-.-","location":"GUZELKOY ACIKLARI-TEKIRDAG (MARMARA DENIZI)"},{"date":"2020.09.09","time":"00:50:46","latitude":"40.7020","longitude":"27.4237","depth":"13.7","md":"-.-","ml":"2.2","mw":"-.-","location":"GUZELKOY ACIKLARI-TEKIRDAG (MARMARA DENIZI)"},{"date":"2020.09.08","time":"23:57:19","latitude":"38.5563","longitude":"39.2808","depth":"16.3","md":"-.-","ml":"1.6","mw":"-.-","location":"BAHCEKAPI-(ELAZIG)"},{"date":"2020.09.08","time":"23:34:30","latitude":"40.6995","longitude":"27.4160","depth":"12.4","md":"-.-","ml":"2.3","mw":"-.-","location":"GUZELKOY ACIKLARI-TEKIRDAG (MARMARA DENIZI)"},{"date":"2020.09.08","time":"23:28:06","latitude":"40.6955","longitude":"27.3900","depth":"13.7","md":"-.-","ml":"1.7","mw":"-.-","location":"GUZELKOY ACIKLARI-TEKIRDAG (MARMARA DENIZI)"},{"date":"2020.09.08","time":"21:47:16","latitude":"39.1777","longitude":"32.9512","depth":"12.4","md":"-.-","ml":"1.9","mw":"-.-","location":"ALTILAR-KULU (KONYA)"},{"date":"2020.09.08","time":"21:41:05","latitude":"38.1662","longitude":"38.6742","depth":"7.6","md":"-.-","ml":"3.2","mw":"3.2","location":"ESENLIK-PUTURGE (MALATYA)"},{"date":"2020.09.08","time":"21:22:31","latitude":"40.0715","longitude":"44.6595","depth":"5.0","md":"-.-","ml":"1.9","mw":"-.-","location":"TURKIYE-ERMENISTAN SINIR BOLGESI"},{"date":"2020.09.08","time":"20:20:16","latitude":"39.4227","longitude":"41.0003","depth":"22.6","md":"-.-","ml":"2.0","mw":"-.-","location":"KASIKCI-KARLIOVA (BINGOL)"},{"date":"2020.09.08","time":"20:09:02","latitude":"38.8810","longitude":"43.4438","depth":"15.7","md":"-.-","ml":"2.5","mw":"-.-","location":"GEDIKBULAK-(VAN)"},{"date":"2020.09.08","time":"19:33:41","latitude":"38.2002","longitude":"38.6507","depth":"5.0","md":"-.-","ml":"2.0","mw":"-.-","location":"SOGUTLU-PUTURGE (MALATYA)"},{"date":"2020.09.08","time":"18:15:33","latitude":"35.9045","longitude":"28.2143","depth":"69.4","md":"-.-","ml":"2.0","mw":"-.-","location":"AKDENIZ"},{"date":"2020.09.08","time":"18:10:29","latitude":"38.2822","longitude":"38.7033","depth":"21.9","md":"-.-","ml":"1.4","mw":"-.-","location":"KAMISTAS-(MALATYA)"},{"date":"2020.09.08","time":"18:09:38","latitude":"38.1920","longitude":"38.6620","depth":"7.8","md":"-.-","ml":"2.5","mw":"-.-","location":"ARITOPRAK-PUTURGE (MALATYA)"},{"date":"2020.09.08","time":"18:06:14","latitude":"38.1478","longitude":"38.6472","depth":"5.0","md":"-.-","ml":"4.3","mw":"4.3","location":"BASMEZRA-PUTURGE (MALATYA)"},{"date":"2020.09.08","time":"17:46:58","latitude":"38.2773","longitude":"38.7622","depth":"6.0","md":"-.-","ml":"2.0","mw":"-.-","location":"BALPINARI-PUTURGE (MALATYA)"},{"date":"2020.09.08","time":"16:54:55","latitude":"38.1560","longitude":"38.7187","depth":"5.0","md":"-.-","ml":"1.8","mw":"-.-","location":"YAZICA-PUTURGE (MALATYA)"},{"date":"2020.09.08","time":"16:50:33","latitude":"33.9040","longitude":"26.9023","depth":"8.0","md":"-.-","ml":"2.6","mw":"-.-","location":"GIRIT ADASI ACIKLARI (AKDENIZ)"},{"date":"2020.09.08","time":"16:21:02","latitude":"38.2130","longitude":"38.6962","depth":"5.0","md":"-.-","ml":"4.0","mw":"4.3","location":"KOKPINAR-PUTURGE (MALATYA)"},{"date":"2020.09.08","time":"16:19:50","latitude":"38.1207","longitude":"38.6907","depth":"5.0","md":"-.-","ml":"3.9","mw":"-.-","location":"ALICERI-PUTURGE (MALATYA)"},{"date":"2020.09.08","time":"15:38:59","latitude":"38.1455","longitude":"38.7080","depth":"5.0","md":"-.-","ml":"4.3","mw":"4.5","location":"YAZICA-PUTURGE (MALATYA)"},{"date":"2020.09.08","time":"15:24:46","latitude":"37.8462","longitude":"29.1358","depth":"0.0","md":"-.-","ml":"1.5","mw":"-.-","location":"ELDENIZLI-(DENIZLI)"},{"date":"2020.09.08","time":"15:23:25","latitude":"38.0692","longitude":"38.5805","depth":"4.0","md":"-.-","ml":"2.5","mw":"-.-","location":"BALKAYA-SINCIK (ADIYAMAN)"},{"date":"2020.09.08","time":"14:32:50","latitude":"37.0257","longitude":"27.7898","depth":"4.6","md":"-.-","ml":"1.5","mw":"-.-","location":"GOKBEL-MILAS (MUGLA)"},{"date":"2020.09.08","time":"14:23:00","latitude":"37.1387","longitude":"27.9782","depth":"0.0","md":"-.-","ml":"1.1","mw":"-.-","location":"YOGUNOLUK-MILAS (MUGLA)"},{"date":"2020.09.08","time":"14:02:54","latitude":"38.1550","longitude":"38.7398","depth":"7.6","md":"-.-","ml":"3.1","mw":"3.1","location":"YAZICA-PUTURGE (MALATYA)"},{"date":"2020.09.08","time":"13:44:06","latitude":"38.1635","longitude":"38.7020","depth":"5.0","md":"-.-","ml":"4.7","mw":"4.9","location":"SAHILKOY-PUTURGE (MALATYA)"},{"date":"2020.09.08","time":"13:35:23","latitude":"39.1580","longitude":"27.4913","depth":"0.0","md":"-.-","ml":"1.7","mw":"-.-","location":"CENKYERI-SOMA (MANISA)"},{"date":"2020.09.08","time":"13:14:42","latitude":"37.7998","longitude":"27.3257","depth":"10.8","md":"-.-","ml":"1.8","mw":"-.-","location":"YAYLAKOY-KUSADASI (AYDIN)"},{"date":"2020.09.08","time":"13:11:04","latitude":"36.5993","longitude":"28.0190","depth":"82.2","md":"-.-","ml":"2.4","mw":"-.-","location":"TASLICA-MARMARIS (MUGLA)"},{"date":"2020.09.08","time":"12:36:07","latitude":"39.4937","longitude":"28.8048","depth":"20.6","md":"-.-","ml":"2.0","mw":"-.-","location":"BOYALICA-DURSUNBEY (BALIKESIR)"},{"date":"2020.09.08","time":"12:30:38","latitude":"39.3982","longitude":"25.9907","depth":"1.7","md":"-.-","ml":"2.1","mw":"-.-","location":"BADEMLI ACIKLARI-CANAKKALE (EGE DENIZI)"},{"date":"2020.09.08","time":"12:23:29","latitude":"36.8648","longitude":"37.6043","depth":"5.0","md":"-.-","ml":"2.4","mw":"-.-","location":"KASYOLU-OGUZELI (GAZIANTEP)"},{"date":"2020.09.08","time":"12:19:52","latitude":"40.0478","longitude":"26.3107","depth":"5.0","md":"-.-","ml":"1.7","mw":"-.-","location":"GUZELYALI-(CANAKKALE)"},{"date":"2020.09.08","time":"12:00:26","latitude":"37.2823","longitude":"31.9350","depth":"1.2","md":"-.-","ml":"1.8","mw":"-.-","location":"SUSUZ-SEYDISEHIR (KONYA)"},{"date":"2020.09.08","time":"11:57:39","latitude":"37.2892","longitude":"28.3302","depth":"4.7","md":"-.-","ml":"1.7","mw":"-.-","location":"KOZAGAC-(MUGLA)"},{"date":"2020.09.08","time":"11:57:29","latitude":"37.1890","longitude":"37.3245","depth":"0.0","md":"-.-","ml":"2.1","mw":"-.-","location":"INCESU-SEHITKAMIL (GAZIANTEP)"},{"date":"2020.09.08","time":"11:54:53","latitude":"37.2630","longitude":"28.2843","depth":"0.0","md":"-.-","ml":"1.8","mw":"-.-","location":"AKCAOVA-(MUGLA)"},{"date":"2020.09.08","time":"11:51:17","latitude":"37.1658","longitude":"27.8387","depth":"0.0","md":"-.-","ml":"1.4","mw":"-.-","location":"IKIZKOY-MILAS (MUGLA)"},{"date":"2020.09.08","time":"11:45:03","latitude":"38.2477","longitude":"38.8272","depth":"18.9","md":"-.-","ml":"1.7","mw":"-.-","location":"ORMELI-PUTURGE (MALATYA)"},{"date":"2020.09.08","time":"11:43:28","latitude":"36.2743","longitude":"33.7357","depth":"0.0","md":"-.-","ml":"1.0","mw":"-.-","location":"AKDERE-SILIFKE (MERSIN)"},{"date":"2020.09.08","time":"11:33:32","latitude":"39.6138","longitude":"29.6403","depth":"0.0","md":"-.-","ml":"1.7","mw":"-.-","location":"GUMUSGOLCUK-TAVSANLI (KUTAHYA)"},{"date":"2020.09.08","time":"11:30:37","latitude":"40.4985","longitude":"29.2853","depth":"0.0","md":"-.-","ml":"1.7","mw":"-.-","location":"FINDIKLI-ORHANGAZI (BURSA)"},{"date":"2020.09.08","time":"10:30:44","latitude":"39.8363","longitude":"28.9775","depth":"3.7","md":"-.-","ml":"1.5","mw":"-.-","location":"KARAOGLANLAR-ORHANELI (BURSA)"},{"date":"2020.09.08","time":"10:16:28","latitude":"37.7225","longitude":"32.3382","depth":"0.0","md":"-.-","ml":"1.3","mw":"-.-","location":"KARADIGINDERESI-MERAM (KONYA)"},{"date":"2020.09.08","time":"09:47:26","latitude":"38.8635","longitude":"41.9925","depth":"3.4","md":"-.-","ml":"2.1","mw":"-.-","location":"DEMIRCI-KORKUT (MUS)"},{"date":"2020.09.08","time":"09:09:31","latitude":"37.4160","longitude":"31.5008","depth":"5.0","md":"-.-","ml":"2.8","mw":"-.-","location":"DEREBUCAK (KONYA)"},{"date":"2020.09.08","time":"08:43:29","latitude":"37.0958","longitude":"27.6608","depth":"5.0","md":"-.-","ml":"1.4","mw":"-.-","location":"MUMCULAR-BODRUM (MUGLA)"},{"date":"2020.09.08","time":"08:00:00","latitude":"38.4280","longitude":"39.2165","depth":"10.6","md":"-.-","ml":"1.0","mw":"-.-","location":"YEDIPINAR-SIVRICE (ELAZIG)"},{"date":"2020.09.08","time":"07:07:17","latitude":"39.4237","longitude":"25.6933","depth":"6.7","md":"-.-","ml":"2.2","mw":"-.-","location":"EGE DENIZI"},{"date":"2020.09.08","time":"06:53:37","latitude":"38.9293","longitude":"27.9218","depth":"5.9","md":"-.-","ml":"2.3","mw":"-.-","location":"HASKOY-AKHISAR (MANISA)"},{"date":"2020.09.08","time":"04:33:02","latitude":"40.2245","longitude":"31.7707","depth":"9.1","md":"-.-","ml":"1.8","mw":"-.-","location":"KOZAGAC-BEYPAZARI (ANKARA)"},{"date":"2020.09.08","time":"03:32:55","latitude":"37.3780","longitude":"31.4803","depth":"5.0","md":"-.-","ml":"2.4","mw":"-.-","location":"DEREBUCAK (KONYA)"},{"date":"2020.09.08","time":"01:43:39","latitude":"37.3988","longitude":"31.4767","depth":"5.0","md":"-.-","ml":"2.6","mw":"-.-","location":"DEREBUCAK (KONYA)"},{"date":"2020.09.08","time":"01:41:19","latitude":"37.3825","longitude":"31.5047","depth":"5.5","md":"-.-","ml":"1.9","mw":"-.-","location":"DEREBUCAK (KONYA)"},{"date":"2020.09.08","time":"01:41:01","latitude":"38.6755","longitude":"42.0288","depth":"11.7","md":"-.-","ml":"1.3","mw":"-.-","location":"OZKAVAK-GUROYMAK (BITLIS)"},{"date":"2020.09.08","time":"01:35:19","latitude":"38.6527","longitude":"43.4748","depth":"7.6","md":"-.-","ml":"2.1","mw":"-.-","location":"DILIMLI-(VAN)"},{"date":"2020.09.08","time":"01:33:09","latitude":"37.8705","longitude":"27.5577","depth":"6.1","md":"-.-","ml":"1.5","mw":"-.-","location":"KIZILCAPINAR-GERMENCIK (AYDIN)"},{"date":"2020.09.08","time":"00:07:58","latitude":"35.5135","longitude":"27.6188","depth":"14.8","md":"-.-","ml":"1.8","mw":"-.-","location":"AKDENIZ"},{"date":"2020.09.07","time":"22:55:29","latitude":"40.0838","longitude":"41.3653","depth":"12.4","md":"-.-","ml":"1.5","mw":"-.-","location":"GOKCEYAMAC-YAKUTIYE (ERZURUM)"},{"date":"2020.09.07","time":"19:51:19","latitude":"35.6197","longitude":"26.7372","depth":"8.5","md":"-.-","ml":"2.5","mw":"-.-","location":"AKDENIZ"},{"date":"2020.09.07","time":"18:02:11","latitude":"39.5028","longitude":"44.5008","depth":"6.7","md":"-.-","ml":"3.0","mw":"3.0","location":"TURKIYE-IRAN SINIR BOLGESI"},{"date":"2020.09.07","time":"17:33:38","latitude":"38.0020","longitude":"34.0428","depth":"5.0","md":"-.-","ml":"2.6","mw":"-.-","location":"OBRUK-BOR (NIGDE)"},{"date":"2020.09.07","time":"15:45:40","latitude":"40.8365","longitude":"36.0315","depth":"6.3","md":"-.-","ml":"2.4","mw":"-.-","location":"AKTAS-(AMASYA)"},{"date":"2020.09.07","time":"15:26:13","latitude":"38.2057","longitude":"38.7352","depth":"18.1","md":"-.-","ml":"2.0","mw":"-.-","location":"PAZARCIK-PUTURGE (MALATYA)"},{"date":"2020.09.07","time":"14:11:20","latitude":"37.1852","longitude":"36.7040","depth":"9.0","md":"-.-","ml":"2.0","mw":"-.-","location":"OLUCAK-NURDAGI (GAZIANTEP)"},{"date":"2020.09.07","time":"12:57:14","latitude":"38.6872","longitude":"42.0152","depth":"13.1","md":"-.-","ml":"1.8","mw":"-.-","location":"SAZLIKBASI-KORKUT (MUS)"},{"date":"2020.09.07","time":"12:54:26","latitude":"38.7355","longitude":"42.0372","depth":"7.9","md":"-.-","ml":"1.8","mw":"-.-","location":"YUNOREN-KORKUT (MUS)"},{"date":"2020.09.07","time":"12:43:02","latitude":"39.2575","longitude":"29.0590","depth":"3.5","md":"-.-","ml":"2.0","mw":"-.-","location":"KATRANDAGI-EMET (KUTAHYA)"},{"date":"2020.09.07","time":"12:37:25","latitude":"37.7740","longitude":"38.4978","depth":"8.1","md":"-.-","ml":"2.4","mw":"-.-","location":"ALIBEY-(ADIYAMAN)"},{"date":"2020.09.07","time":"12:31:02","latitude":"37.1438","longitude":"27.8625","depth":"0.0","md":"-.-","ml":"1.6","mw":"-.-","location":"BAGDAMLARI-MILAS (MUGLA)"},{"date":"2020.09.07","time":"12:29:37","latitude":"37.2363","longitude":"27.8937","depth":"0.0","md":"-.-","ml":"1.3","mw":"-.-","location":"CAMLIBELEN-MILAS (MUGLA)"},{"date":"2020.09.07","time":"12:01:34","latitude":"37.6360","longitude":"29.3288","depth":"0.0","md":"-.-","ml":"1.6","mw":"-.-","location":"KOCAPINAR-SERINHISAR (DENIZLI)"},{"date":"2020.09.07","time":"12:00:16","latitude":"37.2388","longitude":"27.8607","depth":"17.4","md":"-.-","ml":"1.4","mw":"-.-","location":"KALINAGIL-MILAS (MUGLA)"},{"date":"2020.09.07","time":"11:52:48","latitude":"37.5935","longitude":"29.1597","depth":"0.0","md":"-.-","ml":"1.7","mw":"-.-","location":"TEKKEKOY-TAVAS (DENIZLI)"},{"date":"2020.09.07","time":"11:47:46","latitude":"38.7273","longitude":"41.9683","depth":"5.0","md":"-.-","ml":"3.9","mw":"-.-","location":"SARMASIK-KORKUT (MUS)"},{"date":"2020.09.07","time":"11:23:56","latitude":"37.9693","longitude":"42.9405","depth":"5.0","md":"-.-","ml":"2.9","mw":"-.-","location":"KORULU-CATAK (VAN)"},{"date":"2020.09.07","time":"10:55:06","latitude":"37.2955","longitude":"38.7230","depth":"0.0","md":"-.-","ml":"2.3","mw":"-.-","location":"KORUKEZEN-(SANLIURFA)"},{"date":"2020.09.07","time":"10:30:24","latitude":"39.7005","longitude":"27.8120","depth":"5.1","md":"-.-","ml":"1.8","mw":"-.-","location":"BEYKOY-(BALIKESIR)"},{"date":"2020.09.07","time":"08:07:00","latitude":"38.2723","longitude":"31.1598","depth":"26.7","md":"-.-","ml":"1.2","mw":"-.-","location":"YAGCILAR-YALVAC (ISPARTA)"},{"date":"2020.09.07","time":"06:52:00","latitude":"39.3755","longitude":"27.6450","depth":"3.0","md":"-.-","ml":"1.2","mw":"-.-","location":"SAVASTEPE (BALIKESIR)"},{"date":"2020.09.07","time":"05:41:37","latitude":"39.4357","longitude":"40.7245","depth":"5.5","md":"-.-","ml":"1.5","mw":"-.-","location":"SOBECAYIR-CAT (ERZURUM)"},{"date":"2020.09.07","time":"04:47:51","latitude":"39.3640","longitude":"40.3653","depth":"3.8","md":"-.-","ml":"1.6","mw":"-.-","location":"KIGI (BINGOL)"},{"date":"2020.09.07","time":"04:36:59","latitude":"38.1897","longitude":"27.2170","depth":"4.9","md":"-.-","ml":"1.3","mw":"-.-","location":"DEVELI-MENDERES (IZMIR)"},{"date":"2020.09.07","time":"04:19:57","latitude":"34.1050","longitude":"25.6803","depth":"10.9","md":"-.-","ml":"2.7","mw":"-.-","location":"GIRIT ADASI ACIKLARI (AKDENIZ)"},{"date":"2020.09.07","time":"04:19:26","latitude":"39.8900","longitude":"27.9073","depth":"5.6","md":"-.-","ml":"1.3","mw":"-.-","location":"ALACABAYIR-(BALIKESIR)"},{"date":"2020.09.07","time":"04:13:02","latitude":"39.3158","longitude":"34.0218","depth":"9.1","md":"-.-","ml":"1.5","mw":"-.-","location":"CIFTLIKMEHMETAGA-AKPINAR (KIRSEHIR)"},{"date":"2020.09.07","time":"03:56:25","latitude":"37.2177","longitude":"28.2875","depth":"5.4","md":"-.-","ml":"2.0","mw":"-.-","location":"AKCAOVA-(MUGLA)"},{"date":"2020.09.07","time":"03:20:08","latitude":"37.8072","longitude":"29.2100","depth":"10.4","md":"-.-","ml":"1.3","mw":"-.-","location":"PINARKENT-(DENIZLI)"},{"date":"2020.09.07","time":"03:19:43","latitude":"39.8967","longitude":"27.8965","depth":"7.9","md":"-.-","ml":"1.5","mw":"-.-","location":"YEROLUK-(BALIKESIR)"},{"date":"2020.09.07","time":"02:50:55","latitude":"40.7055","longitude":"27.4732","depth":"13.7","md":"-.-","ml":"1.6","mw":"-.-","location":"GUZELKOY ACIKLARI-TEKIRDAG (MARMARA DENIZI)"},{"date":"2020.09.07","time":"02:40:17","latitude":"38.6388","longitude":"38.0457","depth":"5.0","md":"-.-","ml":"1.4","mw":"-.-","location":"ALICAN-YAZIHAN (MALATYA)"},{"date":"2020.09.07","time":"02:25:36","latitude":"40.8878","longitude":"28.2067","depth":"12.1","md":"-.-","ml":"2.8","mw":"-.-","location":"MARMARA DENIZI"},{"date":"2020.09.07","time":"01:48:45","latitude":"38.7033","longitude":"43.0905","depth":"3.8","md":"-.-","ml":"1.0","mw":"-.-","location":"VAN GOLU"},{"date":"2020.09.07","time":"01:39:27","latitude":"38.4295","longitude":"39.2920","depth":"11.4","md":"-.-","ml":"1.2","mw":"-.-","location":"YEDIKARDES-SIVRICE (ELAZIG)"},{"date":"2020.09.07","time":"01:33:20","latitude":"38.6128","longitude":"43.3133","depth":"23.6","md":"-.-","ml":"1.5","mw":"-.-","location":"YESILKOY-(VAN)"},{"date":"2020.09.07","time":"01:06:39","latitude":"38.4603","longitude":"39.1802","depth":"8.6","md":"-.-","ml":"1.0","mw":"-.-","location":"DEDEYOLU-SIVRICE (ELAZIG)"},{"date":"2020.09.07","time":"00:20:58","latitude":"34.8588","longitude":"33.7682","depth":"46.4","md":"-.-","ml":"2.3","mw":"-.-","location":"AKDENIZ"},{"date":"2020.09.06","time":"23:29:18","latitude":"39.5755","longitude":"39.7987","depth":"13.3","md":"-.-","ml":"1.7","mw":"-.-","location":"DEREKOYU-PULUMUR (TUNCELI)"},{"date":"2020.09.06","time":"23:00:59","latitude":"39.8323","longitude":"30.1603","depth":"20.9","md":"-.-","ml":"1.5","mw":"-.-","location":"INONU (ESKISEHIR)"},{"date":"2020.09.06","time":"22:06:21","latitude":"36.9943","longitude":"35.7357","depth":"8.2","md":"-.-","ml":"2.4","mw":"-.-","location":"SIRKELI-CEYHAN (ADANA)"},{"date":"2020.09.06","time":"20:58:13","latitude":"36.4523","longitude":"28.7187","depth":"8.3","md":"-.-","ml":"2.0","mw":"-.-","location":"AKDENIZ"},{"date":"2020.09.06","time":"19:48:27","latitude":"38.4330","longitude":"42.8450","depth":"7.8","md":"-.-","ml":"1.9","mw":"-.-","location":"INKOY-GEVAS (VAN)"},{"date":"2020.09.06","time":"14:59:02","latitude":"39.1135","longitude":"41.0155","depth":"2.8","md":"-.-","ml":"2.0","mw":"-.-","location":"HASANOVA-KARLIOVA (BINGOL)"},{"date":"2020.09.06","time":"13:52:31","latitude":"38.3792","longitude":"39.0323","depth":"11.5","md":"-.-","ml":"1.7","mw":"-.-","location":"DUYGULU-SIVRICE (ELAZIG)"},{"date":"2020.09.06","time":"13:38:11","latitude":"39.2942","longitude":"40.2232","depth":"6.6","md":"-.-","ml":"2.4","mw":"-.-","location":"SABIRTASI-KIGI (BINGOL)"},{"date":"2020.09.06","time":"13:35:19","latitude":"36.7717","longitude":"26.5455","depth":"4.3","md":"-.-","ml":"2.1","mw":"-.-","location":"AKDENIZ"},{"date":"2020.09.06","time":"12:45:50","latitude":"39.4383","longitude":"27.6168","depth":"13.7","md":"-.-","ml":"1.2","mw":"-.-","location":"KURUDERE-SAVASTEPE (BALIKESIR)"},{"date":"2020.09.06","time":"12:45:05","latitude":"36.8408","longitude":"26.5938","depth":"7.0","md":"-.-","ml":"2.1","mw":"-.-","location":"AKDENIZ"},{"date":"2020.09.06","time":"12:13:11","latitude":"37.0588","longitude":"27.8692","depth":"0.0","md":"-.-","ml":"1.1","mw":"-.-","location":"GURCEGIZ-MILAS (MUGLA)"},{"date":"2020.09.06","time":"12:06:24","latitude":"37.8638","longitude":"27.2345","depth":"5.9","md":"-.-","ml":"2.8","mw":"-.-","location":"KUSADASI KORFEZI (EGE DENIZI)"},{"date":"2020.09.06","time":"11:54:32","latitude":"37.1207","longitude":"27.8098","depth":"0.0","md":"-.-","ml":"1.5","mw":"-.-","location":"CIFTLIKKOY-MILAS (MUGLA)"},{"date":"2020.09.06","time":"11:51:13","latitude":"37.6500","longitude":"36.4172","depth":"9.3","md":"-.-","ml":"2.2","mw":"-.-","location":"EMIRLER-ANDIRIN (KAHRAMANMARAS)"},{"date":"2020.09.06","time":"11:50:48","latitude":"37.1027","longitude":"27.8810","depth":"0.0","md":"-.-","ml":"1.2","mw":"-.-","location":"BAYIRKOY-MILAS (MUGLA)"},{"date":"2020.09.06","time":"11:48:39","latitude":"37.1815","longitude":"27.8538","depth":"0.0","md":"-.-","ml":"1.6","mw":"-.-","location":"IKIZKOY-MILAS (MUGLA)"},{"date":"2020.09.06","time":"10:26:05","latitude":"38.0297","longitude":"34.0408","depth":"5.0","md":"-.-","ml":"2.7","mw":"-.-","location":"OBRUK-BOR (NIGDE)"},{"date":"2020.09.06","time":"10:25:04","latitude":"38.0295","longitude":"34.0942","depth":"7.6","md":"-.-","ml":"2.8","mw":"-.-","location":"KECIKALESI-ALTUNHISAR (NIGDE)"},{"date":"2020.09.06","time":"09:12:06","latitude":"40.3410","longitude":"27.4115","depth":"4.5","md":"-.-","ml":"1.6","mw":"-.-","location":"BOZLAR-BIGA (CANAKKALE)"},{"date":"2020.09.06","time":"08:51:11","latitude":"39.6838","longitude":"25.6083","depth":"4.3","md":"-.-","ml":"2.8","mw":"-.-","location":"EGE DENIZI"},{"date":"2020.09.06","time":"08:42:44","latitude":"38.4502","longitude":"39.2883","depth":"8.1","md":"-.-","ml":"2.3","mw":"-.-","location":"SIVRICE (ELAZIG)"},{"date":"2020.09.06","time":"07:42:13","latitude":"40.9737","longitude":"40.0577","depth":"6.2","md":"-.-","ml":"2.3","mw":"-.-","location":"ARAKLI (TRABZON)"},{"date":"2020.09.06","time":"07:12:23","latitude":"36.6873","longitude":"28.1930","depth":"61.5","md":"-.-","ml":"1.9","mw":"-.-","location":"BAYIR-MARMARIS (MUGLA)"},{"date":"2020.09.06","time":"05:52:56","latitude":"40.6125","longitude":"33.5038","depth":"5.0","md":"-.-","ml":"3.6","mw":"3.8","location":"SARITARLA-ELDIVAN (CANKIRI)"},{"date":"2020.09.06","time":"05:45:47","latitude":"40.3650","longitude":"29.6223","depth":"11.1","md":"-.-","ml":"2.4","mw":"-.-","location":"AYDINLAR-IZNIK (BURSA)"},{"date":"2020.09.06","time":"05:42:46","latitude":"38.4853","longitude":"25.7210","depth":"5.0","md":"-.-","ml":"2.5","mw":"-.-","location":"EGE DENIZI"},{"date":"2020.09.06","time":"05:06:00","latitude":"38.8940","longitude":"25.2463","depth":"2.6","md":"-.-","ml":"2.2","mw":"-.-","location":"EGE DENIZI"},{"date":"2020.09.06","time":"04:08:04","latitude":"38.1692","longitude":"29.6857","depth":"7.3","md":"-.-","ml":"1.6","mw":"-.-","location":"SARIBEYLI-CIVRIL (DENIZLI)"},{"date":"2020.09.06","time":"03:10:56","latitude":"38.3595","longitude":"39.1225","depth":"5.2","md":"-.-","ml":"2.4","mw":"-.-","location":"AKSEKI-SIVRICE (ELAZIG)"},{"date":"2020.09.06","time":"02:25:59","latitude":"38.9905","longitude":"26.9993","depth":"6.2","md":"-.-","ml":"2.0","mw":"-.-","location":"DEMIRTAS-DIKILI (IZMIR)"},{"date":"2020.09.06","time":"02:10:23","latitude":"36.6578","longitude":"30.5558","depth":"9.9","md":"-.-","ml":"1.9","mw":"-.-","location":"GOYNUK-KEMER (ANTALYA)"},{"date":"2020.09.06","time":"02:06:56","latitude":"37.1773","longitude":"35.4562","depth":"2.6","md":"-.-","ml":"2.1","mw":"-.-","location":"TURUNCLU-SARICAM (ADANA)"},{"date":"2020.09.06","time":"01:24:32","latitude":"37.3825","longitude":"38.6910","depth":"3.1","md":"-.-","ml":"2.9","mw":"-.-","location":"BUYUKORDEK-(SANLIURFA)"},{"date":"2020.09.06","time":"00:57:10","latitude":"38.8878","longitude":"41.3427","depth":"2.2","md":"-.-","ml":"1.5","mw":"-.-","location":"KONUKBEKLER-(MUS)"},{"date":"2020.09.05","time":"22:13:32","latitude":"37.2397","longitude":"35.4218","depth":"5.0","md":"-.-","ml":"2.2","mw":"-.-","location":"MALIHIDIRLI-IMAMOGLU (ADANA)"},{"date":"2020.09.05","time":"20:52:36","latitude":"38.2040","longitude":"29.6538","depth":"1.2","md":"-.-","ml":"2.2","mw":"-.-","location":"YASSIHUYUK-CIVRIL (DENIZLI)"},{"date":"2020.09.05","time":"20:03:10","latitude":"39.2588","longitude":"41.7403","depth":"6.0","md":"-.-","ml":"2.6","mw":"-.-","location":"TELLITEPE-HINIS (ERZURUM)"},{"date":"2020.09.05","time":"19:47:33","latitude":"35.2433","longitude":"33.2095","depth":"62.3","md":"-.-","ml":"3.3","mw":"3.4","location":"KIBRIS-TURKELI"},{"date":"2020.09.05","time":"17:55:17","latitude":"40.5212","longitude":"30.5155","depth":"13.3","md":"-.-","ml":"1.7","mw":"-.-","location":"BELPINAR-GEYVE (SAKARYA)"},{"date":"2020.09.05","time":"17:54:43","latitude":"36.4650","longitude":"28.7073","depth":"4.6","md":"-.-","ml":"1.8","mw":"-.-","location":"AKDENIZ"},{"date":"2020.09.05","time":"17:12:07","latitude":"39.3962","longitude":"24.9275","depth":"5.0","md":"-.-","ml":"2.3","mw":"-.-","location":"EGE DENIZI"},{"date":"2020.09.05","time":"15:33:48","latitude":"35.4052","longitude":"27.7158","depth":"18.8","md":"-.-","ml":"2.8","mw":"-.-","location":"AKDENIZ"},{"date":"2020.09.05","time":"15:18:47","latitude":"38.4223","longitude":"39.2872","depth":"18.8","md":"-.-","ml":"1.3","mw":"-.-","location":"YEDIKARDES-SIVRICE (ELAZIG)"},{"date":"2020.09.05","time":"15:01:14","latitude":"40.0128","longitude":"42.5562","depth":"5.7","md":"-.-","ml":"2.9","mw":"-.-","location":"BALIKLI-SARIKAMIS (KARS)"},{"date":"2020.09.05","time":"13:11:02","latitude":"37.2263","longitude":"28.1862","depth":"0.0","md":"-.-","ml":"1.9","mw":"-.-","location":"CAYBUKU-(MUGLA)"},{"date":"2020.09.05","time":"12:44:40","latitude":"37.2908","longitude":"28.1763","depth":"0.0","md":"-.-","ml":"2.2","mw":"-.-","location":"GOKPINAR-YATAGAN (MUGLA)"},{"date":"2020.09.05","time":"11:51:00","latitude":"37.3263","longitude":"27.8665","depth":"0.0","md":"-.-","ml":"1.7","mw":"-.-","location":"YUSUFCA-MILAS (MUGLA)"},{"date":"2020.09.05","time":"11:49:55","latitude":"39.0620","longitude":"27.4870","depth":"0.0","md":"-.-","ml":"1.7","mw":"-.-","location":"KALEMKOY-KINIK (IZMIR)"},{"date":"2020.09.05","time":"10:09:57","latitude":"39.5332","longitude":"26.2005","depth":"5.0","md":"-.-","ml":"1.7","mw":"-.-","location":"YUKARIKOY-AYVACIK (CANAKKALE)"},{"date":"2020.09.05","time":"09:18:22","latitude":"38.1317","longitude":"42.6217","depth":"3.5","md":"-.-","ml":"2.9","mw":"-.-","location":"DERINCE-HIZAN (BITLIS)"},{"date":"2020.09.05","time":"08:38:34","latitude":"39.0158","longitude":"27.8652","depth":"6.6","md":"-.-","ml":"2.0","mw":"-.-","location":"GOKCEAHMET-AKHISAR (MANISA)"},{"date":"2020.09.05","time":"07:27:08","latitude":"37.9542","longitude":"28.7820","depth":"3.1","md":"-.-","ml":"1.5","mw":"-.-","location":"SAVCILI-BUHARKENT (AYDIN)"},{"date":"2020.09.05","time":"06:38:59","latitude":"40.2077","longitude":"31.7408","depth":"10.4","md":"-.-","ml":"2.0","mw":"-.-","location":"HIRKATEPE-BEYPAZARI (ANKARA)"},{"date":"2020.09.05","time":"05:50:12","latitude":"37.2323","longitude":"27.8375","depth":"9.6","md":"-.-","ml":"1.7","mw":"-.-","location":"ASLANYAKA-MILAS (MUGLA)"},{"date":"2020.09.05","time":"04:01:19","latitude":"40.5605","longitude":"23.8358","depth":"5.5","md":"-.-","ml":"2.2","mw":"-.-","location":"YUNANISTAN"},{"date":"2020.09.05","time":"03:55:56","latitude":"38.2650","longitude":"38.6892","depth":"12.1","md":"-.-","ml":"1.7","mw":"-.-","location":"CAYKOY-PUTURGE (MALATYA)"},{"date":"2020.09.05","time":"03:46:03","latitude":"36.9198","longitude":"27.7880","depth":"16.0","md":"-.-","ml":"1.4","mw":"-.-","location":"GOKOVA KORFEZI (AKDENIZ)"},{"date":"2020.09.05","time":"02:52:54","latitude":"37.8202","longitude":"32.1115","depth":"5.2","md":"-.-","ml":"1.1","mw":"-.-","location":"SEFAKOY-MERAM (KONYA)"},{"date":"2020.09.05","time":"02:41:33","latitude":"38.0720","longitude":"39.9013","depth":"17.4","md":"-.-","ml":"1.7","mw":"-.-","location":"BAYKARA-KAYAPINAR (DIYARBAKIR)"},{"date":"2020.09.05","time":"02:17:56","latitude":"35.6090","longitude":"27.6235","depth":"5.0","md":"-.-","ml":"2.6","mw":"-.-","location":"AKDENIZ"},{"date":"2020.09.05","time":"01:57:36","latitude":"40.3478","longitude":"27.4055","depth":"6.2","md":"-.-","ml":"1.8","mw":"-.-","location":"BOZLAR-BIGA (CANAKKALE)"},{"date":"2020.09.05","time":"01:27:02","latitude":"34.8775","longitude":"25.2893","depth":"7.0","md":"-.-","ml":"2.9","mw":"-.-","location":"GIRIT ADASI (AKDENIZ)"},{"date":"2020.09.04","time":"23:18:02","latitude":"38.9173","longitude":"38.9872","depth":"5.0","md":"-.-","ml":"2.6","mw":"-.-","location":"YEMISDERE-CEMISGEZEK (TUNCELI)"},{"date":"2020.09.04","time":"21:59:04","latitude":"39.3683","longitude":"40.7525","depth":"14.2","md":"-.-","ml":"1.5","mw":"-.-","location":"KAYNARPINAR-KARLIOVA (BINGOL)"},{"date":"2020.09.04","time":"19:54:36","latitude":"38.4622","longitude":"39.2713","depth":"8.9","md":"-.-","ml":"1.2","mw":"-.-","location":"ALINCIK-SIVRICE (ELAZIG)"},{"date":"2020.09.04","time":"19:02:54","latitude":"38.4433","longitude":"39.2617","depth":"5.4","md":"-.-","ml":"3.5","mw":"3.5","location":"DUZBAHCE-SIVRICE (ELAZIG)"},{"date":"2020.09.04","time":"16:27:08","latitude":"39.0152","longitude":"30.1993","depth":"6.3","md":"-.-","ml":"2.6","mw":"-.-","location":"YOLCATI-ALTINTAS (KUTAHYA)"},{"date":"2020.09.04","time":"15:38:13","latitude":"36.8857","longitude":"27.5848","depth":"11.0","md":"-.-","ml":"1.9","mw":"-.-","location":"GOKOVA KORFEZI (AKDENIZ)"},{"date":"2020.09.04","time":"13:54:57","latitude":"35.7787","longitude":"28.2515","depth":"6.2","md":"-.-","ml":"2.0","mw":"-.-","location":"AKDENIZ"},{"date":"2020.09.04","time":"13:09:33","latitude":"38.5268","longitude":"26.5943","depth":"6.6","md":"-.-","ml":"1.3","mw":"-.-","location":"MORDOGAN-KARABURUN (IZMIR)"},{"date":"2020.09.04","time":"12:57:17","latitude":"39.8580","longitude":"28.8107","depth":"0.0","md":"-.-","ml":"1.5","mw":"-.-","location":"ALTINTAS-ORHANELI (BURSA)"},{"date":"2020.09.04","time":"12:55:08","latitude":"37.2258","longitude":"28.2202","depth":"0.0","md":"-.-","ml":"1.8","mw":"-.-","location":"KAFACA-(MUGLA)"},{"date":"2020.09.04","time":"12:38:48","latitude":"35.7568","longitude":"28.2260","depth":"4.8","md":"-.-","ml":"2.1","mw":"-.-","location":"AKDENIZ"},{"date":"2020.09.04","time":"11:57:39","latitude":"37.1893","longitude":"27.9082","depth":"0.0","md":"-.-","ml":"1.7","mw":"-.-","location":"KAYADERE-MILAS (MUGLA)"},{"date":"2020.09.04","time":"11:56:34","latitude":"35.2507","longitude":"33.6100","depth":"5.0","md":"-.-","ml":"1.4","mw":"-.-","location":"KIBRIS-DEGIRMENLIK"},{"date":"2020.09.04","time":"11:53:13","latitude":"37.1840","longitude":"27.8108","depth":"0.0","md":"-.-","ml":"1.6","mw":"-.-","location":"CAMKOY-MILAS (MUGLA)"},{"date":"2020.09.04","time":"11:37:06","latitude":"35.2023","longitude":"33.6005","depth":"5.1","md":"-.-","ml":"1.3","mw":"-.-","location":"KIBRIS-DEGIRMENLIK"},{"date":"2020.09.04","time":"10:55:06","latitude":"39.4558","longitude":"27.6860","depth":"40.4","md":"-.-","ml":"1.5","mw":"-.-","location":"CAMURLU-SAVASTEPE (BALIKESIR)"},{"date":"2020.09.04","time":"10:29:34","latitude":"39.2525","longitude":"27.5353","depth":"9.0","md":"-.-","ml":"2.0","mw":"-.-","location":"URUZLAR-SOMA (MANISA)"},{"date":"2020.09.04","time":"10:00:24","latitude":"37.2212","longitude":"28.1788","depth":"0.0","md":"-.-","ml":"2.2","mw":"-.-","location":"CAYBUKU-(MUGLA)"},{"date":"2020.09.04","time":"08:48:58","latitude":"35.3153","longitude":"26.7605","depth":"4.6","md":"-.-","ml":"2.3","mw":"-.-","location":"GIRIT ADASI (AKDENIZ)"},{"date":"2020.09.04","time":"06:59:08","latitude":"39.4862","longitude":"26.2402","depth":"6.1","md":"-.-","ml":"1.8","mw":"-.-","location":"BEKTAS-AYVACIK (CANAKKALE)"},{"date":"2020.09.04","time":"06:34:11","latitude":"40.3990","longitude":"28.8018","depth":"6.1","md":"-.-","ml":"1.4","mw":"-.-","location":"ZEYTINBAGI-MUDANYA (BURSA)"},{"date":"2020.09.04","time":"06:27:48","latitude":"36.9372","longitude":"27.3533","depth":"17.1","md":"-.-","ml":"1.1","mw":"-.-","location":"GOKOVA KORFEZI (AKDENIZ)"},{"date":"2020.09.04","time":"05:43:32","latitude":"37.0365","longitude":"30.3390","depth":"5.0","md":"-.-","ml":"1.8","mw":"-.-","location":"ESENYURT-KORKUTELI (ANTALYA)"},{"date":"2020.09.04","time":"05:39:29","latitude":"38.4713","longitude":"25.8227","depth":"5.0","md":"-.-","ml":"1.9","mw":"-.-","location":"SAKIZ ADASI (EGE DENIZI)"},{"date":"2020.09.04","time":"05:26:55","latitude":"35.2017","longitude":"25.9203","depth":"1.2","md":"-.-","ml":"2.3","mw":"-.-","location":"GIRIT ADASI (AKDENIZ)"},{"date":"2020.09.04","time":"05:15:49","latitude":"36.9227","longitude":"27.3440","depth":"8.7","md":"-.-","ml":"2.4","mw":"-.-","location":"GOKOVA KORFEZI (AKDENIZ)"},{"date":"2020.09.04","time":"05:15:30","latitude":"35.3840","longitude":"27.7128","depth":"19.2","md":"-.-","ml":"2.8","mw":"-.-","location":"AKDENIZ"},{"date":"2020.09.04","time":"05:01:08","latitude":"38.4442","longitude":"39.2580","depth":"14.1","md":"-.-","ml":"1.4","mw":"-.-","location":"DUZBAHCE-SIVRICE (ELAZIG)"},{"date":"2020.09.04","time":"04:54:44","latitude":"36.6510","longitude":"26.2257","depth":"9.1","md":"-.-","ml":"1.6","mw":"-.-","location":"AKDENIZ"},{"date":"2020.09.04","time":"04:38:07","latitude":"38.4608","longitude":"39.1532","depth":"12.6","md":"-.-","ml":"1.4","mw":"-.-","location":"KAVALLI-SIVRICE (ELAZIG)"},{"date":"2020.09.04","time":"02:47:08","latitude":"40.7088","longitude":"31.6633","depth":"5.0","md":"-.-","ml":"1.8","mw":"-.-","location":"ORENCIK-(BOLU)"},{"date":"2020.09.04","time":"01:41:14","latitude":"35.5497","longitude":"27.6053","depth":"6.3","md":"-.-","ml":"4.0","mw":"4.1","location":"AKDENIZ"},{"date":"2020.09.04","time":"00:54:09","latitude":"36.9388","longitude":"27.3442","depth":"3.5","md":"-.-","ml":"2.2","mw":"-.-","location":"GOKOVA KORFEZI (AKDENIZ)"},{"date":"2020.09.04","time":"00:42:52","latitude":"39.4392","longitude":"41.0953","depth":"23.5","md":"-.-","ml":"1.1","mw":"-.-","location":"BAYINDIR-CAT (ERZURUM)"},{"date":"2020.09.04","time":"00:38:58","latitude":"38.7030","longitude":"42.0450","depth":"6.2","md":"-.-","ml":"1.8","mw":"-.-","location":"YOLGOZLER-KORKUT (MUS)"},{"date":"2020.09.04","time":"00:26:04","latitude":"39.6578","longitude":"38.8383","depth":"5.0","md":"-.-","ml":"1.8","mw":"-.-","location":"GEDIKTEPE-KEMAH (ERZINCAN)"},{"date":"2020.09.04","time":"00:25:09","latitude":"39.6040","longitude":"44.0793","depth":"9.0","md":"-.-","ml":"2.1","mw":"-.-","location":"KARACA-DOGUBAYAZIT (AGRI)"},{"date":"2020.09.03","time":"23:56:53","latitude":"38.0672","longitude":"38.6010","depth":"5.2","md":"-.-","ml":"2.9","mw":"-.-","location":"SAKIZ-SINCIK (ADIYAMAN)"},{"date":"2020.09.03","time":"23:49:40","latitude":"35.7452","longitude":"28.1385","depth":"5.0","md":"-.-","ml":"1.6","mw":"-.-","location":"AKDENIZ"},{"date":"2020.09.03","time":"23:14:43","latitude":"34.3377","longitude":"26.1633","depth":"22.3","md":"-.-","ml":"2.7","mw":"-.-","location":"GIRIT ADASI ACIKLARI (AKDENIZ)"},{"date":"2020.09.03","time":"22:14:19","latitude":"37.3565","longitude":"29.6338","depth":"10.8","md":"-.-","ml":"1.8","mw":"-.-","location":"BELKAYA-TEFENNI (BURDUR)"},{"date":"2020.09.03","time":"21:41:08","latitude":"36.3148","longitude":"30.8528","depth":"6.5","md":"-.-","ml":"1.7","mw":"-.-","location":"ANTALYA KORFEZI (AKDENIZ)"},{"date":"2020.09.03","time":"21:25:44","latitude":"40.3287","longitude":"27.4487","depth":"3.7","md":"-.-","ml":"1.7","mw":"-.-","location":"GERLENGEC-BIGA (CANAKKALE)"},{"date":"2020.09.03","time":"21:18:19","latitude":"37.5240","longitude":"43.7810","depth":"8.5","md":"-.-","ml":"2.4","mw":"-.-","location":"AGACDIBI-(HAKKARI)"},{"date":"2020.09.03","time":"20:37:10","latitude":"35.5237","longitude":"27.8507","depth":"9.0","md":"-.-","ml":"2.6","mw":"-.-","location":"AKDENIZ"},{"date":"2020.09.03","time":"20:27:53","latitude":"36.7060","longitude":"27.3102","depth":"12.0","md":"-.-","ml":"2.8","mw":"-.-","location":"DATCA ACIKLARI-MUGLA (AKDENIZ)"},{"date":"2020.09.03","time":"18:55:29","latitude":"39.9287","longitude":"42.3950","depth":"15.3","md":"-.-","ml":"2.2","mw":"-.-","location":"HACIHALIL-HORASAN (ERZURUM)"},{"date":"2020.09.03","time":"18:54:35","latitude":"35.7333","longitude":"27.0570","depth":"2.0","md":"-.-","ml":"1.9","mw":"-.-","location":"AKDENIZ"},{"date":"2020.09.03","time":"18:46:14","latitude":"35.3015","longitude":"27.7605","depth":"9.7","md":"-.-","ml":"2.2","mw":"-.-","location":"AKDENIZ"},{"date":"2020.09.03","time":"18:07:34","latitude":"38.1448","longitude":"23.8682","depth":"5.0","md":"-.-","ml":"4.1","mw":"4.3","location":"YUNANISTAN"},{"date":"2020.09.03","time":"17:41:46","latitude":"38.3043","longitude":"39.0323","depth":"10.4","md":"-.-","ml":"1.1","mw":"-.-","location":"DOGANYOL (MALATYA)"},{"date":"2020.09.03","time":"17:19:06","latitude":"38.2550","longitude":"38.8650","depth":"16.1","md":"-.-","ml":"2.0","mw":"-.-","location":"CENGELLI-PUTURGE (MALATYA)"},{"date":"2020.09.03","time":"15:39:44","latitude":"36.6005","longitude":"28.4598","depth":"54.5","md":"-.-","ml":"2.8","mw":"-.-","location":"AKDENIZ"},{"date":"2020.09.03","time":"12:39:04","latitude":"39.8367","longitude":"33.2557","depth":"3.8","md":"-.-","ml":"2.5","mw":"-.-","location":"KARACAHASAN-ELMADAG (ANKARA)"},{"date":"2020.09.03","time":"12:33:25","latitude":"37.2318","longitude":"35.4203","depth":"5.0","md":"-.-","ml":"3.0","mw":"3.2","location":"MALTEPE-SARICAM (ADANA)"},{"date":"2020.09.03","time":"09:02:36","latitude":"38.1857","longitude":"31.1963","depth":"30.7","md":"-.-","ml":"1.7","mw":"-.-","location":"CETINCE-YALVAC (ISPARTA)"},{"date":"2020.09.03","time":"08:40:12","latitude":"35.1233","longitude":"27.7472","depth":"5.5","md":"-.-","ml":"2.3","mw":"-.-","location":"AKDENIZ"},{"date":"2020.09.03","time":"08:04:04","latitude":"35.3535","longitude":"27.7573","depth":"13.1","md":"-.-","ml":"3.0","mw":"-.-","location":"AKDENIZ"},{"date":"2020.09.03","time":"07:36:04","latitude":"39.4182","longitude":"26.2532","depth":"9.1","md":"-.-","ml":"2.2","mw":"-.-","location":"MIDILLI ADASI (EGE DENIZI)"},{"date":"2020.09.03","time":"07:18:59","latitude":"35.3525","longitude":"27.7640","depth":"13.2","md":"-.-","ml":"3.7","mw":"3.7","location":"AKDENIZ"},{"date":"2020.09.03","time":"06:45:40","latitude":"35.2963","longitude":"27.7872","depth":"10.0","md":"-.-","ml":"2.9","mw":"-.-","location":"AKDENIZ"},{"date":"2020.09.03","time":"06:24:00","latitude":"36.8593","longitude":"27.5763","depth":"2.2","md":"-.-","ml":"1.3","mw":"-.-","location":"GOKOVA KORFEZI (AKDENIZ)"},{"date":"2020.09.03","time":"06:23:46","latitude":"39.5745","longitude":"26.0468","depth":"6.5","md":"-.-","ml":"1.8","mw":"-.-","location":"GULPINAR-AYVACIK (CANAKKALE)"},{"date":"2020.09.03","time":"04:45:34","latitude":"35.6687","longitude":"26.6387","depth":"5.0","md":"-.-","ml":"1.5","mw":"-.-","location":"AKDENIZ"},{"date":"2020.09.03","time":"04:25:34","latitude":"38.7328","longitude":"41.9718","depth":"1.5","md":"-.-","ml":"2.1","mw":"-.-","location":"SARMASIK-KORKUT (MUS)"},{"date":"2020.09.03","time":"04:15:10","latitude":"39.4748","longitude":"26.2112","depth":"5.3","md":"-.-","ml":"2.2","mw":"-.-","location":"KOYUNEVI-AYVACIK (CANAKKALE)"},{"date":"2020.09.03","time":"03:05:37","latitude":"39.4568","longitude":"26.2778","depth":"5.4","md":"-.-","ml":"2.2","mw":"-.-","location":"EDREMIT KORFEZI (EGE DENIZI)"},{"date":"2020.09.03","time":"02:55:13","latitude":"38.3042","longitude":"39.0527","depth":"12.8","md":"-.-","ml":"1.7","mw":"-.-","location":"DOGANYOL (MALATYA)"},{"date":"2020.09.03","time":"02:38:10","latitude":"35.8207","longitude":"27.3850","depth":"7.5","md":"-.-","ml":"1.6","mw":"-.-","location":"AKDENIZ"},{"date":"2020.09.03","time":"01:57:14","latitude":"39.0155","longitude":"27.8822","depth":"16.7","md":"-.-","ml":"1.4","mw":"-.-","location":"DINGILLER-AKHISAR (MANISA)"},{"date":"2020.09.03","time":"01:48:12","latitude":"39.4663","longitude":"26.2408","depth":"5.4","md":"-.-","ml":"2.4","mw":"-.-","location":"BEKTAS-AYVACIK (CANAKKALE)"},{"date":"2020.09.03","time":"01:45:51","latitude":"38.5943","longitude":"41.8970","depth":"25.8","md":"-.-","ml":"1.4","mw":"-.-","location":"ORTANCA-HASKOY (MUS)"},{"date":"2020.09.03","time":"01:21:07","latitude":"38.2177","longitude":"27.0725","depth":"1.5","md":"-.-","ml":"1.2","mw":"-.-","location":"YENIKOY-MENDERES (IZMIR)"},{"date":"2020.09.03","time":"01:08:32","latitude":"38.7372","longitude":"41.9705","depth":"5.0","md":"-.-","ml":"3.8","mw":"3.8","location":"SARMASIK-KORKUT (MUS)"},{"date":"2020.09.03","time":"00:01:28","latitude":"36.7348","longitude":"26.9815","depth":"5.2","md":"-.-","ml":"1.6","mw":"-.-","location":"KOS ADASI (AKDENIZ)"},{"date":"2020.09.02","time":"23:25:51","latitude":"38.9602","longitude":"29.9562","depth":"7.6","md":"-.-","ml":"2.3","mw":"-.-","location":"YESILYURT-ALTINTAS (KUTAHYA)"},{"date":"2020.09.02","time":"22:55:17","latitude":"39.9740","longitude":"27.7940","depth":"16.0","md":"-.-","ml":"1.5","mw":"-.-","location":"KARAKABAAGAC-MANYAS (BALIKESIR)"},{"date":"2020.09.02","time":"21:59:06","latitude":"39.2242","longitude":"25.9915","depth":"11.3","md":"-.-","ml":"2.1","mw":"-.-","location":"MIDILLI ADASI (EGE DENIZI)"},{"date":"2020.09.02","time":"21:01:39","latitude":"39.2928","longitude":"29.4632","depth":"11.8","md":"-.-","ml":"1.8","mw":"-.-","location":"CERTE-EMET (KUTAHYA)"},{"date":"2020.09.02","time":"20:50:49","latitude":"37.9957","longitude":"28.8403","depth":"18.5","md":"-.-","ml":"1.6","mw":"-.-","location":"BOSTANYERI-BULDAN (DENIZLI)"},{"date":"2020.09.02","time":"20:42:08","latitude":"38.6768","longitude":"43.5095","depth":"5.0","md":"-.-","ml":"2.5","mw":"-.-","location":"KOZLUCA-(VAN)"},{"date":"2020.09.02","time":"19:49:43","latitude":"37.1983","longitude":"35.4218","depth":"9.1","md":"-.-","ml":"1.7","mw":"-.-","location":"EGECIUSAGI-SARICAM (ADANA)"},{"date":"2020.09.02","time":"19:24:44","latitude":"37.5813","longitude":"35.7127","depth":"5.4","md":"-.-","ml":"2.3","mw":"-.-","location":"KUYTUCAK-KOZAN (ADANA)"},{"date":"2020.09.02","time":"18:50:43","latitude":"39.3840","longitude":"40.6552","depth":"7.0","md":"-.-","ml":"2.1","mw":"-.-","location":"ELMALI-YEDISU (BINGOL)"},{"date":"2020.09.02","time":"17:09:47","latitude":"38.1245","longitude":"32.5592","depth":"0.0","md":"-.-","ml":"1.1","mw":"-.-","location":"CALTI-SELCUKLU (KONYA)"},{"date":"2020.09.02","time":"16:55:47","latitude":"37.2418","longitude":"35.4367","depth":"9.6","md":"-.-","ml":"2.9","mw":"-.-","location":"MALIHIDIRLI-IMAMOGLU (ADANA)"},{"date":"2020.09.02","time":"16:48:45","latitude":"38.4858","longitude":"39.2885","depth":"5.4","md":"-.-","ml":"2.6","mw":"-.-","location":"BEKCITEPE-SIVRICE (ELAZIG)"},{"date":"2020.09.02","time":"16:35:10","latitude":"38.4135","longitude":"42.2948","depth":"6.6","md":"-.-","ml":"2.5","mw":"-.-","location":"KIRKBULAK-TATVAN (BITLIS)"},{"date":"2020.09.02","time":"16:20:26","latitude":"39.9597","longitude":"29.5625","depth":"5.0","md":"-.-","ml":"1.8","mw":"-.-","location":"HAYRIYE-INEGOL (BURSA)"},{"date":"2020.09.02","time":"15:26:34","latitude":"39.1592","longitude":"27.5267","depth":"0.0","md":"-.-","ml":"1.6","mw":"-.-","location":"AVDAN-SOMA (MANISA)"},{"date":"2020.09.02","time":"13:50:44","latitude":"39.2703","longitude":"27.4518","depth":"19.8","md":"-.-","ml":"1.9","mw":"-.-","location":"MURATLAR-BERGAMA (IZMIR)"},{"date":"2020.09.02","time":"13:40:24","latitude":"39.1290","longitude":"27.5108","depth":"0.0","md":"-.-","ml":"1.1","mw":"-.-","location":"HACIYUSUF-SOMA (MANISA)"},{"date":"2020.09.02","time":"12:31:17","latitude":"39.6427","longitude":"29.3253","depth":"12.2","md":"-.-","ml":"1.6","mw":"-.-","location":"DERBENT-TAVSANLI (KUTAHYA)"},{"date":"2020.09.02","time":"12:22:37","latitude":"39.4702","longitude":"26.2038","depth":"4.1","md":"-.-","ml":"1.5","mw":"-.-","location":"KOYUNEVI-AYVACIK (CANAKKALE)"},{"date":"2020.09.02","time":"12:09:10","latitude":"37.2477","longitude":"28.2028","depth":"0.0","md":"-.-","ml":"1.8","mw":"-.-","location":"PASAPINARI-(MUGLA)"},{"date":"2020.09.02","time":"12:01:39","latitude":"37.1688","longitude":"27.8528","depth":"0.0","md":"-.-","ml":"1.4","mw":"-.-","location":"IKIZKOY-MILAS (MUGLA)"},{"date":"2020.09.02","time":"11:48:29","latitude":"37.1775","longitude":"27.8440","depth":"0.0","md":"-.-","ml":"1.3","mw":"-.-","location":"IKIZKOY-MILAS (MUGLA)"},{"date":"2020.09.02","time":"11:47:04","latitude":"37.2657","longitude":"28.2355","depth":"0.0","md":"-.-","ml":"1.8","mw":"-.-","location":"SALIHPASALAR-(MUGLA)"},{"date":"2020.09.02","time":"11:23:54","latitude":"39.4832","longitude":"26.2807","depth":"3.9","md":"-.-","ml":"2.2","mw":"-.-","location":"KURUOBA-AYVACIK (CANAKKALE)"},{"date":"2020.09.02","time":"10:55:22","latitude":"38.4738","longitude":"39.2607","depth":"5.6","md":"-.-","ml":"2.7","mw":"-.-","location":"ALINCIK-SIVRICE (ELAZIG)"},{"date":"2020.09.02","time":"10:42:53","latitude":"39.5443","longitude":"28.2143","depth":"15.7","md":"-.-","ml":"1.5","mw":"-.-","location":"AKCAKERTIL-KEPSUT (BALIKESIR)"},{"date":"2020.09.02","time":"10:25:19","latitude":"39.5735","longitude":"26.1238","depth":"1.9","md":"-.-","ml":"2.0","mw":"-.-","location":"TUZLA-AYVACIK (CANAKKALE)"},{"date":"2020.09.02","time":"10:01:36","latitude":"39.3948","longitude":"26.6153","depth":"7.9","md":"-.-","ml":"1.9","mw":"-.-","location":"EDREMIT KORFEZI (EGE DENIZI)"},{"date":"2020.09.02","time":"09:45:17","latitude":"39.3230","longitude":"26.2235","depth":"5.2","md":"-.-","ml":"1.7","mw":"-.-","location":"MIDILLI ADASI (EGE DENIZI)"},{"date":"2020.09.02","time":"09:44:14","latitude":"39.7933","longitude":"26.1888","depth":"0.0","md":"-.-","ml":"1.5","mw":"-.-","location":"GEYIKLI-EZINE (CANAKKALE)"},{"date":"2020.09.02","time":"09:29:19","latitude":"39.4353","longitude":"26.3592","depth":"5.0","md":"-.-","ml":"1.9","mw":"-.-","location":"EDREMIT KORFEZI (EGE DENIZI)"},{"date":"2020.09.02","time":"09:18:53","latitude":"39.4572","longitude":"26.2697","depth":"6.8","md":"-.-","ml":"2.0","mw":"-.-","location":"EDREMIT KORFEZI (EGE DENIZI)"},{"date":"2020.09.02","time":"08:33:26","latitude":"39.4470","longitude":"26.2157","depth":"19.1","md":"-.-","ml":"1.7","mw":"-.-","location":"KOYUNEVI-AYVACIK (CANAKKALE)"},{"date":"2020.09.02","time":"07:26:05","latitude":"39.4495","longitude":"26.2157","depth":"12.5","md":"-.-","ml":"1.8","mw":"-.-","location":"KOYUNEVI-AYVACIK (CANAKKALE)"},{"date":"2020.09.02","time":"07:04:32","latitude":"39.4912","longitude":"26.2245","depth":"3.4","md":"-.-","ml":"1.6","mw":"-.-","location":"BEKTAS-AYVACIK (CANAKKALE)"},{"date":"2020.09.02","time":"06:02:32","latitude":"39.4763","longitude":"26.2427","depth":"6.6","md":"-.-","ml":"1.7","mw":"-.-","location":"BEKTAS-AYVACIK (CANAKKALE)"},{"date":"2020.09.02","time":"05:36:54","latitude":"36.3643","longitude":"28.7577","depth":"9.9","md":"-.-","ml":"1.5","mw":"-.-","location":"AKDENIZ"},{"date":"2020.09.02","time":"04:03:47","latitude":"39.4773","longitude":"26.2075","depth":"10.6","md":"-.-","ml":"1.5","mw":"-.-","location":"KOYUNEVI-AYVACIK (CANAKKALE)"},{"date":"2020.09.02","time":"03:37:24","latitude":"39.4718","longitude":"26.2120","depth":"14.5","md":"-.-","ml":"1.4","mw":"-.-","location":"KOYUNEVI-AYVACIK (CANAKKALE)"},{"date":"2020.09.02","time":"03:18:44","latitude":"39.4632","longitude":"26.2265","depth":"5.2","md":"-.-","ml":"2.1","mw":"-.-","location":"BEKTAS-AYVACIK (CANAKKALE)"},{"date":"2020.09.02","time":"03:15:09","latitude":"39.1220","longitude":"29.0182","depth":"9.1","md":"-.-","ml":"1.4","mw":"-.-","location":"KAPIKAYA-SIMAV (KUTAHYA)"},{"date":"2020.09.02","time":"03:08:14","latitude":"39.4593","longitude":"26.2518","depth":"12.0","md":"-.-","ml":"1.6","mw":"-.-","location":"BEKTAS-AYVACIK (CANAKKALE)"},{"date":"2020.09.02","time":"02:11:32","latitude":"37.3770","longitude":"37.4492","depth":"1.2","md":"-.-","ml":"1.0","mw":"-.-","location":"YENIYURT-YAVUZELI (GAZIANTEP)"},{"date":"2020.09.02","time":"02:05:34","latitude":"39.4735","longitude":"26.2378","depth":"9.5","md":"-.-","ml":"1.4","mw":"-.-","location":"BEKTAS-AYVACIK (CANAKKALE)"},{"date":"2020.09.02","time":"02:01:30","latitude":"38.4030","longitude":"30.2573","depth":"16.1","md":"-.-","ml":"2.0","mw":"-.-","location":"GOKCEALAN-SANDIKLI (AFYONKARAHISAR)"},{"date":"2020.09.02","time":"01:54:31","latitude":"36.5552","longitude":"28.7348","depth":"20.4","md":"-.-","ml":"1.3","mw":"-.-","location":"AKDENIZ"},{"date":"2020.09.02","time":"01:53:51","latitude":"38.4270","longitude":"30.2167","depth":"4.8","md":"-.-","ml":"1.9","mw":"-.-","location":"KOCHISAR-SANDIKLI (AFYONKARAHISAR)"},{"date":"2020.09.02","time":"01:49:28","latitude":"35.3478","longitude":"27.7693","depth":"9.2","md":"-.-","ml":"2.0","mw":"-.-","location":"AKDENIZ"},{"date":"2020.09.02","time":"01:47:01","latitude":"35.3290","longitude":"27.7698","depth":"9.7","md":"-.-","ml":"3.6","mw":"3.6","location":"AKDENIZ"},{"date":"2020.09.02","time":"01:17:19","latitude":"40.6767","longitude":"27.4727","depth":"11.2","md":"-.-","ml":"2.1","mw":"-.-","location":"GUZELKOY ACIKLARI-TEKIRDAG (MARMARA DENIZI)"},{"date":"2020.09.01","time":"23:48:57","latitude":"39.4795","longitude":"26.2438","depth":"6.1","md":"-.-","ml":"2.7","mw":"-.-","location":"BEKTAS-AYVACIK (CANAKKALE)"},{"date":"2020.09.01","time":"23:37:00","latitude":"38.4793","longitude":"26.8265","depth":"4.9","md":"-.-","ml":"2.1","mw":"-.-","location":"IZMIR KORFEZI (EGE DENIZI)"},{"date":"2020.09.01","time":"23:35:03","latitude":"38.1840","longitude":"38.7133","depth":"12.4","md":"-.-","ml":"2.1","mw":"-.-","location":"KORME-PUTURGE (MALATYA)"},{"date":"2020.09.01","time":"21:21:04","latitude":"38.4408","longitude":"39.2447","depth":"9.3","md":"-.-","ml":"2.3","mw":"-.-","location":"KURKKOY-SIVRICE (ELAZIG)"},{"date":"2020.09.01","time":"21:20:38","latitude":"39.4770","longitude":"26.2552","depth":"5.5","md":"-.-","ml":"2.7","mw":"-.-","location":"KURUOBA-AYVACIK (CANAKKALE)"},{"date":"2020.09.01","time":"20:35:03","latitude":"38.4933","longitude":"26.8042","depth":"2.5","md":"-.-","ml":"2.6","mw":"-.-","location":"IZMIR KORFEZI (EGE DENIZI)"},{"date":"2020.09.01","time":"15:43:49","latitude":"38.3615","longitude":"39.2345","depth":"10.2","md":"-.-","ml":"1.5","mw":"-.-","location":"YUKARICANAKCI-SIVRICE (ELAZIG)"},{"date":"2020.09.01","time":"15:01:37","latitude":"37.6518","longitude":"35.5560","depth":"10.8","md":"-.-","ml":"2.5","mw":"-.-","location":"KOPRUCUK-ALADAG (ADANA)"},{"date":"2020.09.01","time":"14:02:35","latitude":"40.2757","longitude":"30.7892","depth":"6.1","md":"-.-","ml":"1.8","mw":"-.-","location":"BOLUCEKOVA-GOYNUK (BOLU)"},{"date":"2020.09.01","time":"13:31:12","latitude":"38.1527","longitude":"38.5985","depth":"10.0","md":"-.-","ml":"2.7","mw":"-.-","location":"TEKEDERESI-PUTURGE (MALATYA)"},{"date":"2020.09.01","time":"13:12:31","latitude":"38.8432","longitude":"43.4920","depth":"1.9","md":"-.-","ml":"2.3","mw":"-.-","location":"KARAAGAC-(VAN)"},{"date":"2020.09.01","time":"13:09:35","latitude":"39.6430","longitude":"30.6900","depth":"0.0","md":"-.-","ml":"1.7","mw":"-.-","location":"KIRAVDAN-ODUNPAZARI (ESKISEHIR)"},{"date":"2020.09.01","time":"12:56:15","latitude":"38.8648","longitude":"43.5103","depth":"23.3","md":"-.-","ml":"2.0","mw":"-.-","location":"ERMISLER-(VAN)"},{"date":"2020.09.01","time":"12:55:56","latitude":"37.2680","longitude":"27.8852","depth":"0.0","md":"-.-","ml":"1.3","mw":"-.-","location":"CAMLIBELEN-MILAS (MUGLA)"},{"date":"2020.09.01","time":"12:08:46","latitude":"37.3030","longitude":"27.8547","depth":"18.3","md":"-.-","ml":"1.8","mw":"-.-","location":"TUZABAT-MILAS (MUGLA)"},{"date":"2020.09.01","time":"12:06:29","latitude":"39.5232","longitude":"26.1358","depth":"7.4","md":"-.-","ml":"1.9","mw":"-.-","location":"GULPINAR-AYVACIK (CANAKKALE)"},{"date":"2020.09.01","time":"11:55:43","latitude":"39.5013","longitude":"26.2370","depth":"5.2","md":"-.-","ml":"2.4","mw":"-.-","location":"BEKTAS-AYVACIK (CANAKKALE)"},{"date":"2020.09.01","time":"11:43:33","latitude":"37.5912","longitude":"29.2013","depth":"0.0","md":"-.-","ml":"1.4","mw":"-.-","location":"SARIABAT-TAVAS (DENIZLI)"},{"date":"2020.09.01","time":"11:42:15","latitude":"39.4895","longitude":"26.2787","depth":"1.1","md":"-.-","ml":"2.7","mw":"-.-","location":"KURUOBA-AYVACIK (CANAKKALE)"},{"date":"2020.09.01","time":"11:29:17","latitude":"39.4957","longitude":"26.2565","depth":"4.4","md":"-.-","ml":"2.7","mw":"-.-","location":"KURUOBA-AYVACIK (CANAKKALE)"},{"date":"2020.09.01","time":"11:16:54","latitude":"39.5612","longitude":"26.3177","depth":"8.7","md":"-.-","ml":"2.7","mw":"-.-","location":"ERECEK-AYVACIK (CANAKKALE)"},{"date":"2020.09.01","time":"09:27:41","latitude":"38.3868","longitude":"39.0028","depth":"6.1","md":"-.-","ml":"3.3","mw":"3.2","location":"TASLIYAYLA-SIVRICE (ELAZIG)"},{"date":"2020.09.01","time":"08:06:41","latitude":"34.1798","longitude":"25.7668","depth":"86.7","md":"-.-","ml":"3.5","mw":"-.-","location":"GIRIT ADASI ACIKLARI (AKDENIZ)"},{"date":"2020.09.01","time":"06:44:11","latitude":"40.8472","longitude":"27.7180","depth":"19.1","md":"-.-","ml":"2.0","mw":"-.-","location":"MARMARA DENIZI"},{"date":"2020.09.01","time":"06:02:25","latitude":"39.3425","longitude":"40.3113","depth":"9.1","md":"-.-","ml":"2.2","mw":"-.-","location":"KIGI (BINGOL)"},{"date":"2020.09.01","time":"05:06:45","latitude":"37.1343","longitude":"30.3843","depth":"2.2","md":"-.-","ml":"2.0","mw":"-.-","location":"KOSELER-KORKUTELI (ANTALYA)"},{"date":"2020.09.01","time":"04:29:54","latitude":"38.8442","longitude":"25.0492","depth":"13.6","md":"-.-","ml":"2.5","mw":"-.-","location":"EGE DENIZI"},{"date":"2020.09.01","time":"04:11:51","latitude":"36.4558","longitude":"29.4382","depth":"28.2","md":"-.-","ml":"1.7","mw":"-.-","location":"ARSAKOY-FETHIYE (MUGLA)"},{"date":"2020.09.01","time":"03:59:06","latitude":"44.0357","longitude":"39.1318","depth":"20.5","md":"-.-","ml":"4.0","mw":"-.-","location":"RUSYA"},{"date":"2020.09.01","time":"02:54:57","latitude":"37.4378","longitude":"29.4523","depth":"6.7","md":"-.-","ml":"2.1","mw":"-.-","location":"YENIKOY-ACIPAYAM (DENIZLI)"},{"date":"2020.09.01","time":"02:33:01","latitude":"38.4023","longitude":"39.3198","depth":"19.0","md":"-.-","ml":"1.1","mw":"-.-","location":"ALAATTINKOY-SIVRICE (ELAZIG)"},{"date":"2020.09.01","time":"00:34:40","latitude":"39.0260","longitude":"27.8612","depth":"7.3","md":"-.-","ml":"3.0","mw":"3.0","location":"MUSALAR-AKHISAR (MANISA)"},{"date":"2020.09.01","time":"00:03:47","latitude":"37.3925","longitude":"29.4608","depth":"4.4","md":"-.-","ml":"2.6","mw":"-.-","location":"YUMRUTAS-ACIPAYAM (DENIZLI)"},{"date":"2020.08.31","time":"23:14:16","latitude":"34.9233","longitude":"25.6813","depth":"109.2","md":"-.-","ml":"2.5","mw":"-.-","location":"GIRIT ADASI (AKDENIZ)"},{"date":"2020.08.31","time":"23:07:28","latitude":"39.5257","longitude":"26.2383","depth":"5.0","md":"-.-","ml":"1.3","mw":"-.-","location":"KORUBASI-AYVACIK (CANAKKALE)"},{"date":"2020.08.31","time":"23:02:35","latitude":"38.8362","longitude":"26.5328","depth":"5.9","md":"-.-","ml":"1.6","mw":"-.-","location":"EGE DENIZI"},{"date":"2020.08.31","time":"22:58:41","latitude":"34.5392","longitude":"25.5648","depth":"78.1","md":"-.-","ml":"3.7","mw":"3.9","location":"GIRIT ADASI ACIKLARI (AKDENIZ)"},{"date":"2020.08.31","time":"22:26:57","latitude":"38.0187","longitude":"42.9982","depth":"7.3","md":"-.-","ml":"1.9","mw":"-.-","location":"CILGA-CATAK (VAN)"},{"date":"2020.08.31","time":"21:32:56","latitude":"40.4400","longitude":"28.0992","depth":"10.2","md":"-.-","ml":"2.6","mw":"-.-","location":"BANDIRMA KORFEZI (MARMARA DENIZI)"},{"date":"2020.08.31","time":"21:32:25","latitude":"40.7270","longitude":"29.0763","depth":"5.2","md":"-.-","ml":"2.0","mw":"-.-","location":"CINARCIK ACIKLARI-YALOVA (MARMARA DENIZI)"},{"date":"2020.08.31","time":"19:52:04","latitude":"40.5223","longitude":"32.7505","depth":"3.9","md":"-.-","ml":"2.4","mw":"-.-","location":"CUKURCA-KIZILCAHAMAM (ANKARA)"},{"date":"2020.08.31","time":"17:52:54","latitude":"36.4170","longitude":"29.4500","depth":"17.5","md":"-.-","ml":"1.7","mw":"-.-","location":"YAYLAPALAMUT-KAS (ANTALYA)"},{"date":"2020.08.31","time":"16:56:42","latitude":"37.3862","longitude":"29.4365","depth":"12.8","md":"-.-","ml":"2.7","mw":"-.-","location":"YENIKOY-ACIPAYAM (DENIZLI)"},{"date":"2020.08.31","time":"16:39:27","latitude":"34.8382","longitude":"26.9092","depth":"9.5","md":"-.-","ml":"3.6","mw":"3.5","location":"GIRIT ADASI ACIKLARI (AKDENIZ)"},{"date":"2020.08.31","time":"16:05:13","latitude":"38.8683","longitude":"44.4010","depth":"5.0","md":"-.-","ml":"2.4","mw":"-.-","location":"TURKIYE-IRAN SINIR BOLGESI"},{"date":"2020.08.31","time":"15:51:51","latitude":"37.3690","longitude":"29.4607","depth":"8.0","md":"-.-","ml":"3.0","mw":"3.1","location":"BEDIRBEY-ACIPAYAM (DENIZLI)"},{"date":"2020.08.31","time":"15:20:22","latitude":"38.5833","longitude":"28.0345","depth":"10.8","md":"-.-","ml":"1.7","mw":"-.-","location":"TEKELIOGLU-SALIHLI (MANISA)"},{"date":"2020.08.31","time":"15:17:07","latitude":"36.9087","longitude":"27.6398","depth":"14.8","md":"-.-","ml":"1.5","mw":"-.-","location":"GOKOVA KORFEZI (AKDENIZ)"},{"date":"2020.08.31","time":"14:24:36","latitude":"37.3740","longitude":"29.4727","depth":"6.2","md":"-.-","ml":"1.8","mw":"-.-","location":"YUMRUTAS-ACIPAYAM (DENIZLI)"},{"date":"2020.08.31","time":"14:20:28","latitude":"39.4587","longitude":"26.2635","depth":"6.1","md":"-.-","ml":"2.7","mw":"-.-","location":"EDREMIT KORFEZI (EGE DENIZI)"},{"date":"2020.08.31","time":"13:51:54","latitude":"38.5578","longitude":"43.8610","depth":"6.1","md":"-.-","ml":"2.4","mw":"-.-","location":"YUKARICAVDARLIK-OZALP (VAN)"},{"date":"2020.08.31","time":"13:05:45","latitude":"39.9297","longitude":"33.1647","depth":"0.0","md":"-.-","ml":"1.6","mw":"-.-","location":"ELMADAG (ANKARA)"},{"date":"2020.08.31","time":"12:56:17","latitude":"37.1843","longitude":"27.8823","depth":"0.0","md":"-.-","ml":"1.5","mw":"-.-","location":"KARACAAGAC-MILAS (MUGLA)"},{"date":"2020.08.31","time":"12:51:39","latitude":"36.2835","longitude":"28.5298","depth":"17.5","md":"-.-","ml":"1.9","mw":"-.-","location":"AKDENIZ"},{"date":"2020.08.31","time":"12:36:48","latitude":"35.2980","longitude":"33.4780","depth":"0.0","md":"-.-","ml":"1.2","mw":"-.-","location":"KIBRIS-BESPARMAK"},{"date":"2020.08.31","time":"12:25:48","latitude":"39.4008","longitude":"26.2927","depth":"5.8","md":"-.-","ml":"1.6","mw":"-.-","location":"EDREMIT KORFEZI (EGE DENIZI)"},{"date":"2020.08.31","time":"12:22:42","latitude":"39.9032","longitude":"28.8455","depth":"0.0","md":"-.-","ml":"1.2","mw":"-.-","location":"DUNDAR-ORHANELI (BURSA)"},{"date":"2020.08.31","time":"12:01:55","latitude":"37.2243","longitude":"28.2002","depth":"0.0","md":"-.-","ml":"1.7","mw":"-.-","location":"PASAPINARI-(MUGLA)"},{"date":"2020.08.31","time":"11:58:54","latitude":"36.3740","longitude":"36.1367","depth":"6.9","md":"-.-","ml":"1.8","mw":"-.-","location":"TAHTAKOPRU-(HATAY)"},{"date":"2020.08.31","time":"11:50:05","latitude":"38.7483","longitude":"30.1592","depth":"10.8","md":"-.-","ml":"1.9","mw":"-.-","location":"TOKUSLAR-SINANPASA (AFYONKARAHISAR)"},{"date":"2020.08.31","time":"11:41:11","latitude":"39.4988","longitude":"26.2728","depth":"2.5","md":"-.-","ml":"2.7","mw":"-.-","location":"KURUOBA-AYVACIK (CANAKKALE)"},{"date":"2020.08.31","time":"11:37:32","latitude":"39.0997","longitude":"29.0500","depth":"12.0","md":"-.-","ml":"1.5","mw":"-.-","location":"GOKCELER-SIMAV (KUTAHYA)"},{"date":"2020.08.31","time":"11:09:57","latitude":"39.3250","longitude":"29.2998","depth":"0.0","md":"-.-","ml":"1.7","mw":"-.-","location":"BAHATLAR-EMET (KUTAHYA)"},{"date":"2020.08.31","time":"10:59:02","latitude":"39.4905","longitude":"26.2748","depth":"2.4","md":"-.-","ml":"2.6","mw":"-.-","location":"KURUOBA-AYVACIK (CANAKKALE)"},{"date":"2020.08.31","time":"10:48:06","latitude":"39.8548","longitude":"43.9777","depth":"5.0","md":"-.-","ml":"2.6","mw":"-.-","location":"HALFELI-(IGDIR)"},{"date":"2020.08.31","time":"10:42:41","latitude":"39.9718","longitude":"28.8622","depth":"0.0","md":"-.-","ml":"1.5","mw":"-.-","location":"KARINCALI-ORHANELI (BURSA)"},{"date":"2020.08.31","time":"10:26:29","latitude":"39.7275","longitude":"26.2462","depth":"0.0","md":"-.-","ml":"1.4","mw":"-.-","location":"KOCALI-EZINE (CANAKKALE)"},{"date":"2020.08.31","time":"09:42:55","latitude":"38.1642","longitude":"38.6170","depth":"5.1","md":"-.-","ml":"1.9","mw":"-.-","location":"BASMEZRA-PUTURGE (MALATYA)"},{"date":"2020.08.31","time":"08:31:38","latitude":"38.8947","longitude":"44.6608","depth":"5.0","md":"-.-","ml":"2.2","mw":"-.-","location":"TURKIYE-IRAN SINIR BOLGESI"},{"date":"2020.08.31","time":"08:09:14","latitude":"38.3617","longitude":"39.1128","depth":"5.0","md":"-.-","ml":"1.6","mw":"-.-","location":"AKSEKI-SIVRICE (ELAZIG)"},{"date":"2020.08.31","time":"05:23:52","latitude":"35.8008","longitude":"30.8530","depth":"84.8","md":"-.-","ml":"3.2","mw":"3.3","location":"AKDENIZ"},{"date":"2020.08.31","time":"04:40:44","latitude":"40.4833","longitude":"42.3203","depth":"11.6","md":"-.-","ml":"1.8","mw":"-.-","location":"CATALELMA-SENKAYA (ERZURUM)"},{"date":"2020.08.31","time":"04:09:47","latitude":"39.4740","longitude":"26.2462","depth":"5.6","md":"-.-","ml":"2.4","mw":"-.-","location":"BEKTAS-AYVACIK (CANAKKALE)"},{"date":"2020.08.31","time":"03:50:57","latitude":"38.4028","longitude":"39.1868","depth":"4.3","md":"-.-","ml":"1.3","mw":"-.-","location":"KOSEBAYIR-SIVRICE (ELAZIG)"},{"date":"2020.08.31","time":"03:13:19","latitude":"36.4648","longitude":"28.7175","depth":"5.0","md":"-.-","ml":"1.7","mw":"-.-","location":"AKDENIZ"},{"date":"2020.08.31","time":"03:07:45","latitude":"40.7682","longitude":"28.0497","depth":"8.2","md":"-.-","ml":"2.3","mw":"-.-","location":"MARMARA DENIZI"},{"date":"2020.08.31","time":"02:53:01","latitude":"36.8590","longitude":"27.3147","depth":"12.6","md":"-.-","ml":"1.2","mw":"-.-","location":"KOS ADASI (AKDENIZ)"},{"date":"2020.08.31","time":"02:26:54","latitude":"38.4665","longitude":"39.5013","depth":"3.5","md":"-.-","ml":"1.7","mw":"-.-","location":"HATUNKOY-MADEN (ELAZIG)"},{"date":"2020.08.31","time":"02:21:07","latitude":"38.4787","longitude":"39.4163","depth":"5.2","md":"-.-","ml":"2.3","mw":"-.-","location":"YONCAPINAR-MADEN (ELAZIG)"},{"date":"2020.08.30","time":"23:57:13","latitude":"39.4748","longitude":"26.2562","depth":"5.6","md":"-.-","ml":"3.2","mw":"3.2","location":"KURUOBA-AYVACIK (CANAKKALE)"},{"date":"2020.08.30","time":"22:29:21","latitude":"38.2055","longitude":"38.8833","depth":"14.7","md":"-.-","ml":"1.1","mw":"-.-","location":"PUTURGE (MALATYA)"},{"date":"2020.08.30","time":"21:54:11","latitude":"38.1127","longitude":"39.2982","depth":"5.0","md":"-.-","ml":"1.7","mw":"-.-","location":"PINARLI-CERMIK (DIYARBAKIR)"},{"date":"2020.08.30","time":"21:09:24","latitude":"41.0415","longitude":"43.9215","depth":"9.0","md":"-.-","ml":"2.4","mw":"-.-","location":"AZERBAYCAN"},{"date":"2020.08.30","time":"21:07:48","latitude":"41.0332","longitude":"43.9072","depth":"5.4","md":"-.-","ml":"3.1","mw":"3.2","location":"AZERBAYCAN"},{"date":"2020.08.30","time":"19:54:50","latitude":"39.9300","longitude":"28.7335","depth":"0.0","md":"-.-","ml":"1.3","mw":"-.-","location":"LETAFET-ORHANELI (BURSA)"},{"date":"2020.08.30","time":"19:42:11","latitude":"38.2207","longitude":"38.7525","depth":"4.8","md":"-.-","ml":"2.1","mw":"-.-","location":"PAZARCIK-PUTURGE (MALATYA)"},{"date":"2020.08.30","time":"18:14:54","latitude":"39.9553","longitude":"45.1048","depth":"5.0","md":"-.-","ml":"2.8","mw":"-.-","location":"AZERBAYCAN"},{"date":"2020.08.30","time":"17:58:38","latitude":"40.4297","longitude":"28.7723","depth":"3.1","md":"-.-","ml":"1.7","mw":"-.-","location":"GEMLIK KORFEZI (MARMARA DENIZI)"},{"date":"2020.08.30","time":"17:53:15","latitude":"40.3357","longitude":"28.2093","depth":"5.5","md":"-.-","ml":"1.8","mw":"-.-","location":"SAHMELEK-KARACABEY (BURSA)"},{"date":"2020.08.30","time":"17:49:02","latitude":"39.9123","longitude":"28.8360","depth":"0.0","md":"-.-","ml":"1.6","mw":"-.-","location":"DUNDAR-ORHANELI (BURSA)"},{"date":"2020.08.30","time":"17:13:24","latitude":"39.6472","longitude":"27.4227","depth":"6.0","md":"-.-","ml":"2.6","mw":"-.-","location":"GOKCELER-IVRINDI (BALIKESIR)"},{"date":"2020.08.30","time":"16:44:25","latitude":"38.9795","longitude":"27.8127","depth":"22.4","md":"-.-","ml":"2.0","mw":"-.-","location":"MEDAR-AKHISAR (MANISA)"},{"date":"2020.08.30","time":"13:19:21","latitude":"40.4630","longitude":"35.7418","depth":"3.6","md":"-.-","ml":"2.9","mw":"-.-","location":"MUSAKOY-(AMASYA)"},{"date":"2020.08.30","time":"08:36:34","latitude":"36.9322","longitude":"27.7608","depth":"9.1","md":"-.-","ml":"2.1","mw":"-.-","location":"GOKOVA KORFEZI (AKDENIZ)"},{"date":"2020.08.30","time":"07:53:58","latitude":"38.5008","longitude":"39.4943","depth":"15.2","md":"-.-","ml":"1.6","mw":"-.-","location":"PLAJKOY-MADEN (ELAZIG)"},{"date":"2020.08.30","time":"06:28:05","latitude":"38.4420","longitude":"39.3552","depth":"17.8","md":"-.-","ml":"1.3","mw":"-.-","location":"SUREK-SIVRICE (ELAZIG)"},{"date":"2020.08.30","time":"06:01:43","latitude":"38.4567","longitude":"39.4253","depth":"19.1","md":"-.-","ml":"1.5","mw":"-.-","location":"YONCAPINAR-MADEN (ELAZIG)"},{"date":"2020.08.30","time":"05:43:06","latitude":"37.2942","longitude":"31.1927","depth":"128.1","md":"-.-","ml":"2.1","mw":"-.-","location":"CALTEPE-MANAVGAT (ANTALYA)"},{"date":"2020.08.30","time":"05:08:32","latitude":"38.2825","longitude":"38.7990","depth":"1.2","md":"-.-","ml":"2.1","mw":"-.-","location":"KARSIYAKA-PUTURGE (MALATYA)"}]
