[{"date":"2020.10.10","time":"21:01:57","latitude":"37.9405","longitude":"34.0683","depth":"6.5","md":"-.-","ml":"1.9","mw":"-.-","location":"OBRUK-BOR (NIGDE)"},{"date":"2020.10.10","time":"19:34:19","latitude":"38.3957","longitude":"39.2218","depth":"3.6","md":"-.-","ml":"1.3","mw":"-.-","location":"DORTBOLUK-SIVRICE (ELAZIG)"},{"date":"2020.10.10","time":"18:30:25","latitude":"38.2375","longitude":"38.7810","depth":"2.1","md":"-.-","ml":"2.8","mw":"-.-","location":"ORMANICI-PUTURGE (MALATYA)"},{"date":"2020.10.10","time":"18:03:11","latitude":"36.0463","longitude":"27.4095","depth":"9.9","md":"-.-","ml":"2.1","mw":"-.-","location":"AKDENIZ"},{"date":"2020.10.10","time":"17:13:17","latitude":"40.8075","longitude":"33.0580","depth":"9.2","md":"-.-","ml":"2.0","mw":"-.-","location":"ATKARACALAR (CANKIRI)"},{"date":"2020.10.10","time":"17:04:03","latitude":"39.0013","longitude":"27.9008","depth":"5.4","md":"-.-","ml":"1.7","mw":"-.-","location":"YENICE-AKHISAR (MANISA)"},{"date":"2020.10.10","time":"16:38:52","latitude":"40.5247","longitude":"29.2400","depth":"2.5","md":"-.-","ml":"1.3","mw":"-.-","location":"HAMZALI-ORHANGAZI (BURSA)"},{"date":"2020.10.10","time":"16:06:52","latitude":"40.7930","longitude":"33.1100","depth":"1.4","md":"-.-","ml":"2.0","mw":"-.-","location":"ILIPINAR-ATKARACALAR (CANKIRI)"},{"date":"2020.10.10","time":"15:54:14","latitude":"38.4687","longitude":"34.1202","depth":"9.0","md":"-.-","ml":"2.0","mw":"-.-","location":"AGZIKARAHAN-(AKSARAY)"},{"date":"2020.10.10","time":"14:46:05","latitude":"40.7008","longitude":"32.9908","depth":"5.0","md":"-.-","ml":"3.8","mw":"3.8","location":"HACILAR-CERKES (CANKIRI)"},{"date":"2020.10.10","time":"14:35:53","latitude":"36.4740","longitude":"28.7307","depth":"4.9","md":"-.-","ml":"1.9","mw":"-.-","location":"AKDENIZ"},{"date":"2020.10.10","time":"13:44:46","latitude":"37.2452","longitude":"28.2312","depth":"5.0","md":"-.-","ml":"1.7","mw":"-.-","location":"PASAPINARI-(MUGLA)"},{"date":"2020.10.10","time":"13:14:19","latitude":"39.0953","longitude":"27.6643","depth":"0.0","md":"-.-","ml":"1.6","mw":"-.-","location":"KIRKAGAC (MANISA)"},{"date":"2020.10.10","time":"13:09:16","latitude":"36.1545","longitude":"33.5400","depth":"0.0","md":"-.-","ml":"1.4","mw":"-.-","location":"BUYUKECELI-GULNAR (MERSIN)"},{"date":"2020.10.10","time":"13:00:38","latitude":"37.2452","longitude":"28.2323","depth":"7.0","md":"-.-","ml":"1.7","mw":"-.-","location":"PASAPINARI-(MUGLA)"},{"date":"2020.10.10","time":"12:50:44","latitude":"37.2407","longitude":"28.1680","depth":"1.8","md":"-.-","ml":"1.6","mw":"-.-","location":"CAYBUKU-(MUGLA)"},{"date":"2020.10.10","time":"12:37:29","latitude":"35.8385","longitude":"28.1353","depth":"13.6","md":"-.-","ml":"2.1","mw":"-.-","location":"AKDENIZ"},{"date":"2020.10.10","time":"12:36:10","latitude":"36.2815","longitude":"30.0085","depth":"21.9","md":"-.-","ml":"1.5","mw":"-.-","location":"KOSKERLER-DEMRE (ANTALYA)"},{"date":"2020.10.10","time":"12:28:19","latitude":"38.4108","longitude":"34.3450","depth":"4.6","md":"-.-","ml":"1.8","mw":"-.-","location":"GULAGAC (AKSARAY)"},{"date":"2020.10.10","time":"12:23:13","latitude":"37.2188","longitude":"27.9545","depth":"4.4","md":"-.-","ml":"1.5","mw":"-.-","location":"CAMLICA-YATAGAN (MUGLA)"},{"date":"2020.10.10","time":"12:17:03","latitude":"37.2137","longitude":"27.8960","depth":"5.0","md":"-.-","ml":"1.1","mw":"-.-","location":"KAYADERE-MILAS (MUGLA)"},{"date":"2020.10.10","time":"12:11:51","latitude":"37.1250","longitude":"27.8380","depth":"5.2","md":"-.-","ml":"1.5","mw":"-.-","location":"PINARARASI-MILAS (MUGLA)"},{"date":"2020.10.10","time":"12:07:25","latitude":"37.2562","longitude":"37.5860","depth":"5.0","md":"-.-","ml":"1.8","mw":"-.-","location":"SARAYMAGARA-YAVUZELI (GAZIANTEP)"},{"date":"2020.10.10","time":"10:18:23","latitude":"36.2567","longitude":"28.0625","depth":"5.4","md":"-.-","ml":"3.2","mw":"3.3","location":"RODOS ADASI (AKDENIZ)"},{"date":"2020.10.10","time":"09:29:45","latitude":"45.2793","longitude":"25.5502","depth":"78.1","md":"-.-","ml":"3.8","mw":"3.8","location":"ROMANYA"},{"date":"2020.10.10","time":"09:02:54","latitude":"37.2417","longitude":"28.2585","depth":"8.3","md":"-.-","ml":"1.7","mw":"-.-","location":"SALIHPASALAR-(MUGLA)"},{"date":"2020.10.10","time":"08:52:44","latitude":"39.4135","longitude":"28.1245","depth":"1.7","md":"-.-","ml":"0.9","mw":"-.-","location":"ISIKLAR-BIGADIC (BALIKESIR)"},{"date":"2020.10.10","time":"08:46:54","latitude":"38.6420","longitude":"38.1132","depth":"1.8","md":"-.-","ml":"2.3","mw":"-.-","location":"FETHIYE-YAZIHAN (MALATYA)"},{"date":"2020.10.10","time":"08:45:07","latitude":"39.4503","longitude":"31.5492","depth":"10.1","md":"-.-","ml":"1.3","mw":"-.-","location":"SIVRIHISAR (ESKISEHIR)"},{"date":"2020.10.10","time":"08:30:27","latitude":"34.0450","longitude":"25.8755","depth":"8.5","md":"-.-","ml":"3.2","mw":"3.3","location":"GIRIT ADASI ACIKLARI (AKDENIZ)"},{"date":"2020.10.10","time":"07:07:29","latitude":"38.0787","longitude":"44.6380","depth":"9.2","md":"-.-","ml":"3.4","mw":"3.6","location":"TURKIYE-IRAN SINIR BOLGESI"},{"date":"2020.10.10","time":"06:11:46","latitude":"38.0218","longitude":"34.1177","depth":"11.6","md":"-.-","ml":"1.6","mw":"-.-","location":"KECIKALESI-ALTUNHISAR (NIGDE)"},{"date":"2020.10.10","time":"05:45:14","latitude":"39.1678","longitude":"29.3648","depth":"10.3","md":"-.-","ml":"0.6","mw":"-.-","location":"SEYHLER-HISARCIK (KUTAHYA)"},{"date":"2020.10.10","time":"05:41:59","latitude":"39.1473","longitude":"29.4280","depth":"10.7","md":"-.-","ml":"2.4","mw":"-.-","location":"YESILOVA-GEDIZ (KUTAHYA)"},{"date":"2020.10.10","time":"05:35:18","latitude":"37.3232","longitude":"26.7430","depth":"10.8","md":"-.-","ml":"1.8","mw":"-.-","location":"ONIKI ADALAR (AKDENIZ)"},{"date":"2020.10.10","time":"04:41:56","latitude":"38.3312","longitude":"38.9723","depth":"16.0","md":"-.-","ml":"2.0","mw":"-.-","location":"TOPALUSAGI-SIVRICE (ELAZIG)"},{"date":"2020.10.10","time":"04:10:51","latitude":"37.1567","longitude":"27.9252","depth":"4.6","md":"-.-","ml":"1.2","mw":"-.-","location":"KARACAAGAC-MILAS (MUGLA)"},{"date":"2020.10.10","time":"03:56:03","latitude":"40.3278","longitude":"43.0112","depth":"27.8","md":"-.-","ml":"2.2","mw":"-.-","location":"KOMURLU-KAGIZMAN (KARS)"},{"date":"2020.10.10","time":"03:15:46","latitude":"38.7970","longitude":"25.2912","depth":"5.0","md":"-.-","ml":"2.3","mw":"-.-","location":"EGE DENIZI"},{"date":"2020.10.10","time":"02:22:27","latitude":"41.0220","longitude":"31.7220","depth":"5.4","md":"-.-","ml":"2.0","mw":"-.-","location":"YAYLATEPE-YIGILCA (DUZCE)"},{"date":"2020.10.10","time":"00:28:21","latitude":"40.8248","longitude":"28.0153","depth":"14.5","md":"-.-","ml":"2.3","mw":"-.-","location":"MARMARA DENIZI"},{"date":"2020.10.10","time":"00:18:54","latitude":"38.4283","longitude":"39.2655","depth":"7.2","md":"-.-","ml":"1.6","mw":"-.-","location":"DUZBAHCE-SIVRICE (ELAZIG)"},{"date":"2020.10.09","time":"23:19:38","latitude":"39.0613","longitude":"30.1768","depth":"11.6","md":"-.-","ml":"1.3","mw":"-.-","location":"MERKEZ-ALTINTAS (KUTAHYA)"},{"date":"2020.10.09","time":"23:01:21","latitude":"38.7095","longitude":"26.5085","depth":"12.9","md":"-.-","ml":"1.9","mw":"-.-","location":"IZMIR KORFEZI (EGE DENIZI)"},{"date":"2020.10.09","time":"22:50:53","latitude":"39.5248","longitude":"28.8065","depth":"3.1","md":"-.-","ml":"0.9","mw":"-.-","location":"POYRACIK-DURSUNBEY (BALIKESIR)"},{"date":"2020.10.09","time":"22:18:12","latitude":"34.9067","longitude":"25.3558","depth":"73.7","md":"-.-","ml":"2.6","mw":"-.-","location":"GIRIT ADASI (AKDENIZ)"},{"date":"2020.10.09","time":"20:57:25","latitude":"38.0620","longitude":"38.6900","depth":"22.0","md":"-.-","ml":"1.3","mw":"-.-","location":"CAT-SINCIK (ADIYAMAN)"},{"date":"2020.10.09","time":"20:56:39","latitude":"37.5012","longitude":"27.5900","depth":"16.0","md":"-.-","ml":"1.8","mw":"-.-","location":"KARAHAYIT-MILAS (MUGLA)"},{"date":"2020.10.09","time":"20:28:45","latitude":"38.4103","longitude":"39.2370","depth":"7.6","md":"-.-","ml":"1.7","mw":"-.-","location":"SOGUKPINAR-SIVRICE (ELAZIG)"},{"date":"2020.10.09","time":"20:23:21","latitude":"37.2698","longitude":"26.5727","depth":"26.7","md":"-.-","ml":"2.0","mw":"-.-","location":"ONIKI ADALAR (AKDENIZ)"},{"date":"2020.10.09","time":"20:19:46","latitude":"36.9793","longitude":"27.8840","depth":"4.5","md":"-.-","ml":"1.6","mw":"-.-","location":"GOKOVA KORFEZI (AKDENIZ)"},{"date":"2020.10.09","time":"20:12:03","latitude":"36.9768","longitude":"27.7492","depth":"5.0","md":"-.-","ml":"2.5","mw":"-.-","location":"GOKOVA KORFEZI (AKDENIZ)"},{"date":"2020.10.09","time":"19:24:10","latitude":"38.9703","longitude":"27.8572","depth":"3.9","md":"-.-","ml":"1.8","mw":"-.-","location":"KARABORKLU-AKHISAR (MANISA)"},{"date":"2020.10.09","time":"19:11:24","latitude":"37.3303","longitude":"26.7595","depth":"17.1","md":"-.-","ml":"2.0","mw":"-.-","location":"ONIKI ADALAR (AKDENIZ)"},{"date":"2020.10.09","time":"19:09:52","latitude":"37.3142","longitude":"26.6922","depth":"18.1","md":"-.-","ml":"2.9","mw":"-.-","location":"ONIKI ADALAR (AKDENIZ)"},{"date":"2020.10.09","time":"18:39:03","latitude":"39.8937","longitude":"33.0750","depth":"0.0","md":"-.-","ml":"1.7","mw":"-.-","location":"ELMADAG (ANKARA)"},{"date":"2020.10.09","time":"18:30:16","latitude":"39.6445","longitude":"35.5932","depth":"7.9","md":"-.-","ml":"1.7","mw":"-.-","location":"OZAN-SARAYKENT (YOZGAT)"},{"date":"2020.10.09","time":"17:58:48","latitude":"40.5977","longitude":"27.4783","depth":"9.0","md":"-.-","ml":"1.6","mw":"-.-","location":"EKINLIK-MARMARA (BALIKESIR)"},{"date":"2020.10.09","time":"17:46:38","latitude":"36.8528","longitude":"27.8953","depth":"10.4","md":"-.-","ml":"1.8","mw":"-.-","location":"GOKOVA KORFEZI (AKDENIZ)"},{"date":"2020.10.09","time":"17:22:19","latitude":"37.2115","longitude":"37.2087","depth":"0.0","md":"-.-","ml":"1.1","mw":"-.-","location":"UCGOZE-SEHITKAMIL (GAZIANTEP)"},{"date":"2020.10.09","time":"16:59:02","latitude":"38.6657","longitude":"38.0415","depth":"5.0","md":"-.-","ml":"2.2","mw":"-.-","location":"ALICAN-YAZIHAN (MALATYA)"},{"date":"2020.10.09","time":"15:36:26","latitude":"36.4397","longitude":"27.7085","depth":"5.0","md":"-.-","ml":"2.5","mw":"-.-","location":"AKDENIZ"},{"date":"2020.10.09","time":"14:53:57","latitude":"38.1333","longitude":"45.0028","depth":"82.0","md":"-.-","ml":"2.5","mw":"-.-","location":"IRAN"},{"date":"2020.10.09","time":"14:13:14","latitude":"39.4107","longitude":"29.4803","depth":"27.0","md":"-.-","ml":"1.5","mw":"-.-","location":"UYUCEK-TAVSANLI (KUTAHYA)"},{"date":"2020.10.09","time":"13:33:21","latitude":"41.1108","longitude":"40.0858","depth":"6.8","md":"-.-","ml":"2.1","mw":"-.-","location":"TRABZON ACIKLARI (KARADENIZ)"},{"date":"2020.10.09","time":"13:11:02","latitude":"39.7442","longitude":"30.7858","depth":"0.0","md":"-.-","ml":"1.4","mw":"-.-","location":"KIRECKOYU-ODUNPAZARI (ESKISEHIR)"},{"date":"2020.10.09","time":"13:08:23","latitude":"36.4253","longitude":"34.2455","depth":"11.1","md":"-.-","ml":"1.6","mw":"-.-","location":"AYAS-ERDEMLI (MERSIN)"},{"date":"2020.10.09","time":"12:25:54","latitude":"39.1603","longitude":"29.4065","depth":"7.2","md":"-.-","ml":"1.7","mw":"-.-","location":"YESILOVA-GEDIZ (KUTAHYA)"},{"date":"2020.10.09","time":"12:12:04","latitude":"39.5850","longitude":"29.4193","depth":"0.0","md":"-.-","ml":"1.5","mw":"-.-","location":"KAYAARASI-TAVSANLI (KUTAHYA)"},{"date":"2020.10.09","time":"12:08:00","latitude":"39.4515","longitude":"28.1408","depth":"9.5","md":"-.-","ml":"1.4","mw":"-.-","location":"SALMANLI-BIGADIC (BALIKESIR)"},{"date":"2020.10.09","time":"11:59:16","latitude":"39.8900","longitude":"28.8268","depth":"0.0","md":"-.-","ml":"1.5","mw":"-.-","location":"YENIDANISMENT-ORHANELI (BURSA)"},{"date":"2020.10.09","time":"11:49:18","latitude":"37.6153","longitude":"29.2030","depth":"0.0","md":"-.-","ml":"1.2","mw":"-.-","location":"SARIABAT-TAVAS (DENIZLI)"},{"date":"2020.10.09","time":"11:45:51","latitude":"37.0297","longitude":"29.5482","depth":"5.0","md":"-.-","ml":"1.2","mw":"-.-","location":"CATAK-ALTINYAYLA (BURDUR)"},{"date":"2020.10.09","time":"11:26:24","latitude":"37.4470","longitude":"29.2175","depth":"31.2","md":"-.-","ml":"0.8","mw":"-.-","location":"OVACIK-TAVAS (DENIZLI)"},{"date":"2020.10.09","time":"09:44:44","latitude":"38.5362","longitude":"26.6670","depth":"5.5","md":"-.-","ml":"1.7","mw":"-.-","location":"IZMIR KORFEZI (EGE DENIZI)"},{"date":"2020.10.09","time":"09:38:46","latitude":"38.2487","longitude":"38.7562","depth":"10.8","md":"-.-","ml":"0.9","mw":"-.-","location":"BALPINARI-PUTURGE (MALATYA)"},{"date":"2020.10.09","time":"08:57:57","latitude":"39.1638","longitude":"29.3932","depth":"9.3","md":"-.-","ml":"1.6","mw":"-.-","location":"YESILOVA-GEDIZ (KUTAHYA)"},{"date":"2020.10.09","time":"08:38:22","latitude":"38.8145","longitude":"27.0192","depth":"6.0","md":"-.-","ml":"2.0","mw":"-.-","location":"GUZELHISAR-ALIAGA (IZMIR)"},{"date":"2020.10.09","time":"06:37:44","latitude":"34.9165","longitude":"26.7197","depth":"6.8","md":"-.-","ml":"3.0","mw":"-.-","location":"GIRIT ADASI ACIKLARI (AKDENIZ)"},{"date":"2020.10.09","time":"05:32:32","latitude":"36.8692","longitude":"29.1912","depth":"5.4","md":"-.-","ml":"1.3","mw":"-.-","location":"SOGUTLU-FETHIYE (MUGLA)"},{"date":"2020.10.09","time":"04:47:19","latitude":"39.4848","longitude":"29.0395","depth":"8.2","md":"-.-","ml":"1.9","mw":"-.-","location":"KAVAKLI-TAVSANLI (KUTAHYA)"},{"date":"2020.10.09","time":"03:35:34","latitude":"36.7837","longitude":"27.1250","depth":"25.9","md":"-.-","ml":"1.3","mw":"-.-","location":"KOS ADASI (AKDENIZ)"},{"date":"2020.10.09","time":"03:00:20","latitude":"37.8605","longitude":"26.7367","depth":"7.7","md":"-.-","ml":"3.6","mw":"3.6","location":"EGE DENIZI"},{"date":"2020.10.09","time":"02:01:04","latitude":"37.4585","longitude":"29.9223","depth":"5.0","md":"-.-","ml":"1.6","mw":"-.-","location":"MURSELLER-KARAMANLI (BURDUR)"},{"date":"2020.10.09","time":"01:03:26","latitude":"40.7267","longitude":"31.4693","depth":"15.7","md":"-.-","ml":"1.8","mw":"-.-","location":"YOLCATI-(BOLU)"},{"date":"2020.10.08","time":"23:45:18","latitude":"38.4202","longitude":"42.7638","depth":"5.3","md":"-.-","ml":"2.3","mw":"-.-","location":"DAGDIBI-TATVAN (BITLIS)"},{"date":"2020.10.08","time":"22:46:05","latitude":"36.3402","longitude":"28.1480","depth":"14.6","md":"-.-","ml":"1.4","mw":"-.-","location":"RODOS ADASI (AKDENIZ)"},{"date":"2020.10.08","time":"22:38:55","latitude":"36.8623","longitude":"28.8487","depth":"14.2","md":"-.-","ml":"1.2","mw":"-.-","location":"KIZILKAYA-DALAMAN (MUGLA)"},{"date":"2020.10.08","time":"21:07:07","latitude":"37.7158","longitude":"32.2300","depth":"0.0","md":"-.-","ml":"1.8","mw":"-.-","location":"KAYALI-MERAM (KONYA)"},{"date":"2020.10.08","time":"21:01:57","latitude":"38.9573","longitude":"27.1740","depth":"13.3","md":"-.-","ml":"1.7","mw":"-.-","location":"KOYUNELI-BERGAMA (IZMIR)"},{"date":"2020.10.08","time":"20:41:56","latitude":"37.2307","longitude":"32.3852","depth":"19.7","md":"-.-","ml":"1.9","mw":"-.-","location":"AYDINKISLA-BOZKIR (KONYA)"},{"date":"2020.10.08","time":"20:01:54","latitude":"37.9623","longitude":"34.0830","depth":"15.7","md":"-.-","ml":"1.8","mw":"-.-","location":"OBRUK-BOR (NIGDE)"},{"date":"2020.10.08","time":"20:00:09","latitude":"40.7230","longitude":"33.0127","depth":"11.9","md":"-.-","ml":"1.6","mw":"-.-","location":"GUZELYURT-CERKES (CANKIRI)"},{"date":"2020.10.08","time":"19:45:36","latitude":"38.2838","longitude":"38.7488","depth":"5.4","md":"-.-","ml":"2.7","mw":"-.-","location":"BALPINARI-PUTURGE (MALATYA)"},{"date":"2020.10.08","time":"19:36:43","latitude":"40.7635","longitude":"32.9933","depth":"9.9","md":"-.-","ml":"2.4","mw":"-.-","location":"YALIOZU-CERKES (CANKIRI)"},{"date":"2020.10.08","time":"19:06:04","latitude":"34.8522","longitude":"24.3087","depth":"5.0","md":"-.-","ml":"2.9","mw":"-.-","location":"GIRIT ADASI ACIKLARI (AKDENIZ)"},{"date":"2020.10.08","time":"16:55:52","latitude":"38.7518","longitude":"27.9365","depth":"5.3","md":"-.-","ml":"2.4","mw":"-.-","location":"HIROGLU-GOLMARMARA (MANISA)"},{"date":"2020.10.08","time":"16:55:30","latitude":"38.3877","longitude":"39.2262","depth":"11.5","md":"-.-","ml":"1.7","mw":"-.-","location":"DORTBOLUK-SIVRICE (ELAZIG)"},{"date":"2020.10.08","time":"16:44:07","latitude":"38.9687","longitude":"32.7377","depth":"0.0","md":"-.-","ml":"1.7","mw":"-.-","location":"BULDUK-CIHANBEYLI (KONYA)"},{"date":"2020.10.08","time":"16:17:37","latitude":"36.8892","longitude":"27.8208","depth":"3.2","md":"-.-","ml":"1.4","mw":"-.-","location":"GOKOVA KORFEZI (AKDENIZ)"},{"date":"2020.10.08","time":"16:08:12","latitude":"38.2167","longitude":"38.7780","depth":"14.6","md":"-.-","ml":"2.1","mw":"-.-","location":"ORMANICI-PUTURGE (MALATYA)"},{"date":"2020.10.08","time":"15:48:07","latitude":"36.2915","longitude":"27.9738","depth":"23.2","md":"-.-","ml":"1.9","mw":"-.-","location":"RODOS ADASI (AKDENIZ)"},{"date":"2020.10.08","time":"14:19:30","latitude":"39.2307","longitude":"33.3922","depth":"25.9","md":"-.-","ml":"1.2","mw":"-.-","location":"BUYUKDAMLACIK-SEREFLIKOCHISAR (ANKARA)"},{"date":"2020.10.08","time":"13:02:32","latitude":"34.7140","longitude":"24.3107","depth":"9.0","md":"-.-","ml":"3.2","mw":"3.2","location":"GIRIT ADASI ACIKLARI (AKDENIZ)"},{"date":"2020.10.08","time":"12:22:55","latitude":"39.6270","longitude":"29.4145","depth":"0.0","md":"-.-","ml":"1.4","mw":"-.-","location":"TUNCBILEK-TAVSANLI (KUTAHYA)"},{"date":"2020.10.08","time":"12:11:53","latitude":"39.6103","longitude":"29.3417","depth":"16.8","md":"-.-","ml":"1.5","mw":"-.-","location":"YENIKOY-TAVSANLI (KUTAHYA)"},{"date":"2020.10.08","time":"12:06:22","latitude":"36.5915","longitude":"30.1257","depth":"29.4","md":"-.-","ml":"1.4","mw":"-.-","location":"KARACAOREN-KUMLUCA (ANTALYA)"},{"date":"2020.10.08","time":"12:04:39","latitude":"38.8420","longitude":"37.8957","depth":"10.1","md":"-.-","ml":"1.8","mw":"-.-","location":"BEYKENT-HEKIMHAN (MALATYA)"},{"date":"2020.10.08","time":"11:57:20","latitude":"37.2223","longitude":"28.1820","depth":"0.0","md":"-.-","ml":"1.6","mw":"-.-","location":"CAYBUKU-(MUGLA)"},{"date":"2020.10.08","time":"11:49:51","latitude":"38.8435","longitude":"37.8988","depth":"2.8","md":"-.-","ml":"1.1","mw":"-.-","location":"BEYKENT-HEKIMHAN (MALATYA)"},{"date":"2020.10.08","time":"11:48:25","latitude":"37.2392","longitude":"31.7345","depth":"13.5","md":"-.-","ml":"1.8","mw":"-.-","location":"SALIHLER-AKSEKI (ANTALYA)"},{"date":"2020.10.08","time":"11:27:00","latitude":"40.4798","longitude":"29.2815","depth":"0.0","md":"-.-","ml":"1.7","mw":"-.-","location":"FINDIKLI-ORHANGAZI (BURSA)"},{"date":"2020.10.08","time":"11:18:41","latitude":"37.9627","longitude":"34.1057","depth":"4.3","md":"-.-","ml":"2.0","mw":"-.-","location":"OBRUK-BOR (NIGDE)"},{"date":"2020.10.08","time":"10:01:34","latitude":"39.1340","longitude":"27.6335","depth":"0.0","md":"-.-","ml":"1.3","mw":"-.-","location":"SARIKAYA-SOMA (MANISA)"},{"date":"2020.10.08","time":"09:32:40","latitude":"39.0370","longitude":"27.8230","depth":"3.2","md":"-.-","ml":"1.1","mw":"-.-","location":"MUSALAR-AKHISAR (MANISA)"},{"date":"2020.10.08","time":"09:16:36","latitude":"34.8690","longitude":"24.2952","depth":"5.0","md":"-.-","ml":"3.5","mw":"3.3","location":"GIRIT ADASI ACIKLARI (AKDENIZ)"},{"date":"2020.10.08","time":"09:12:28","latitude":"38.6582","longitude":"38.0487","depth":"6.2","md":"-.-","ml":"1.4","mw":"-.-","location":"ALICAN-YAZIHAN (MALATYA)"},{"date":"2020.10.08","time":"08:23:01","latitude":"40.0510","longitude":"35.7483","depth":"5.0","md":"-.-","ml":"1.9","mw":"-.-","location":"YAVUHASAN-KADISEHRI (YOZGAT)"},{"date":"2020.10.08","time":"07:00:49","latitude":"39.1763","longitude":"28.9833","depth":"5.3","md":"-.-","ml":"2.6","mw":"-.-","location":"NASA-SIMAV (KUTAHYA)"},{"date":"2020.10.08","time":"06:59:40","latitude":"39.1670","longitude":"29.0067","depth":"6.0","md":"-.-","ml":"2.1","mw":"-.-","location":"KARACAOREN-SIMAV (KUTAHYA)"},{"date":"2020.10.08","time":"05:59:20","latitude":"39.3620","longitude":"40.6972","depth":"4.3","md":"-.-","ml":"1.6","mw":"-.-","location":"DINARBEY-YEDISU (BINGOL)"},{"date":"2020.10.08","time":"05:56:00","latitude":"38.5423","longitude":"38.7938","depth":"2.5","md":"-.-","ml":"2.1","mw":"-.-","location":"SAHAPLI-BASKIL (ELAZIG)"},{"date":"2020.10.08","time":"04:36:48","latitude":"35.3847","longitude":"26.6488","depth":"5.0","md":"-.-","ml":"1.3","mw":"-.-","location":"GIRIT ADASI (AKDENIZ)"},{"date":"2020.10.08","time":"04:09:40","latitude":"35.3868","longitude":"26.6385","depth":"5.0","md":"-.-","ml":"1.2","mw":"-.-","location":"GIRIT ADASI (AKDENIZ)"},{"date":"2020.10.08","time":"04:05:52","latitude":"37.8965","longitude":"32.2107","depth":"3.5","md":"-.-","ml":"1.0","mw":"-.-","location":"ULUMUHSINE-SELCUKLU (KONYA)"},{"date":"2020.10.08","time":"03:58:38","latitude":"38.3800","longitude":"39.1683","depth":"6.7","md":"-.-","ml":"1.6","mw":"-.-","location":"KOSEBAYIR-SIVRICE (ELAZIG)"},{"date":"2020.10.08","time":"03:43:35","latitude":"35.0497","longitude":"26.9798","depth":"5.0","md":"-.-","ml":"2.6","mw":"-.-","location":"GIRIT ADASI ACIKLARI (AKDENIZ)"},{"date":"2020.10.08","time":"02:55:34","latitude":"35.7445","longitude":"26.9392","depth":"12.8","md":"-.-","ml":"1.4","mw":"-.-","location":"AKDENIZ"},{"date":"2020.10.08","time":"02:38:14","latitude":"36.8907","longitude":"28.0042","depth":"4.7","md":"-.-","ml":"1.3","mw":"-.-","location":"GOKOVA KORFEZI (AKDENIZ)"},{"date":"2020.10.08","time":"02:37:21","latitude":"37.8112","longitude":"27.2257","depth":"4.7","md":"-.-","ml":"1.5","mw":"-.-","location":"KUSADASI KORFEZI (EGE DENIZI)"},{"date":"2020.10.08","time":"02:32:16","latitude":"40.1787","longitude":"24.9762","depth":"17.5","md":"-.-","ml":"2.1","mw":"-.-","location":"EGE DENIZI"},{"date":"2020.10.08","time":"01:36:47","latitude":"39.8185","longitude":"27.7215","depth":"8.4","md":"-.-","ml":"1.7","mw":"-.-","location":"GOKMUSA-BALYA (BALIKESIR)"},{"date":"2020.10.08","time":"00:44:16","latitude":"35.1117","longitude":"32.8510","depth":"15.3","md":"-.-","ml":"2.0","mw":"-.-","location":"KIBRIS-LEFKE"},{"date":"2020.10.08","time":"00:22:53","latitude":"36.5027","longitude":"27.4882","depth":"10.1","md":"-.-","ml":"1.7","mw":"-.-","location":"AKDENIZ"},{"date":"2020.10.08","time":"00:13:03","latitude":"36.1433","longitude":"29.2938","depth":"6.1","md":"-.-","ml":"1.4","mw":"-.-","location":"KALKAN ACIKLARI-ANTALYA (AKDENIZ)"},{"date":"2020.10.07","time":"21:51:41","latitude":"38.4278","longitude":"26.6268","depth":"12.6","md":"-.-","ml":"2.2","mw":"-.-","location":"BALIKLIOVA-URLA (IZMIR)"},{"date":"2020.10.07","time":"21:39:54","latitude":"39.2408","longitude":"43.7225","depth":"24.8","md":"-.-","ml":"2.0","mw":"-.-","location":"DEDEBULAK-DIYADIN (AGRI)"},{"date":"2020.10.07","time":"21:32:02","latitude":"34.4963","longitude":"25.0052","depth":"22.5","md":"-.-","ml":"3.3","mw":"3.3","location":"GIRIT ADASI ACIKLARI (AKDENIZ)"},{"date":"2020.10.07","time":"21:17:09","latitude":"36.4507","longitude":"28.6803","depth":"3.6","md":"-.-","ml":"1.8","mw":"-.-","location":"AKDENIZ"},{"date":"2020.10.07","time":"21:08:34","latitude":"35.7518","longitude":"28.3125","depth":"5.2","md":"-.-","ml":"1.6","mw":"-.-","location":"AKDENIZ"},{"date":"2020.10.07","time":"21:01:19","latitude":"35.8087","longitude":"28.2415","depth":"5.0","md":"-.-","ml":"1.5","mw":"-.-","location":"AKDENIZ"},{"date":"2020.10.07","time":"20:40:28","latitude":"39.7867","longitude":"27.5840","depth":"7.4","md":"-.-","ml":"1.2","mw":"-.-","location":"YAZLIK-BALYA (BALIKESIR)"},{"date":"2020.10.07","time":"20:24:42","latitude":"38.0382","longitude":"34.0957","depth":"2.5","md":"-.-","ml":"1.5","mw":"-.-","location":"KECIKALESI-ALTUNHISAR (NIGDE)"},{"date":"2020.10.07","time":"19:31:31","latitude":"38.0085","longitude":"34.0717","depth":"6.0","md":"-.-","ml":"2.2","mw":"-.-","location":"OBRUK-BOR (NIGDE)"},{"date":"2020.10.07","time":"18:46:17","latitude":"38.4123","longitude":"39.2760","depth":"21.0","md":"-.-","ml":"1.8","mw":"-.-","location":"YEDIKARDES-SIVRICE (ELAZIG)"},{"date":"2020.10.07","time":"17:55:45","latitude":"39.8848","longitude":"33.0590","depth":"0.0","md":"-.-","ml":"1.5","mw":"-.-","location":"MAMAK (ANKARA)"},{"date":"2020.10.07","time":"16:42:58","latitude":"38.3635","longitude":"39.6048","depth":"11.8","md":"-.-","ml":"2.3","mw":"-.-","location":"CAYIRKOY-MADEN (ELAZIG)"},{"date":"2020.10.07","time":"16:26:44","latitude":"38.4825","longitude":"39.2407","depth":"3.8","md":"-.-","ml":"3.5","mw":"3.5","location":"ALINCIK-SIVRICE (ELAZIG)"},{"date":"2020.10.07","time":"16:10:09","latitude":"37.1018","longitude":"27.8657","depth":"8.9","md":"-.-","ml":"1.7","mw":"-.-","location":"BAYIRKOY-MILAS (MUGLA)"},{"date":"2020.10.07","time":"16:08:18","latitude":"37.1083","longitude":"27.8660","depth":"5.4","md":"-.-","ml":"2.3","mw":"-.-","location":"BAYIRKOY-MILAS (MUGLA)"},{"date":"2020.10.07","time":"15:16:28","latitude":"35.8655","longitude":"32.7258","depth":"25.6","md":"-.-","ml":"2.1","mw":"-.-","location":"ANAMUR ACIKLARI-MERSIN (AKDENIZ)"},{"date":"2020.10.07","time":"14:27:43","latitude":"36.0177","longitude":"30.7553","depth":"16.2","md":"-.-","ml":"2.6","mw":"-.-","location":"AKDENIZ"},{"date":"2020.10.07","time":"14:12:41","latitude":"36.0238","longitude":"30.7987","depth":"1.7","md":"-.-","ml":"2.6","mw":"-.-","location":"AKDENIZ"},{"date":"2020.10.07","time":"14:01:18","latitude":"36.7385","longitude":"29.9395","depth":"5.0","md":"-.-","ml":"1.2","mw":"-.-","location":"ELMALI (ANTALYA)"},{"date":"2020.10.07","time":"13:34:58","latitude":"38.2040","longitude":"38.7462","depth":"10.3","md":"-.-","ml":"2.2","mw":"-.-","location":"PAZARCIK-PUTURGE (MALATYA)"},{"date":"2020.10.07","time":"13:16:54","latitude":"39.8748","longitude":"33.0570","depth":"9.0","md":"-.-","ml":"1.6","mw":"-.-","location":"MAMAK (ANKARA)"},{"date":"2020.10.07","time":"13:05:17","latitude":"39.9058","longitude":"28.8565","depth":"0.0","md":"-.-","ml":"1.7","mw":"-.-","location":"DUNDAR-ORHANELI (BURSA)"},{"date":"2020.10.07","time":"13:03:00","latitude":"36.9537","longitude":"28.2415","depth":"5.0","md":"-.-","ml":"1.2","mw":"-.-","location":"CAMLI-MARMARIS (MUGLA)"},{"date":"2020.10.07","time":"12:27:44","latitude":"39.2753","longitude":"27.6058","depth":"14.3","md":"-.-","ml":"1.5","mw":"-.-","location":"HECIZ-SOMA (MANISA)"},{"date":"2020.10.07","time":"12:06:46","latitude":"39.8290","longitude":"29.6278","depth":"0.0","md":"-.-","ml":"1.9","mw":"-.-","location":"DURABEY-DOMANIC (KUTAHYA)"},{"date":"2020.10.07","time":"11:52:09","latitude":"37.2337","longitude":"28.1627","depth":"0.0","md":"-.-","ml":"1.6","mw":"-.-","location":"CAYBUKU-(MUGLA)"},{"date":"2020.10.07","time":"11:51:46","latitude":"39.9983","longitude":"30.1583","depth":"0.0","md":"-.-","ml":"1.8","mw":"-.-","location":"KIZILSARAY-SOGUT (BILECIK)"},{"date":"2020.10.07","time":"11:45:20","latitude":"40.5382","longitude":"29.2583","depth":"0.0","md":"-.-","ml":"1.8","mw":"-.-","location":"HAMZALI-ORHANGAZI (BURSA)"},{"date":"2020.10.07","time":"11:29:03","latitude":"36.8725","longitude":"27.9833","depth":"5.0","md":"-.-","ml":"1.4","mw":"-.-","location":"GOKOVA KORFEZI (AKDENIZ)"},{"date":"2020.10.07","time":"11:02:09","latitude":"39.8380","longitude":"24.3575","depth":"5.0","md":"-.-","ml":"2.6","mw":"-.-","location":"YUNANISTAN"},{"date":"2020.10.07","time":"10:08:31","latitude":"39.4338","longitude":"28.0878","depth":"9.9","md":"-.-","ml":"1.3","mw":"-.-","location":"BADEMLI-BIGADIC (BALIKESIR)"},{"date":"2020.10.07","time":"09:32:55","latitude":"36.8785","longitude":"26.6905","depth":"22.1","md":"-.-","ml":"1.8","mw":"-.-","location":"AKDENIZ"},{"date":"2020.10.07","time":"09:17:55","latitude":"36.8707","longitude":"28.0083","depth":"6.6","md":"-.-","ml":"1.7","mw":"-.-","location":"GOKOVA KORFEZI (AKDENIZ)"},{"date":"2020.10.07","time":"07:55:22","latitude":"37.9988","longitude":"34.1073","depth":"5.0","md":"-.-","ml":"2.9","mw":"-.-","location":"KECIKALESI-ALTUNHISAR (NIGDE)"},{"date":"2020.10.07","time":"07:35:27","latitude":"37.9897","longitude":"34.0870","depth":"5.4","md":"-.-","ml":"2.6","mw":"-.-","location":"OBRUK-BOR (NIGDE)"},{"date":"2020.10.07","time":"05:35:03","latitude":"38.5360","longitude":"25.7607","depth":"7.6","md":"-.-","ml":"3.0","mw":"3.1","location":"SAKIZ ADASI (EGE DENIZI)"},{"date":"2020.10.07","time":"05:30:53","latitude":"39.1557","longitude":"28.9898","depth":"5.4","md":"-.-","ml":"2.5","mw":"-.-","location":"NASA-SIMAV (KUTAHYA)"},{"date":"2020.10.07","time":"05:01:01","latitude":"40.8763","longitude":"28.2140","depth":"14.7","md":"-.-","ml":"1.9","mw":"-.-","location":"SILIVRI ACIKLARI-ISTANBUL (MARMARA DENIZI)"},{"date":"2020.10.07","time":"04:59:35","latitude":"36.8892","longitude":"28.0032","depth":"5.2","md":"-.-","ml":"1.1","mw":"-.-","location":"GOKOVA KORFEZI (AKDENIZ)"},{"date":"2020.10.07","time":"02:35:23","latitude":"39.7547","longitude":"33.3592","depth":"5.2","md":"-.-","ml":"2.6","mw":"-.-","location":"CAMLICA-BAHSILI (KIRIKKALE)"},{"date":"2020.10.07","time":"00:17:01","latitude":"34.9080","longitude":"24.2315","depth":"7.1","md":"-.-","ml":"2.4","mw":"-.-","location":"GIRIT ADASI (AKDENIZ)"},{"date":"2020.10.07","time":"00:04:27","latitude":"40.0342","longitude":"24.4200","depth":"5.0","md":"-.-","ml":"2.5","mw":"-.-","location":"YUNANISTAN"},{"date":"2020.10.06","time":"20:21:27","latitude":"35.4187","longitude":"22.3023","depth":"84.7","md":"-.-","ml":"3.8","mw":"3.8","location":"YUNANISTAN"},{"date":"2020.10.06","time":"19:17:23","latitude":"36.9377","longitude":"27.4917","depth":"14.9","md":"-.-","ml":"1.4","mw":"-.-","location":"GOKOVA KORFEZI (AKDENIZ)"},{"date":"2020.10.06","time":"18:55:29","latitude":"36.9433","longitude":"27.6078","depth":"4.8","md":"-.-","ml":"1.7","mw":"-.-","location":"GOKOVA KORFEZI (AKDENIZ)"},{"date":"2020.10.06","time":"18:17:20","latitude":"39.1592","longitude":"29.0578","depth":"6.9","md":"-.-","ml":"1.9","mw":"-.-","location":"AHLATLICESME-SIMAV (KUTAHYA)"},{"date":"2020.10.06","time":"18:07:27","latitude":"39.2170","longitude":"27.6510","depth":"4.4","md":"-.-","ml":"2.3","mw":"-.-","location":"EVCILER-SOMA (MANISA)"},{"date":"2020.10.06","time":"17:12:13","latitude":"37.9898","longitude":"34.0237","depth":"5.0","md":"-.-","ml":"2.1","mw":"-.-","location":"OBRUK-BOR (NIGDE)"},{"date":"2020.10.06","time":"16:18:11","latitude":"40.8732","longitude":"25.5962","depth":"6.2","md":"-.-","ml":"1.4","mw":"-.-","location":"EGE DENIZI"},{"date":"2020.10.06","time":"15:56:30","latitude":"39.2102","longitude":"27.3658","depth":"12.6","md":"-.-","ml":"1.7","mw":"-.-","location":"ALIBEYLI-BERGAMA (IZMIR)"},{"date":"2020.10.06","time":"15:39:05","latitude":"36.9428","longitude":"29.4305","depth":"17.9","md":"-.-","ml":"2.0","mw":"-.-","location":"ELMALIYURT-GOLHISAR (BURDUR)"},{"date":"2020.10.06","time":"15:28:00","latitude":"40.1557","longitude":"29.9777","depth":"0.0","md":"-.-","ml":"1.6","mw":"-.-","location":"BILECIK (BILECIK)"},{"date":"2020.10.06","time":"14:37:54","latitude":"36.9583","longitude":"34.7832","depth":"0.0","md":"-.-","ml":"1.4","mw":"-.-","location":"DEDELER-TARSUS (MERSIN)"},{"date":"2020.10.06","time":"14:30:03","latitude":"40.7917","longitude":"30.9165","depth":"11.5","md":"-.-","ml":"2.3","mw":"-.-","location":"DEREKOY-GUMUSOVA (DUZCE)"},{"date":"2020.10.06","time":"13:59:19","latitude":"39.0557","longitude":"29.7320","depth":"29.5","md":"-.-","ml":"1.6","mw":"-.-","location":"TOKUL-ASLANAPA (KUTAHYA)"},{"date":"2020.10.06","time":"13:50:04","latitude":"39.8995","longitude":"28.8917","depth":"0.0","md":"-.-","ml":"1.6","mw":"-.-","location":"YESILLER-ORHANELI (BURSA)"},{"date":"2020.10.06","time":"13:25:36","latitude":"38.1822","longitude":"38.7590","depth":"19.1","md":"-.-","ml":"2.2","mw":"-.-","location":"YAZICA-PUTURGE (MALATYA)"},{"date":"2020.10.06","time":"13:12:54","latitude":"41.1783","longitude":"28.8155","depth":"0.0","md":"-.-","ml":"0.9","mw":"-.-","location":"PIRINCCI-EYUP (ISTANBUL)"},{"date":"2020.10.06","time":"12:45:58","latitude":"40.2755","longitude":"30.6967","depth":"4.8","md":"-.-","ml":"2.0","mw":"-.-","location":"SARICALAR-GOYNUK (BOLU)"},{"date":"2020.10.06","time":"12:30:54","latitude":"37.2637","longitude":"28.4532","depth":"22.3","md":"-.-","ml":"1.4","mw":"-.-","location":"OZLUCE-(MUGLA)"},{"date":"2020.10.06","time":"12:29:18","latitude":"39.3452","longitude":"33.4168","depth":"0.0","md":"-.-","ml":"1.8","mw":"-.-","location":"KUCUKCAMILI-BALA (ANKARA)"},{"date":"2020.10.06","time":"12:24:22","latitude":"37.2205","longitude":"28.1743","depth":"0.0","md":"-.-","ml":"1.7","mw":"-.-","location":"CAYBUKU-(MUGLA)"},{"date":"2020.10.06","time":"12:15:45","latitude":"40.8343","longitude":"29.4665","depth":"0.0","md":"-.-","ml":"1.2","mw":"-.-","location":"PELITLI-GEBZE (KOCAELI)"},{"date":"2020.10.06","time":"12:05:24","latitude":"38.3372","longitude":"39.3630","depth":"26.4","md":"-.-","ml":"1.8","mw":"-.-","location":"CAKIROGLU-MADEN (ELAZIG)"},{"date":"2020.10.06","time":"11:58:30","latitude":"38.2667","longitude":"38.8245","depth":"1.4","md":"-.-","ml":"3.5","mw":"3.4","location":"AKTARLI-PUTURGE (MALATYA)"},{"date":"2020.10.06","time":"11:36:43","latitude":"39.1472","longitude":"27.5358","depth":"0.0","md":"-.-","ml":"1.5","mw":"-.-","location":"AVDAN-SOMA (MANISA)"},{"date":"2020.10.06","time":"10:28:59","latitude":"39.5303","longitude":"38.6770","depth":"9.1","md":"-.-","ml":"2.6","mw":"-.-","location":"KAYABASI-KEMAH (ERZINCAN)"},{"date":"2020.10.06","time":"10:23:25","latitude":"38.9868","longitude":"27.4905","depth":"17.7","md":"-.-","ml":"1.5","mw":"-.-","location":"ARPADERE-KINIK (IZMIR)"},{"date":"2020.10.06","time":"09:30:49","latitude":"36.7968","longitude":"26.4960","depth":"19.0","md":"-.-","ml":"2.2","mw":"-.-","location":"AKDENIZ"},{"date":"2020.10.06","time":"09:16:35","latitude":"36.9478","longitude":"27.7045","depth":"6.7","md":"-.-","ml":"2.7","mw":"-.-","location":"GOKOVA KORFEZI (AKDENIZ)"},{"date":"2020.10.06","time":"08:50:18","latitude":"37.9900","longitude":"34.0842","depth":"5.0","md":"-.-","ml":"3.0","mw":"2.9","location":"OBRUK-BOR (NIGDE)"},{"date":"2020.10.06","time":"07:04:00","latitude":"40.3245","longitude":"24.0580","depth":"5.0","md":"-.-","ml":"1.9","mw":"-.-","location":"YUNANISTAN"},{"date":"2020.10.06","time":"06:47:54","latitude":"38.6912","longitude":"38.0557","depth":"8.3","md":"-.-","ml":"1.2","mw":"-.-","location":"ALICAN-YAZIHAN (MALATYA)"},{"date":"2020.10.06","time":"06:19:13","latitude":"39.4828","longitude":"25.8268","depth":"6.8","md":"-.-","ml":"1.8","mw":"-.-","location":"GULPINAR ACIKLARI-CANAKKALE (EGE DENIZI)"},{"date":"2020.10.06","time":"06:18:45","latitude":"38.8173","longitude":"26.8940","depth":"6.3","md":"-.-","ml":"1.6","mw":"-.-","location":"CANDARLI KORFEZI (EGE DENIZI)"},{"date":"2020.10.06","time":"06:06:58","latitude":"38.7253","longitude":"38.0600","depth":"13.4","md":"-.-","ml":"1.2","mw":"-.-","location":"YESILPINAR-HEKIMHAN (MALATYA)"},{"date":"2020.10.06","time":"06:06:41","latitude":"35.8950","longitude":"28.1950","depth":"5.0","md":"-.-","ml":"2.2","mw":"-.-","location":"AKDENIZ"},{"date":"2020.10.06","time":"06:03:59","latitude":"38.4988","longitude":"40.5453","depth":"8.9","md":"-.-","ml":"2.0","mw":"-.-","location":"ERGIN-LICE (DIYARBAKIR)"},{"date":"2020.10.06","time":"05:54:13","latitude":"36.7212","longitude":"28.0283","depth":"19.1","md":"-.-","ml":"1.0","mw":"-.-","location":"BOZBURUN-MARMARIS (MUGLA)"},{"date":"2020.10.06","time":"04:46:31","latitude":"37.8367","longitude":"27.3302","depth":"4.9","md":"-.-","ml":"1.5","mw":"-.-","location":"YENIKOY-KUSADASI (AYDIN)"},{"date":"2020.10.06","time":"04:46:29","latitude":"39.8593","longitude":"39.8775","depth":"8.3","md":"-.-","ml":"2.3","mw":"-.-","location":"DOGANYUVA-CAYIRLI (ERZINCAN)"},{"date":"2020.10.06","time":"04:42:41","latitude":"38.8273","longitude":"43.3642","depth":"13.5","md":"-.-","ml":"1.5","mw":"-.-","location":"YAYLIYAKA-(VAN)"},{"date":"2020.10.06","time":"04:38:24","latitude":"37.8315","longitude":"27.2643","depth":"5.4","md":"-.-","ml":"2.2","mw":"-.-","location":"KUSADASI (AYDIN)"},{"date":"2020.10.06","time":"03:31:26","latitude":"35.4710","longitude":"29.5598","depth":"8.6","md":"-.-","ml":"1.6","mw":"-.-","location":"AKDENIZ"},{"date":"2020.10.06","time":"03:18:08","latitude":"35.0553","longitude":"30.7832","depth":"30.2","md":"-.-","ml":"2.3","mw":"-.-","location":"AKDENIZ"},{"date":"2020.10.06","time":"02:45:55","latitude":"35.8217","longitude":"28.2205","depth":"5.0","md":"-.-","ml":"2.0","mw":"-.-","location":"AKDENIZ"},{"date":"2020.10.06","time":"02:38:18","latitude":"35.8093","longitude":"28.2200","depth":"5.0","md":"-.-","ml":"1.2","mw":"-.-","location":"AKDENIZ"},{"date":"2020.10.06","time":"01:04:20","latitude":"36.7918","longitude":"28.1038","depth":"21.0","md":"-.-","ml":"0.6","mw":"-.-","location":"HISARONU-MARMARIS (MUGLA)"},{"date":"2020.10.06","time":"00:58:48","latitude":"35.8318","longitude":"28.2372","depth":"5.0","md":"-.-","ml":"1.3","mw":"-.-","location":"AKDENIZ"},{"date":"2020.10.06","time":"00:54:12","latitude":"37.3778","longitude":"27.9392","depth":"5.0","md":"-.-","ml":"1.3","mw":"-.-","location":"KATRANCI-YATAGAN (MUGLA)"},{"date":"2020.10.05","time":"23:50:26","latitude":"34.4287","longitude":"25.3138","depth":"86.3","md":"-.-","ml":"3.3","mw":"3.4","location":"GIRIT ADASI ACIKLARI (AKDENIZ)"},{"date":"2020.10.05","time":"23:35:35","latitude":"39.4250","longitude":"29.2890","depth":"10.3","md":"-.-","ml":"1.3","mw":"-.-","location":"GUNLUCE-EMET (KUTAHYA)"},{"date":"2020.10.05","time":"23:20:36","latitude":"36.5448","longitude":"28.8042","depth":"12.7","md":"-.-","ml":"2.0","mw":"-.-","location":"AKDENIZ"},{"date":"2020.10.05","time":"22:53:00","latitude":"38.7085","longitude":"43.0705","depth":"19.4","md":"-.-","ml":"1.8","mw":"-.-","location":"VAN GOLU"},{"date":"2020.10.05","time":"22:10:32","latitude":"41.1135","longitude":"44.0093","depth":"5.0","md":"-.-","ml":"3.2","mw":"3.3","location":"ERMEN\ufffdSTAN"},{"date":"2020.10.05","time":"20:35:40","latitude":"39.3487","longitude":"40.6935","depth":"5.8","md":"-.-","ml":"2.3","mw":"-.-","location":"DINARBEY-YEDISU (BINGOL)"},{"date":"2020.10.05","time":"20:27:16","latitude":"35.8035","longitude":"28.2677","depth":"7.9","md":"-.-","ml":"2.0","mw":"-.-","location":"AKDENIZ"},{"date":"2020.10.05","time":"19:39:47","latitude":"40.8062","longitude":"28.0427","depth":"13.7","md":"-.-","ml":"2.2","mw":"-.-","location":"MARMARA DENIZI"},{"date":"2020.10.05","time":"19:12:17","latitude":"38.2875","longitude":"38.8428","depth":"1.5","md":"-.-","ml":"3.3","mw":"3.4","location":"GUNDEGER-PUTURGE (MALATYA)"},{"date":"2020.10.05","time":"18:47:43","latitude":"37.8352","longitude":"32.7012","depth":"4.8","md":"-.-","ml":"1.6","mw":"-.-","location":"BAKIRTOLU-KARATAY (KONYA)"},{"date":"2020.10.05","time":"18:30:37","latitude":"36.9868","longitude":"27.3670","depth":"9.4","md":"-.-","ml":"1.8","mw":"-.-","location":"YALI-BODRUM (MUGLA)"},{"date":"2020.10.05","time":"18:27:13","latitude":"37.7067","longitude":"32.2600","depth":"9.5","md":"-.-","ml":"1.2","mw":"-.-","location":"KUMRALI-MERAM (KONYA)"},{"date":"2020.10.05","time":"18:22:35","latitude":"38.9602","longitude":"26.6958","depth":"13.3","md":"-.-","ml":"2.1","mw":"-.-","location":"DENIZKOY-DIKILI (IZMIR)"},{"date":"2020.10.05","time":"17:57:52","latitude":"39.8580","longitude":"23.5578","depth":"15.1","md":"-.-","ml":"4.0","mw":"4.1","location":"YUNANISTAN"},{"date":"2020.10.05","time":"17:55:09","latitude":"39.9362","longitude":"24.3797","depth":"8.2","md":"-.-","ml":"3.8","mw":"3.9","location":"YUNANISTAN"},{"date":"2020.10.05","time":"16:15:54","latitude":"37.9852","longitude":"34.1072","depth":"1.4","md":"-.-","ml":"2.3","mw":"-.-","location":"OBRUK-BOR (NIGDE)"},{"date":"2020.10.05","time":"16:13:27","latitude":"38.0392","longitude":"34.1332","depth":"1.9","md":"-.-","ml":"2.2","mw":"-.-","location":"KECIKALESI-ALTUNHISAR (NIGDE)"},{"date":"2020.10.05","time":"16:00:54","latitude":"39.0208","longitude":"43.9462","depth":"3.5","md":"-.-","ml":"2.1","mw":"-.-","location":"SALHANE-CALDIRAN (VAN)"},{"date":"2020.10.05","time":"15:39:38","latitude":"40.9153","longitude":"31.8092","depth":"13.0","md":"-.-","ml":"1.7","mw":"-.-","location":"HAYRANLAR-MENGEN (BOLU)"},{"date":"2020.10.05","time":"14:53:37","latitude":"40.8558","longitude":"28.2523","depth":"5.4","md":"-.-","ml":"1.7","mw":"-.-","location":"SILIVRI ACIKLARI-ISTANBUL (MARMARA DENIZI)"},{"date":"2020.10.05","time":"14:45:30","latitude":"37.2115","longitude":"27.9112","depth":"0.0","md":"-.-","ml":"1.4","mw":"-.-","location":"KAYADERE-MILAS (MUGLA)"},{"date":"2020.10.05","time":"14:28:21","latitude":"35.7990","longitude":"28.2220","depth":"8.2","md":"-.-","ml":"2.6","mw":"-.-","location":"AKDENIZ"},{"date":"2020.10.05","time":"13:55:13","latitude":"38.0668","longitude":"26.1482","depth":"5.0","md":"-.-","ml":"2.0","mw":"-.-","location":"EGE DENIZI"},{"date":"2020.10.05","time":"13:45:30","latitude":"38.0023","longitude":"34.0697","depth":"5.0","md":"-.-","ml":"3.1","mw":"3.1","location":"OBRUK-BOR (NIGDE)"},{"date":"2020.10.05","time":"13:08:26","latitude":"39.1270","longitude":"27.5722","depth":"0.0","md":"-.-","ml":"1.8","mw":"-.-","location":"DEREKOY-SOMA (MANISA)"},{"date":"2020.10.05","time":"12:29:04","latitude":"39.9402","longitude":"28.8425","depth":"0.0","md":"-.-","ml":"1.8","mw":"-.-","location":"GUMUSPINAR-ORHANELI (BURSA)"},{"date":"2020.10.05","time":"12:17:24","latitude":"39.8505","longitude":"26.2422","depth":"5.0","md":"-.-","ml":"1.6","mw":"-.-","location":"BOZALAN-EZINE (CANAKKALE)"},{"date":"2020.10.05","time":"12:03:28","latitude":"39.6912","longitude":"29.3365","depth":"0.0","md":"-.-","ml":"1.3","mw":"-.-","location":"ELMAAGACI-TAVSANLI (KUTAHYA)"},{"date":"2020.10.05","time":"11:59:52","latitude":"37.2498","longitude":"28.1923","depth":"0.0","md":"-.-","ml":"1.6","mw":"-.-","location":"PASAPINARI-(MUGLA)"},{"date":"2020.10.05","time":"11:52:54","latitude":"37.2462","longitude":"28.1755","depth":"0.0","md":"-.-","ml":"1.4","mw":"-.-","location":"CAYBUKU-(MUGLA)"},{"date":"2020.10.05","time":"11:46:28","latitude":"39.6643","longitude":"29.4283","depth":"0.0","md":"-.-","ml":"1.4","mw":"-.-","location":"BOZBELEN-TAVSANLI (KUTAHYA)"},{"date":"2020.10.05","time":"11:15:54","latitude":"39.9990","longitude":"28.9045","depth":"0.0","md":"-.-","ml":"2.2","mw":"-.-","location":"NALINLAR-ORHANELI (BURSA)"},{"date":"2020.10.05","time":"10:40:34","latitude":"39.7190","longitude":"27.5612","depth":"17.8","md":"-.-","ml":"1.5","mw":"-.-","location":"CAKALLAR-BALYA (BALIKESIR)"},{"date":"2020.10.05","time":"10:23:19","latitude":"39.4500","longitude":"28.0938","depth":"6.8","md":"-.-","ml":"1.4","mw":"-.-","location":"KADIKOY-BIGADIC (BALIKESIR)"},{"date":"2020.10.05","time":"09:39:54","latitude":"38.7917","longitude":"38.0618","depth":"22.3","md":"-.-","ml":"1.8","mw":"-.-","location":"YAGCA-HEKIMHAN (MALATYA)"},{"date":"2020.10.05","time":"09:21:38","latitude":"39.5437","longitude":"26.1830","depth":"4.8","md":"-.-","ml":"1.5","mw":"-.-","location":"YUKARIKOY-AYVACIK (CANAKKALE)"},{"date":"2020.10.05","time":"08:58:46","latitude":"37.0013","longitude":"27.7595","depth":"0.0","md":"-.-","ml":"1.3","mw":"-.-","location":"MAZIKOY-BODRUM (MUGLA)"},{"date":"2020.10.05","time":"08:43:20","latitude":"37.7317","longitude":"32.1800","depth":"0.0","md":"-.-","ml":"1.6","mw":"-.-","location":"KAYALI-MERAM (KONYA)"},{"date":"2020.10.05","time":"07:39:30","latitude":"37.0968","longitude":"28.9948","depth":"10.9","md":"-.-","ml":"1.6","mw":"-.-","location":"KARACAM-KOYCEGIZ (MUGLA)"},{"date":"2020.10.05","time":"06:57:36","latitude":"35.8357","longitude":"28.1948","depth":"5.0","md":"-.-","ml":"1.8","mw":"-.-","location":"AKDENIZ"},{"date":"2020.10.05","time":"06:44:28","latitude":"40.0813","longitude":"24.2152","depth":"28.3","md":"-.-","ml":"3.1","mw":"3.2","location":"YUNANISTAN"},{"date":"2020.10.05","time":"06:26:22","latitude":"37.7202","longitude":"32.1425","depth":"13.5","md":"-.-","ml":"0.8","mw":"-.-","location":"KAYALI-MERAM (KONYA)"},{"date":"2020.10.05","time":"05:34:57","latitude":"37.9013","longitude":"28.1863","depth":"3.6","md":"-.-","ml":"1.2","mw":"-.-","location":"YAGDERE-SULTANHISAR (AYDIN)"},{"date":"2020.10.05","time":"04:48:52","latitude":"35.2877","longitude":"29.6220","depth":"7.6","md":"-.-","ml":"1.9","mw":"-.-","location":"AKDENIZ"},{"date":"2020.10.05","time":"04:06:08","latitude":"39.1418","longitude":"29.0223","depth":"5.6","md":"-.-","ml":"1.6","mw":"-.-","location":"HACIAHMETOGLU-SIMAV (KUTAHYA)"},{"date":"2020.10.05","time":"03:04:25","latitude":"39.0678","longitude":"43.6022","depth":"6.3","md":"-.-","ml":"1.3","mw":"-.-","location":"TOPRAKLI-ERCIS (VAN)"},{"date":"2020.10.05","time":"02:53:29","latitude":"38.4518","longitude":"39.1602","depth":"11.3","md":"-.-","ml":"1.6","mw":"-.-","location":"KAVALLI-SIVRICE (ELAZIG)"},{"date":"2020.10.05","time":"02:46:11","latitude":"38.6175","longitude":"31.0370","depth":"8.0","md":"-.-","ml":"1.6","mw":"-.-","location":"CAY (AFYONKARAHISAR)"},{"date":"2020.10.05","time":"02:29:43","latitude":"35.1293","longitude":"29.7760","depth":"5.0","md":"-.-","ml":"2.4","mw":"-.-","location":"AKDENIZ"},{"date":"2020.10.05","time":"01:38:49","latitude":"39.4602","longitude":"26.9047","depth":"10.9","md":"-.-","ml":"1.8","mw":"-.-","location":"PELITKOY-BURHANIYE (BALIKESIR)"},{"date":"2020.10.05","time":"01:38:07","latitude":"34.3667","longitude":"25.8880","depth":"83.0","md":"-.-","ml":"2.7","mw":"-.-","location":"GIRIT ADASI ACIKLARI (AKDENIZ)"},{"date":"2020.10.05","time":"01:31:19","latitude":"37.7592","longitude":"32.2077","depth":"7.9","md":"-.-","ml":"1.8","mw":"-.-","location":"ERENKAYA-MERAM (KONYA)"},{"date":"2020.10.05","time":"01:20:16","latitude":"33.7105","longitude":"24.9522","depth":"77.9","md":"-.-","ml":"3.3","mw":"3.3","location":"GIRIT ADASI ACIKLARI (AKDENIZ)"},{"date":"2020.10.05","time":"01:07:48","latitude":"36.8700","longitude":"27.9653","depth":"7.7","md":"-.-","ml":"1.3","mw":"-.-","location":"GOKOVA KORFEZI (AKDENIZ)"},{"date":"2020.10.04","time":"23:47:29","latitude":"37.7605","longitude":"32.0805","depth":"5.2","md":"-.-","ml":"1.0","mw":"-.-","location":"YATAGAN-MERAM (KONYA)"},{"date":"2020.10.04","time":"23:45:58","latitude":"37.7237","longitude":"32.1380","depth":"5.4","md":"-.-","ml":"1.3","mw":"-.-","location":"KAYALI-MERAM (KONYA)"},{"date":"2020.10.04","time":"23:38:30","latitude":"37.7592","longitude":"32.1697","depth":"4.5","md":"-.-","ml":"2.1","mw":"-.-","location":"ERENKAYA-MERAM (KONYA)"},{"date":"2020.10.04","time":"23:33:29","latitude":"37.7750","longitude":"32.1470","depth":"17.1","md":"-.-","ml":"1.1","mw":"-.-","location":"SEFAKOY-MERAM (KONYA)"},{"date":"2020.10.04","time":"22:43:03","latitude":"35.0003","longitude":"26.4238","depth":"8.2","md":"-.-","ml":"2.9","mw":"-.-","location":"GIRIT ADASI ACIKLARI (AKDENIZ)"},{"date":"2020.10.04","time":"22:18:20","latitude":"37.7540","longitude":"32.1245","depth":"5.4","md":"-.-","ml":"1.9","mw":"-.-","location":"ERENKAYA-MERAM (KONYA)"},{"date":"2020.10.04","time":"22:00:20","latitude":"37.7060","longitude":"32.2705","depth":"14.6","md":"-.-","ml":"1.2","mw":"-.-","location":"KUMRALI-MERAM (KONYA)"},{"date":"2020.10.04","time":"21:48:44","latitude":"36.9515","longitude":"27.3405","depth":"7.5","md":"-.-","ml":"2.0","mw":"-.-","location":"GOKOVA KORFEZI (AKDENIZ)"},{"date":"2020.10.04","time":"20:59:37","latitude":"38.4580","longitude":"39.3573","depth":"13.0","md":"-.-","ml":"0.9","mw":"-.-","location":"SUREK-SIVRICE (ELAZIG)"},{"date":"2020.10.04","time":"20:32:32","latitude":"38.3910","longitude":"39.2638","depth":"7.3","md":"-.-","ml":"1.9","mw":"-.-","location":"SOGUKPINAR-SIVRICE (ELAZIG)"},{"date":"2020.10.04","time":"19:07:54","latitude":"36.9570","longitude":"27.5267","depth":"1.4","md":"-.-","ml":"1.5","mw":"-.-","location":"GOKOVA KORFEZI (AKDENIZ)"},{"date":"2020.10.04","time":"18:45:42","latitude":"36.9508","longitude":"27.5997","depth":"4.0","md":"-.-","ml":"1.9","mw":"-.-","location":"GOKOVA KORFEZI (AKDENIZ)"},{"date":"2020.10.04","time":"18:21:38","latitude":"38.4015","longitude":"39.2163","depth":"3.5","md":"-.-","ml":"1.9","mw":"-.-","location":"DORTBOLUK-SIVRICE (ELAZIG)"},{"date":"2020.10.04","time":"18:16:15","latitude":"36.9847","longitude":"27.6692","depth":"10.4","md":"-.-","ml":"1.6","mw":"-.-","location":"GOKOVA KORFEZI (AKDENIZ)"},{"date":"2020.10.04","time":"17:56:13","latitude":"36.9005","longitude":"31.6620","depth":"137.8","md":"-.-","ml":"2.6","mw":"-.-","location":"HOCAKOY-AKSEKI (ANTALYA)"},{"date":"2020.10.04","time":"17:03:38","latitude":"36.0063","longitude":"31.1387","depth":"5.4","md":"-.-","ml":"2.4","mw":"-.-","location":"AKDENIZ"},{"date":"2020.10.04","time":"13:38:50","latitude":"38.4507","longitude":"31.8143","depth":"5.5","md":"-.-","ml":"1.9","mw":"-.-","location":"KUNDULLU-TUZLUKCU (KONYA)"},{"date":"2020.10.04","time":"13:33:08","latitude":"38.8625","longitude":"26.6417","depth":"10.7","md":"-.-","ml":"2.9","mw":"-.-","location":"EGE DENIZI"},{"date":"2020.10.04","time":"13:05:04","latitude":"37.0427","longitude":"34.4465","depth":"5.2","md":"-.-","ml":"1.4","mw":"-.-","location":"HOROZLU-TOROSLAR (MERSIN)"},{"date":"2020.10.04","time":"12:51:38","latitude":"39.9612","longitude":"28.7888","depth":"0.0","md":"-.-","ml":"1.7","mw":"-.-","location":"OMERALTI-MUSTAFAKEMALPASA (BURSA)"},{"date":"2020.10.04","time":"12:31:19","latitude":"37.5868","longitude":"29.2392","depth":"0.0","md":"-.-","ml":"1.2","mw":"-.-","location":"SERINHISAR (DENIZLI)"},{"date":"2020.10.04","time":"11:15:38","latitude":"38.9697","longitude":"26.0042","depth":"4.2","md":"-.-","ml":"1.7","mw":"-.-","location":"EGE DENIZI"},{"date":"2020.10.04","time":"10:17:35","latitude":"39.3850","longitude":"28.0877","depth":"11.7","md":"-.-","ml":"1.8","mw":"-.-","location":"BALATLI-BIGADIC (BALIKESIR)"},{"date":"2020.10.04","time":"10:16:48","latitude":"35.7775","longitude":"26.9352","depth":"5.4","md":"-.-","ml":"2.9","mw":"-.-","location":"AKDENIZ"},{"date":"2020.10.04","time":"10:14:05","latitude":"35.7218","longitude":"28.5123","depth":"6.0","md":"-.-","ml":"2.0","mw":"-.-","location":"AKDENIZ"},{"date":"2020.10.04","time":"09:10:34","latitude":"36.9708","longitude":"34.4163","depth":"6.0","md":"-.-","ml":"2.9","mw":"-.-","location":"YUKSEKOLUK-TOROSLAR (MERSIN)"},{"date":"2020.10.04","time":"08:46:02","latitude":"36.9153","longitude":"26.6413","depth":"8.6","md":"-.-","ml":"1.9","mw":"-.-","location":"AKDENIZ"},{"date":"2020.10.04","time":"07:23:02","latitude":"36.9863","longitude":"27.9020","depth":"17.3","md":"-.-","ml":"1.2","mw":"-.-","location":"TURKEVLERI-MILAS (MUGLA)"},{"date":"2020.10.04","time":"06:50:23","latitude":"39.0852","longitude":"27.8170","depth":"4.1","md":"-.-","ml":"1.5","mw":"-.-","location":"ILYASLAR-KIRKAGAC (MANISA)"},{"date":"2020.10.04","time":"06:32:37","latitude":"40.6600","longitude":"27.2610","depth":"13.6","md":"-.-","ml":"1.6","mw":"-.-","location":"MUREFTE-SARKOY (TEKIRDAG)"},{"date":"2020.10.04","time":"06:24:59","latitude":"39.8478","longitude":"38.9318","depth":"5.8","md":"-.-","ml":"1.8","mw":"-.-","location":"KIRBULAK-REFAHIYE (ERZINCAN)"},{"date":"2020.10.04","time":"05:44:55","latitude":"35.4002","longitude":"26.9670","depth":"29.9","md":"-.-","ml":"3.5","mw":"3.6","location":"AKDENIZ"},{"date":"2020.10.04","time":"05:36:47","latitude":"40.5458","longitude":"28.1420","depth":"5.1","md":"-.-","ml":"2.3","mw":"-.-","location":"ERDEK ACIKLARI-BALIKESIR (MARMARA DENIZI)"},{"date":"2020.10.04","time":"05:30:05","latitude":"35.4345","longitude":"26.9552","depth":"63.4","md":"-.-","ml":"1.9","mw":"-.-","location":"AKDENIZ"},{"date":"2020.10.04","time":"04:27:30","latitude":"37.7730","longitude":"29.3553","depth":"9.8","md":"-.-","ml":"1.4","mw":"-.-","location":"KIZILYER-HONAZ (DENIZLI)"},{"date":"2020.10.04","time":"03:56:36","latitude":"38.1173","longitude":"31.6348","depth":"19.3","md":"-.-","ml":"1.2","mw":"-.-","location":"FURUNLU-DOGANHISAR (KONYA)"},{"date":"2020.10.04","time":"02:54:30","latitude":"38.4622","longitude":"39.2575","depth":"5.7","md":"-.-","ml":"1.6","mw":"-.-","location":"ALINCIK-SIVRICE (ELAZIG)"},{"date":"2020.10.04","time":"02:45:27","latitude":"35.7838","longitude":"28.1348","depth":"3.4","md":"-.-","ml":"1.4","mw":"-.-","location":"AKDENIZ"},{"date":"2020.10.04","time":"02:28:18","latitude":"36.9157","longitude":"27.7025","depth":"8.2","md":"-.-","ml":"1.1","mw":"-.-","location":"GOKOVA KORFEZI (AKDENIZ)"},{"date":"2020.10.04","time":"02:00:38","latitude":"38.1003","longitude":"34.0632","depth":"7.4","md":"-.-","ml":"1.6","mw":"-.-","location":"AKCAKENT-(AKSARAY)"},{"date":"2020.10.04","time":"01:10:30","latitude":"38.4097","longitude":"39.2165","depth":"6.7","md":"-.-","ml":"1.0","mw":"-.-","location":"YEDIPINAR-SIVRICE (ELAZIG)"},{"date":"2020.10.03","time":"23:21:13","latitude":"36.9105","longitude":"27.7685","depth":"5.6","md":"-.-","ml":"1.5","mw":"-.-","location":"GOKOVA KORFEZI (AKDENIZ)"},{"date":"2020.10.03","time":"22:05:17","latitude":"37.9280","longitude":"26.9227","depth":"15.0","md":"-.-","ml":"1.9","mw":"-.-","location":"KUSADASI KORFEZI (EGE DENIZI)"},{"date":"2020.10.03","time":"21:22:57","latitude":"39.1247","longitude":"27.8298","depth":"1.2","md":"-.-","ml":"1.7","mw":"-.-","location":"KARAKURT-KIRKAGAC (MANISA)"},{"date":"2020.10.03","time":"18:05:04","latitude":"36.9422","longitude":"27.6292","depth":"6.7","md":"-.-","ml":"2.0","mw":"-.-","location":"GOKOVA KORFEZI (AKDENIZ)"},{"date":"2020.10.03","time":"15:23:10","latitude":"38.2270","longitude":"38.6980","depth":"8.0","md":"-.-","ml":"1.9","mw":"-.-","location":"KOKPINAR-PUTURGE (MALATYA)"},{"date":"2020.10.03","time":"15:21:00","latitude":"36.5090","longitude":"26.6467","depth":"6.8","md":"-.-","ml":"2.1","mw":"-.-","location":"AKDENIZ"},{"date":"2020.10.03","time":"15:13:40","latitude":"38.6962","longitude":"26.6035","depth":"5.0","md":"-.-","ml":"1.7","mw":"-.-","location":"IZMIR KORFEZI (EGE DENIZI)"},{"date":"2020.10.03","time":"15:10:38","latitude":"38.4090","longitude":"31.8312","depth":"5.8","md":"-.-","ml":"2.1","mw":"-.-","location":"CAVUSCUGOL-ILGIN (KONYA)"},{"date":"2020.10.03","time":"14:29:15","latitude":"39.5672","longitude":"29.4112","depth":"8.8","md":"-.-","ml":"1.4","mw":"-.-","location":"DERECIK-TAVSANLI (KUTAHYA)"},{"date":"2020.10.03","time":"13:47:03","latitude":"38.2927","longitude":"38.8890","depth":"2.5","md":"-.-","ml":"1.7","mw":"-.-","location":"TATLICAK-PUTURGE (MALATYA)"},{"date":"2020.10.03","time":"13:16:54","latitude":"39.5135","longitude":"28.1912","depth":"9.1","md":"-.-","ml":"1.9","mw":"-.-","location":"BEGENDIKLER-BIGADIC (BALIKESIR)"},{"date":"2020.10.03","time":"12:48:57","latitude":"35.0055","longitude":"33.7387","depth":"57.9","md":"-.-","ml":"1.8","mw":"-.-","location":"KIBRIS-TUZLA"},{"date":"2020.10.03","time":"11:34:08","latitude":"38.7083","longitude":"40.0088","depth":"4.4","md":"-.-","ml":"1.9","mw":"-.-","location":"ORGULU-PALU (ELAZIG)"},{"date":"2020.10.03","time":"11:10:12","latitude":"38.3093","longitude":"39.2528","depth":"16.8","md":"-.-","ml":"1.9","mw":"-.-","location":"HACILAR-SIVRICE (ELAZIG)"},{"date":"2020.10.03","time":"10:03:31","latitude":"35.0137","longitude":"31.1150","depth":"9.3","md":"-.-","ml":"2.6","mw":"-.-","location":"AKDENIZ"},{"date":"2020.10.03","time":"09:30:26","latitude":"37.1953","longitude":"36.2657","depth":"4.9","md":"-.-","ml":"1.9","mw":"-.-","location":"SELVERLER-DUZICI (OSMANIYE)"},{"date":"2020.10.03","time":"08:06:50","latitude":"38.9982","longitude":"43.7163","depth":"34.1","md":"-.-","ml":"1.8","mw":"-.-","location":"ACIKYOL-MURADIYE (VAN)"},{"date":"2020.10.03","time":"07:49:51","latitude":"35.9100","longitude":"30.4860","depth":"5.0","md":"-.-","ml":"2.4","mw":"-.-","location":"AKDENIZ"},{"date":"2020.10.03","time":"06:43:56","latitude":"38.4330","longitude":"28.4603","depth":"1.8","md":"-.-","ml":"2.4","mw":"-.-","location":"PIYADELER-ALASEHIR (MANISA)"},{"date":"2020.10.03","time":"06:36:19","latitude":"38.9847","longitude":"26.2548","depth":"13.3","md":"-.-","ml":"1.5","mw":"-.-","location":"MIDILLI ADASI (EGE DENIZI)"},{"date":"2020.10.03","time":"06:26:42","latitude":"35.6807","longitude":"26.5850","depth":"8.2","md":"-.-","ml":"2.4","mw":"-.-","location":"AKDENIZ"},{"date":"2020.10.03","time":"06:14:33","latitude":"40.8690","longitude":"31.6873","depth":"5.2","md":"-.-","ml":"0.9","mw":"-.-","location":"MESCICELE-(BOLU)"},{"date":"2020.10.03","time":"05:56:21","latitude":"38.7208","longitude":"38.0530","depth":"1.5","md":"-.-","ml":"1.6","mw":"-.-","location":"YESILPINAR-HEKIMHAN (MALATYA)"},{"date":"2020.10.03","time":"05:55:36","latitude":"36.1828","longitude":"27.6513","depth":"11.1","md":"-.-","ml":"1.5","mw":"-.-","location":"AKDENIZ"},{"date":"2020.10.03","time":"05:52:23","latitude":"37.3177","longitude":"36.3097","depth":"14.2","md":"-.-","ml":"1.1","mw":"-.-","location":"PIRSULTANLI-DUZICI (OSMANIYE)"},{"date":"2020.10.03","time":"05:49:46","latitude":"35.5637","longitude":"26.9087","depth":"5.5","md":"-.-","ml":"1.7","mw":"-.-","location":"AKDENIZ"},{"date":"2020.10.03","time":"05:35:22","latitude":"35.2518","longitude":"26.3682","depth":"5.0","md":"-.-","ml":"2.2","mw":"-.-","location":"GIRIT ADASI (AKDENIZ)"},{"date":"2020.10.03","time":"05:12:26","latitude":"41.1112","longitude":"34.9610","depth":"5.0","md":"-.-","ml":"2.4","mw":"-.-","location":"TAHTAKOPRU-VEZIRKOPRU (SAMSUN)"},{"date":"2020.10.03","time":"05:10:36","latitude":"39.3467","longitude":"25.5507","depth":"13.4","md":"-.-","ml":"2.0","mw":"-.-","location":"EGE DENIZI"},{"date":"2020.10.03","time":"04:55:05","latitude":"35.1803","longitude":"27.8430","depth":"5.5","md":"-.-","ml":"1.7","mw":"-.-","location":"AKDENIZ"},{"date":"2020.10.03","time":"04:44:13","latitude":"35.8115","longitude":"28.2227","depth":"14.7","md":"-.-","ml":"1.3","mw":"-.-","location":"AKDENIZ"},{"date":"2020.10.03","time":"04:08:36","latitude":"37.4108","longitude":"28.0922","depth":"3.0","md":"-.-","ml":"1.2","mw":"-.-","location":"YAVA-YATAGAN (MUGLA)"},{"date":"2020.10.03","time":"03:47:11","latitude":"38.4300","longitude":"31.8422","depth":"5.0","md":"-.-","ml":"0.9","mw":"-.-","location":"GOLYAKA-ILGIN (KONYA)"},{"date":"2020.10.03","time":"03:26:16","latitude":"39.6562","longitude":"25.9413","depth":"5.2","md":"-.-","ml":"1.2","mw":"-.-","location":"TAVAKLI ACIKLARI-CANAKKALE (EGE DENIZI)"},{"date":"2020.10.03","time":"03:15:37","latitude":"38.1090","longitude":"33.9548","depth":"8.0","md":"-.-","ml":"1.3","mw":"-.-","location":"DEMIRCI-EMIRGAZI (KONYA)"},{"date":"2020.10.03","time":"02:46:00","latitude":"38.4450","longitude":"31.4005","depth":"10.3","md":"-.-","ml":"1.7","mw":"-.-","location":"SORKUN-AKSEHIR (KONYA)"},{"date":"2020.10.03","time":"02:28:30","latitude":"40.0342","longitude":"24.3662","depth":"25.1","md":"-.-","ml":"1.9","mw":"-.-","location":"YUNANISTAN"},{"date":"2020.10.03","time":"01:46:50","latitude":"36.6380","longitude":"28.1322","depth":"24.0","md":"-.-","ml":"1.6","mw":"-.-","location":"TASLICA-MARMARIS (MUGLA)"},{"date":"2020.10.03","time":"01:38:41","latitude":"39.5828","longitude":"38.0850","depth":"5.0","md":"-.-","ml":"1.4","mw":"-.-","location":"CAMLIK-DIVRIGI (SIVAS)"},{"date":"2020.10.03","time":"01:36:11","latitude":"35.4102","longitude":"27.7277","depth":"16.8","md":"-.-","ml":"1.9","mw":"-.-","location":"AKDENIZ"},{"date":"2020.10.03","time":"00:38:16","latitude":"39.9927","longitude":"24.3957","depth":"11.1","md":"-.-","ml":"2.2","mw":"-.-","location":"YUNANISTAN"},{"date":"2020.10.03","time":"00:21:05","latitude":"35.5973","longitude":"26.6287","depth":"18.5","md":"-.-","ml":"2.7","mw":"-.-","location":"AKDENIZ"},{"date":"2020.10.02","time":"22:42:01","latitude":"36.7077","longitude":"27.9555","depth":"10.3","md":"-.-","ml":"2.3","mw":"-.-","location":"BOZBURUN ACIKLARI-MUGLA (AKDENIZ)"},{"date":"2020.10.02","time":"22:02:54","latitude":"35.8045","longitude":"28.1985","depth":"5.0","md":"-.-","ml":"1.4","mw":"-.-","location":"AKDENIZ"},{"date":"2020.10.02","time":"20:44:09","latitude":"36.9832","longitude":"27.5240","depth":"7.5","md":"-.-","ml":"1.5","mw":"-.-","location":"GOKOVA KORFEZI (AKDENIZ)"},{"date":"2020.10.02","time":"19:45:50","latitude":"39.9982","longitude":"24.4727","depth":"11.6","md":"-.-","ml":"2.5","mw":"-.-","location":"YUNANISTAN"},{"date":"2020.10.02","time":"19:00:04","latitude":"38.0432","longitude":"29.0260","depth":"7.6","md":"-.-","ml":"3.2","mw":"3.1","location":"ERTUGRUL-GUNEY (DENIZLI)"},{"date":"2020.10.02","time":"18:28:12","latitude":"34.3998","longitude":"23.9310","depth":"9.0","md":"-.-","ml":"3.5","mw":"3.3","location":"GIRIT ADASI ACIKLARI (AKDENIZ)"},{"date":"2020.10.02","time":"18:25:40","latitude":"38.3977","longitude":"39.3452","depth":"17.6","md":"-.-","ml":"1.1","mw":"-.-","location":"BASKAYNAK-SIVRICE (ELAZIG)"},{"date":"2020.10.02","time":"17:11:50","latitude":"38.3090","longitude":"38.9927","depth":"6.6","md":"-.-","ml":"1.9","mw":"-.-","location":"GOKCE-DOGANYOL (MALATYA)"},{"date":"2020.10.02","time":"16:58:59","latitude":"41.2070","longitude":"28.6898","depth":"0.0","md":"-.-","ml":"0.8","mw":"-.-","location":"ARNAVUTKOY (ISTANBUL)"},{"date":"2020.10.02","time":"15:54:19","latitude":"37.3100","longitude":"37.2313","depth":"0.0","md":"-.-","ml":"1.8","mw":"-.-","location":"KARAKESEK-SEHITKAMIL (GAZIANTEP)"},{"date":"2020.10.02","time":"13:51:21","latitude":"36.7323","longitude":"29.8893","depth":"5.0","md":"-.-","ml":"1.6","mw":"-.-","location":"ELMALI (ANTALYA)"},{"date":"2020.10.02","time":"13:37:31","latitude":"40.8182","longitude":"31.7868","depth":"0.0","md":"-.-","ml":"1.5","mw":"-.-","location":"TASCILAR-(BOLU)"},{"date":"2020.10.02","time":"13:29:01","latitude":"38.8653","longitude":"27.7853","depth":"0.0","md":"-.-","ml":"0.9","mw":"-.-","location":"RAHMIYE-AKHISAR (MANISA)"},{"date":"2020.10.02","time":"13:06:54","latitude":"38.8987","longitude":"32.7168","depth":"5.4","md":"-.-","ml":"1.7","mw":"-.-","location":"KUTUKUSAGI-CIHANBEYLI (KONYA)"},{"date":"2020.10.02","time":"13:03:32","latitude":"39.9128","longitude":"28.8073","depth":"0.0","md":"-.-","ml":"1.6","mw":"-.-","location":"CIVILI-ORHANELI (BURSA)"},{"date":"2020.10.02","time":"12:59:46","latitude":"38.1575","longitude":"38.8918","depth":"5.0","md":"-.-","ml":"1.9","mw":"-.-","location":"BELENKOY-PUTURGE (MALATYA)"},{"date":"2020.10.02","time":"12:54:18","latitude":"37.9907","longitude":"34.1095","depth":"6.0","md":"-.-","ml":"2.1","mw":"-.-","location":"KECIKALESI-ALTUNHISAR (NIGDE)"},{"date":"2020.10.02","time":"12:53:26","latitude":"37.2515","longitude":"28.2110","depth":"0.0","md":"-.-","ml":"1.9","mw":"-.-","location":"PASAPINARI-(MUGLA)"},{"date":"2020.10.02","time":"12:49:01","latitude":"37.9737","longitude":"34.1337","depth":"8.8","md":"-.-","ml":"1.6","mw":"-.-","location":"KARAKAPI-ALTUNHISAR (NIGDE)"},{"date":"2020.10.02","time":"12:43:55","latitude":"40.0762","longitude":"30.0877","depth":"0.0","md":"-.-","ml":"1.6","mw":"-.-","location":"KIZILDAMLAR-(BILECIK)"},{"date":"2020.10.02","time":"12:40:32","latitude":"37.1872","longitude":"27.9603","depth":"0.0","md":"-.-","ml":"1.4","mw":"-.-","location":"KAYADERE-MILAS (MUGLA)"},{"date":"2020.10.02","time":"12:16:07","latitude":"35.8520","longitude":"28.2325","depth":"5.0","md":"-.-","ml":"3.4","mw":"3.4","location":"AKDENIZ"},{"date":"2020.10.02","time":"12:01:35","latitude":"36.9912","longitude":"37.5470","depth":"0.0","md":"-.-","ml":"2.3","mw":"-.-","location":"OGUZELI (GAZIANTEP)"},{"date":"2020.10.02","time":"11:47:04","latitude":"37.5812","longitude":"29.1922","depth":"0.0","md":"-.-","ml":"1.8","mw":"-.-","location":"SARIABAT-TAVAS (DENIZLI)"},{"date":"2020.10.02","time":"11:43:53","latitude":"40.6703","longitude":"27.4420","depth":"7.0","md":"-.-","ml":"1.5","mw":"-.-","location":"GUZELKOY ACIKLARI-TEKIRDAG (MARMARA DENIZI)"},{"date":"2020.10.02","time":"11:21:23","latitude":"36.8645","longitude":"28.6362","depth":"7.3","md":"-.-","ml":"1.0","mw":"-.-","location":"DALYAN-ORTACA (MUGLA)"},{"date":"2020.10.02","time":"11:05:43","latitude":"37.8578","longitude":"36.6790","depth":"10.1","md":"-.-","ml":"1.8","mw":"-.-","location":"SAHINKAYASI-(KAHRAMANMARAS)"},{"date":"2020.10.02","time":"10:58:39","latitude":"36.9102","longitude":"28.6067","depth":"16.4","md":"-.-","ml":"1.0","mw":"-.-","location":"SULTANIYE-KOYCEGIZ (MUGLA)"},{"date":"2020.10.02","time":"10:50:22","latitude":"37.9730","longitude":"34.1010","depth":"2.8","md":"-.-","ml":"1.9","mw":"-.-","location":"OBRUK-BOR (NIGDE)"},{"date":"2020.10.02","time":"10:48:00","latitude":"38.4775","longitude":"31.8050","depth":"26.7","md":"-.-","ml":"1.3","mw":"-.-","location":"KUNDULLU-TUZLUKCU (KONYA)"},{"date":"2020.10.02","time":"10:41:22","latitude":"40.0207","longitude":"24.4300","depth":"12.3","md":"-.-","ml":"2.8","mw":"-.-","location":"YUNANISTAN"},{"date":"2020.10.02","time":"10:32:56","latitude":"40.4438","longitude":"29.2627","depth":"0.0","md":"-.-","ml":"1.2","mw":"-.-","location":"GEDELEK-ORHANGAZI (BURSA)"},{"date":"2020.10.02","time":"10:09:22","latitude":"38.9485","longitude":"44.4952","depth":"10.6","md":"-.-","ml":"2.9","mw":"-.-","location":"TURKIYE-IRAN SINIR BOLGESI"},{"date":"2020.10.02","time":"10:05:15","latitude":"38.0112","longitude":"34.0948","depth":"6.1","md":"-.-","ml":"2.6","mw":"-.-","location":"KECIKALESI-ALTUNHISAR (NIGDE)"},{"date":"2020.10.02","time":"09:08:16","latitude":"37.6425","longitude":"25.8688","depth":"5.0","md":"-.-","ml":"3.2","mw":"3.2","location":"ONIKI ADALAR (AKDENIZ)"},{"date":"2020.10.02","time":"08:55:18","latitude":"37.9815","longitude":"34.0825","depth":"3.2","md":"-.-","ml":"2.9","mw":"-.-","location":"OBRUK-BOR (NIGDE)"},{"date":"2020.10.02","time":"08:28:50","latitude":"38.8367","longitude":"32.8442","depth":"14.0","md":"-.-","ml":"2.2","mw":"-.-","location":"YENICEOBA-CIHANBEYLI (KONYA)"},{"date":"2020.10.02","time":"08:03:24","latitude":"37.9957","longitude":"34.0543","depth":"5.4","md":"-.-","ml":"4.0","mw":"4.1","location":"OBRUK-BOR (NIGDE)"},{"date":"2020.10.02","time":"06:24:15","latitude":"34.4448","longitude":"25.4643","depth":"6.4","md":"-.-","ml":"3.4","mw":"3.4","location":"GIRIT ADASI ACIKLARI (AKDENIZ)"},{"date":"2020.10.02","time":"06:11:07","latitude":"39.2258","longitude":"28.1785","depth":"7.6","md":"-.-","ml":"1.4","mw":"-.-","location":"SINDIRGI (BALIKESIR)"},{"date":"2020.10.02","time":"06:00:20","latitude":"35.7518","longitude":"26.9855","depth":"8.9","md":"-.-","ml":"1.5","mw":"-.-","location":"AKDENIZ"},{"date":"2020.10.02","time":"05:06:23","latitude":"35.2828","longitude":"27.6067","depth":"23.6","md":"-.-","ml":"1.6","mw":"-.-","location":"AKDENIZ"},{"date":"2020.10.02","time":"04:48:01","latitude":"38.1795","longitude":"38.7618","depth":"14.4","md":"-.-","ml":"2.4","mw":"-.-","location":"YAZICA-PUTURGE (MALATYA)"},{"date":"2020.10.02","time":"04:19:03","latitude":"41.2328","longitude":"31.6692","depth":"13.2","md":"-.-","ml":"1.5","mw":"-.-","location":"CEVLIK-EREGLI (ZONGULDAK)"},{"date":"2020.10.02","time":"03:01:58","latitude":"39.3693","longitude":"40.6735","depth":"3.2","md":"-.-","ml":"2.0","mw":"-.-","location":"DINARBEY-YEDISU (BINGOL)"},{"date":"2020.10.02","time":"02:58:57","latitude":"37.9947","longitude":"35.1742","depth":"4.5","md":"-.-","ml":"2.2","mw":"-.-","location":"SULUCAOVA-CAMARDI (NIGDE)"},{"date":"2020.10.02","time":"02:00:59","latitude":"38.4680","longitude":"31.8330","depth":"15.2","md":"-.-","ml":"1.3","mw":"-.-","location":"GOLYAKA-ILGIN (KONYA)"},{"date":"2020.10.02","time":"01:04:37","latitude":"36.1322","longitude":"27.4270","depth":"10.8","md":"-.-","ml":"1.9","mw":"-.-","location":"AKDENIZ"},{"date":"2020.10.02","time":"01:04:03","latitude":"38.9535","longitude":"26.7928","depth":"13.0","md":"-.-","ml":"1.4","mw":"-.-","location":"DENIZKOY-DIKILI (IZMIR)"},{"date":"2020.10.02","time":"00:55:24","latitude":"39.4728","longitude":"27.8205","depth":"12.1","md":"-.-","ml":"1.5","mw":"-.-","location":"TASPINAR-(BALIKESIR)"},{"date":"2020.10.02","time":"00:41:39","latitude":"40.0322","longitude":"24.4125","depth":"7.1","md":"-.-","ml":"2.7","mw":"-.-","location":"YUNANISTAN"},{"date":"2020.10.02","time":"00:12:04","latitude":"35.9607","longitude":"31.1382","depth":"9.4","md":"-.-","ml":"2.4","mw":"-.-","location":"AKDENIZ"},{"date":"2020.10.01","time":"23:26:50","latitude":"38.9473","longitude":"26.7597","depth":"18.1","md":"-.-","ml":"1.7","mw":"-.-","location":"DENIZKOY-DIKILI (IZMIR)"},{"date":"2020.10.01","time":"23:16:01","latitude":"38.3188","longitude":"26.5892","depth":"5.0","md":"-.-","ml":"1.6","mw":"-.-","location":"BARBAROS-URLA (IZMIR)"},{"date":"2020.10.01","time":"22:38:17","latitude":"38.4470","longitude":"25.7740","depth":"9.9","md":"-.-","ml":"1.7","mw":"-.-","location":"EGE DENIZI"},{"date":"2020.10.01","time":"22:03:51","latitude":"36.9143","longitude":"27.6618","depth":"5.0","md":"-.-","ml":"1.1","mw":"-.-","location":"GOKOVA KORFEZI (AKDENIZ)"},{"date":"2020.10.01","time":"22:00:34","latitude":"38.9388","longitude":"26.7282","depth":"8.6","md":"-.-","ml":"1.5","mw":"-.-","location":"DENIZKOY-DIKILI (IZMIR)"},{"date":"2020.10.01","time":"21:08:08","latitude":"38.7060","longitude":"38.1545","depth":"11.1","md":"-.-","ml":"1.7","mw":"-.-","location":"AKSUTLU-HEKIMHAN (MALATYA)"},{"date":"2020.10.01","time":"20:58:51","latitude":"39.8838","longitude":"24.2077","depth":"13.6","md":"-.-","ml":"3.3","mw":"3.4","location":"YUNANISTAN"},{"date":"2020.10.01","time":"20:44:33","latitude":"38.9558","longitude":"26.7385","depth":"10.3","md":"-.-","ml":"3.7","mw":"3.6","location":"DENIZKOY-DIKILI (IZMIR)"},{"date":"2020.10.01","time":"20:34:48","latitude":"38.3215","longitude":"26.5707","depth":"6.0","md":"-.-","ml":"1.9","mw":"-.-","location":"BARBAROS-URLA (IZMIR)"},{"date":"2020.10.01","time":"19:29:01","latitude":"39.1900","longitude":"39.2447","depth":"7.0","md":"-.-","ml":"1.3","mw":"-.-","location":"SARISALTIK-HOZAT (TUNCELI)"},{"date":"2020.10.01","time":"18:59:57","latitude":"38.7835","longitude":"27.8003","depth":"11.9","md":"-.-","ml":"2.4","mw":"-.-","location":"SAZOBA-AKHISAR (MANISA)"},{"date":"2020.10.01","time":"17:53:02","latitude":"40.1833","longitude":"27.4250","depth":"16.6","md":"-.-","ml":"2.0","mw":"-.-","location":"HODUL-GONEN (BALIKESIR)"},{"date":"2020.10.01","time":"15:40:14","latitude":"39.0883","longitude":"28.8897","depth":"5.3","md":"-.-","ml":"1.8","mw":"-.-","location":"OREYLER-SIMAV (KUTAHYA)"},{"date":"2020.10.01","time":"15:28:45","latitude":"39.3598","longitude":"29.3828","depth":"0.0","md":"-.-","ml":"1.7","mw":"-.-","location":"SUBAK-EMET (KUTAHYA)"},{"date":"2020.10.01","time":"14:58:09","latitude":"38.4750","longitude":"31.8153","depth":"8.7","md":"-.-","ml":"1.6","mw":"-.-","location":"KUNDULLU-TUZLUKCU (KONYA)"},{"date":"2020.10.01","time":"14:37:11","latitude":"41.1278","longitude":"34.9798","depth":"5.0","md":"-.-","ml":"3.6","mw":"3.7","location":"TAHTAKOPRU-VEZIRKOPRU (SAMSUN)"},{"date":"2020.10.01","time":"14:05:37","latitude":"36.6762","longitude":"26.7863","depth":"155.3","md":"-.-","ml":"4.9","mw":"-.-","location":"AKDENIZ"},{"date":"2020.10.01","time":"13:30:10","latitude":"39.3110","longitude":"26.0370","depth":"26.5","md":"-.-","ml":"2.2","mw":"-.-","location":"MIDILLI ADASI (EGE DENIZI)"},{"date":"2020.10.01","time":"13:28:08","latitude":"38.5937","longitude":"29.0128","depth":"3.3","md":"-.-","ml":"1.0","mw":"-.-","location":"CEMALCAVUS-ESME (USAK)"},{"date":"2020.10.01","time":"13:19:25","latitude":"38.7210","longitude":"38.0312","depth":"5.0","md":"-.-","ml":"1.9","mw":"-.-","location":"IPEKYOLU-HEKIMHAN (MALATYA)"},{"date":"2020.10.01","time":"13:13:54","latitude":"39.9792","longitude":"24.3932","depth":"9.9","md":"-.-","ml":"2.5","mw":"-.-","location":"YUNANISTAN"},{"date":"2020.10.01","time":"13:09:26","latitude":"38.1638","longitude":"28.8792","depth":"4.0","md":"-.-","ml":"1.3","mw":"-.-","location":"TURLUBEY-BULDAN (DENIZLI)"},{"date":"2020.10.01","time":"13:00:17","latitude":"38.1738","longitude":"38.6253","depth":"18.6","md":"-.-","ml":"2.2","mw":"-.-","location":"ARITOPRAK-PUTURGE (MALATYA)"},{"date":"2020.10.01","time":"12:39:40","latitude":"40.1928","longitude":"30.8315","depth":"8.7","md":"-.-","ml":"1.8","mw":"-.-","location":"SOGUKCAM-GOYNUK (BOLU)"},{"date":"2020.10.01","time":"12:35:49","latitude":"39.3617","longitude":"40.7342","depth":"7.9","md":"-.-","ml":"2.3","mw":"-.-","location":"KAYNARPINAR-KARLIOVA (BINGOL)"},{"date":"2020.10.01","time":"11:58:10","latitude":"41.4543","longitude":"33.9492","depth":"5.3","md":"-.-","ml":"1.7","mw":"-.-","location":"KUSKARA-(KASTAMONU)"},{"date":"2020.10.01","time":"11:56:40","latitude":"38.4083","longitude":"39.2750","depth":"23.4","md":"-.-","ml":"1.7","mw":"-.-","location":"YEDIKARDES-SIVRICE (ELAZIG)"},{"date":"2020.10.01","time":"11:45:24","latitude":"37.2775","longitude":"31.8775","depth":"0.0","md":"-.-","ml":"2.2","mw":"-.-","location":"MADENLI-SEYDISEHIR (KONYA)"},{"date":"2020.10.01","time":"11:15:21","latitude":"38.6353","longitude":"38.1180","depth":"1.5","md":"-.-","ml":"2.8","mw":"-.-","location":"FETHIYE-YAZIHAN (MALATYA)"},{"date":"2020.10.01","time":"09:02:41","latitude":"39.1540","longitude":"28.1030","depth":"8.9","md":"-.-","ml":"1.6","mw":"-.-","location":"ORMANICI-SINDIRGI (BALIKESIR)"},{"date":"2020.10.01","time":"08:49:37","latitude":"39.4453","longitude":"31.5802","depth":"0.0","md":"-.-","ml":"1.8","mw":"-.-","location":"BOGURTLEN-SIVRIHISAR (ESKISEHIR)"},{"date":"2020.10.01","time":"08:13:27","latitude":"39.4470","longitude":"31.6023","depth":"0.0","md":"-.-","ml":"1.7","mw":"-.-","location":"BOGURTLEN-SIVRIHISAR (ESKISEHIR)"},{"date":"2020.10.01","time":"08:02:27","latitude":"37.9967","longitude":"34.1052","depth":"6.7","md":"-.-","ml":"1.9","mw":"-.-","location":"KECIKALESI-ALTUNHISAR (NIGDE)"},{"date":"2020.10.01","time":"07:17:26","latitude":"40.8203","longitude":"28.1877","depth":"15.1","md":"-.-","ml":"2.2","mw":"-.-","location":"SILIVRI ACIKLARI-ISTANBUL (MARMARA DENIZI)"},{"date":"2020.10.01","time":"07:04:12","latitude":"38.0537","longitude":"34.0402","depth":"7.4","md":"-.-","ml":"2.7","mw":"-.-","location":"AKCAKENT-(AKSARAY)"},{"date":"2020.10.01","time":"06:14:41","latitude":"37.1170","longitude":"30.4297","depth":"13.6","md":"-.-","ml":"1.7","mw":"-.-","location":"KARATAS-KORKUTELI (ANTALYA)"},{"date":"2020.10.01","time":"06:02:19","latitude":"37.4455","longitude":"39.7187","depth":"12.3","md":"-.-","ml":"3.0","mw":"-.-","location":"DIKILI-VIRANSEHIR (SANLIURFA)"},{"date":"2020.10.01","time":"05:43:15","latitude":"39.1732","longitude":"29.4613","depth":"5.1","md":"-.-","ml":"2.1","mw":"-.-","location":"PUSATLAR-CAVDARHISAR (KUTAHYA)"},{"date":"2020.10.01","time":"04:05:36","latitude":"38.6763","longitude":"38.1042","depth":"5.0","md":"-.-","ml":"3.7","mw":"3.7","location":"AKYAZI-YAZIHAN (MALATYA)"},{"date":"2020.10.01","time":"03:37:43","latitude":"38.1083","longitude":"38.7458","depth":"10.3","md":"-.-","ml":"0.9","mw":"-.-","location":"TEPEHAN-PUTURGE (MALATYA)"},{"date":"2020.10.01","time":"03:24:30","latitude":"39.3313","longitude":"40.3335","depth":"5.0","md":"-.-","ml":"2.5","mw":"-.-","location":"KIGI (BINGOL)"},{"date":"2020.10.01","time":"02:01:23","latitude":"37.9142","longitude":"28.7485","depth":"5.3","md":"-.-","ml":"2.8","mw":"-.-","location":"TEKKEKOY-SARAYKOY (DENIZLI)"},{"date":"2020.10.01","time":"01:27:10","latitude":"38.6840","longitude":"38.1077","depth":"5.0","md":"-.-","ml":"2.3","mw":"-.-","location":"AKYAZI-YAZIHAN (MALATYA)"},{"date":"2020.09.30","time":"22:48:28","latitude":"36.9288","longitude":"27.4955","depth":"5.4","md":"-.-","ml":"1.6","mw":"-.-","location":"GOKOVA KORFEZI (AKDENIZ)"},{"date":"2020.09.30","time":"22:47:06","latitude":"36.9363","longitude":"27.5090","depth":"7.6","md":"-.-","ml":"1.9","mw":"-.-","location":"GOKOVA KORFEZI (AKDENIZ)"},{"date":"2020.09.30","time":"22:08:09","latitude":"37.0582","longitude":"27.9712","depth":"5.4","md":"-.-","ml":"1.9","mw":"-.-","location":"OREN-MILAS (MUGLA)"},{"date":"2020.09.30","time":"22:03:34","latitude":"36.9372","longitude":"27.5303","depth":"6.8","md":"-.-","ml":"1.8","mw":"-.-","location":"GOKOVA KORFEZI (AKDENIZ)"},{"date":"2020.09.30","time":"20:27:26","latitude":"38.4618","longitude":"33.1153","depth":"21.3","md":"-.-","ml":"1.5","mw":"-.-","location":"TASPINAR-CIHANBEYLI (KONYA)"},{"date":"2020.09.30","time":"18:44:47","latitude":"39.4373","longitude":"41.7432","depth":"9.2","md":"-.-","ml":"2.2","mw":"-.-","location":"CAKMAK-HINIS (ERZURUM)"},{"date":"2020.09.30","time":"17:55:28","latitude":"38.2485","longitude":"38.7833","depth":"15.0","md":"-.-","ml":"2.0","mw":"-.-","location":"ORMANICI-PUTURGE (MALATYA)"},{"date":"2020.09.30","time":"16:41:34","latitude":"38.7280","longitude":"40.8488","depth":"8.7","md":"-.-","ml":"1.9","mw":"-.-","location":"BINEKLI-GENC (BINGOL)"},{"date":"2020.09.30","time":"16:10:28","latitude":"35.2955","longitude":"28.3517","depth":"15.7","md":"-.-","ml":"1.9","mw":"-.-","location":"AKDENIZ"},{"date":"2020.09.30","time":"16:01:08","latitude":"39.0893","longitude":"27.8100","depth":"8.1","md":"-.-","ml":"2.4","mw":"-.-","location":"ILYASLAR-KIRKAGAC (MANISA)"},{"date":"2020.09.30","time":"15:57:45","latitude":"37.9822","longitude":"34.0965","depth":"10.8","md":"-.-","ml":"1.9","mw":"-.-","location":"OBRUK-BOR (NIGDE)"},{"date":"2020.09.30","time":"14:47:11","latitude":"39.0802","longitude":"27.5105","depth":"0.0","md":"-.-","ml":"1.5","mw":"-.-","location":"ARPASEKI-KINIK (IZMIR)"},{"date":"2020.09.30","time":"14:40:30","latitude":"37.6338","longitude":"29.8708","depth":"29.8","md":"-.-","ml":"1.5","mw":"-.-","location":"BEYKOY-YESILOVA (BURDUR)"},{"date":"2020.09.30","time":"14:20:18","latitude":"39.5860","longitude":"33.6148","depth":"5.4","md":"-.-","ml":"1.7","mw":"-.-","location":"CERITKALE-KESKIN (KIRIKKALE)"},{"date":"2020.09.30","time":"14:17:57","latitude":"40.4495","longitude":"29.2865","depth":"0.0","md":"-.-","ml":"1.4","mw":"-.-","location":"CELTIKCI-ORHANGAZI (BURSA)"},{"date":"2020.09.30","time":"14:06:20","latitude":"39.2820","longitude":"37.9153","depth":"16.4","md":"-.-","ml":"2.3","mw":"-.-","location":"ODEK-DIVRIGI (SIVAS)"},{"date":"2020.09.30","time":"13:25:10","latitude":"36.8878","longitude":"27.5962","depth":"6.9","md":"-.-","ml":"1.5","mw":"-.-","location":"GOKOVA KORFEZI (AKDENIZ)"},{"date":"2020.09.30","time":"13:05:01","latitude":"39.6020","longitude":"29.4182","depth":"0.0","md":"-.-","ml":"1.3","mw":"-.-","location":"KAYAARASI-TAVSANLI (KUTAHYA)"},{"date":"2020.09.30","time":"13:03:21","latitude":"39.5872","longitude":"29.4448","depth":"0.0","md":"-.-","ml":"1.4","mw":"-.-","location":"KAYAARASI-TAVSANLI (KUTAHYA)"},{"date":"2020.09.30","time":"12:31:48","latitude":"36.9322","longitude":"27.6388","depth":"5.0","md":"-.-","ml":"1.7","mw":"-.-","location":"GOKOVA KORFEZI (AKDENIZ)"},{"date":"2020.09.30","time":"12:27:02","latitude":"39.1443","longitude":"41.2415","depth":"7.1","md":"-.-","ml":"1.9","mw":"-.-","location":"OLCEKLI-VARTO (MUS)"},{"date":"2020.09.30","time":"11:36:03","latitude":"39.9928","longitude":"24.3718","depth":"9.5","md":"-.-","ml":"3.7","mw":"3.9","location":"YUNANISTAN"},{"date":"2020.09.30","time":"11:16:23","latitude":"36.2540","longitude":"31.7795","depth":"8.9","md":"-.-","ml":"1.9","mw":"-.-","location":"ANTALYA KORFEZI (AKDENIZ)"},{"date":"2020.09.30","time":"09:54:32","latitude":"38.6260","longitude":"39.6218","depth":"5.7","md":"-.-","ml":"2.1","mw":"-.-","location":"SEHSUVAR-(ELAZIG)"},{"date":"2020.09.30","time":"08:30:14","latitude":"38.9052","longitude":"43.5960","depth":"27.8","md":"-.-","ml":"1.7","mw":"-.-","location":"CAKIRBEY-(VAN)"},{"date":"2020.09.30","time":"07:54:14","latitude":"38.0405","longitude":"34.1890","depth":"11.4","md":"-.-","ml":"1.6","mw":"-.-","location":"KARAKAPI-ALTUNHISAR (NIGDE)"},{"date":"2020.09.30","time":"07:19:50","latitude":"38.0372","longitude":"34.0613","depth":"5.0","md":"-.-","ml":"3.7","mw":"3.7","location":"OBRUK-BOR (NIGDE)"},{"date":"2020.09.30","time":"07:15:34","latitude":"38.0348","longitude":"34.0698","depth":"5.0","md":"-.-","ml":"4.0","mw":"4.2","location":"KECIKALESI-ALTUNHISAR (NIGDE)"},{"date":"2020.09.30","time":"06:33:54","latitude":"39.9593","longitude":"24.3350","depth":"12.1","md":"-.-","ml":"3.9","mw":"4.0","location":"YUNANISTAN"},{"date":"2020.09.30","time":"05:48:28","latitude":"38.4218","longitude":"31.7925","depth":"5.0","md":"-.-","ml":"1.8","mw":"-.-","location":"TURSUNLU-TUZLUKCU (KONYA)"},{"date":"2020.09.30","time":"05:40:40","latitude":"38.4663","longitude":"39.2312","depth":"5.7","md":"-.-","ml":"3.7","mw":"3.9","location":"ALINCIK-SIVRICE (ELAZIG)"},{"date":"2020.09.30","time":"05:30:03","latitude":"35.7710","longitude":"28.2885","depth":"5.0","md":"-.-","ml":"2.0","mw":"-.-","location":"AKDENIZ"},{"date":"2020.09.30","time":"05:06:49","latitude":"37.5820","longitude":"36.1347","depth":"5.0","md":"-.-","ml":"1.6","mw":"-.-","location":"KOSEPINARI-KADIRLI (OSMANIYE)"},{"date":"2020.09.30","time":"04:57:35","latitude":"39.3053","longitude":"28.2808","depth":"9.9","md":"-.-","ml":"2.6","mw":"-.-","location":"UMURLAR-SINDIRGI (BALIKESIR)"},{"date":"2020.09.30","time":"04:24:26","latitude":"36.9168","longitude":"27.5003","depth":"6.8","md":"-.-","ml":"1.8","mw":"-.-","location":"GOKOVA KORFEZI (AKDENIZ)"},{"date":"2020.09.30","time":"03:32:09","latitude":"37.1140","longitude":"30.6000","depth":"11.4","md":"-.-","ml":"1.1","mw":"-.-","location":"SELIMIYE-DOSEMEALTI (ANTALYA)"},{"date":"2020.09.30","time":"03:28:14","latitude":"39.8822","longitude":"39.9812","depth":"24.5","md":"-.-","ml":"2.0","mw":"-.-","location":"YESILYAKA-CAYIRLI (ERZINCAN)"},{"date":"2020.09.30","time":"03:14:47","latitude":"37.0000","longitude":"27.5678","depth":"10.6","md":"-.-","ml":"1.0","mw":"-.-","location":"GOKOVA KORFEZI (AKDENIZ)"},{"date":"2020.09.30","time":"03:10:23","latitude":"36.9723","longitude":"27.5983","depth":"1.0","md":"-.-","ml":"1.3","mw":"-.-","location":"GOKOVA KORFEZI (AKDENIZ)"},{"date":"2020.09.30","time":"02:07:41","latitude":"36.9328","longitude":"27.5352","depth":"6.2","md":"-.-","ml":"1.4","mw":"-.-","location":"GOKOVA KORFEZI (AKDENIZ)"},{"date":"2020.09.30","time":"01:37:26","latitude":"35.9483","longitude":"28.1950","depth":"7.6","md":"-.-","ml":"2.1","mw":"-.-","location":"AKDENIZ"},{"date":"2020.09.30","time":"01:05:58","latitude":"36.8250","longitude":"35.9655","depth":"6.3","md":"-.-","ml":"2.5","mw":"-.-","location":"ISKENDERUN KORFEZI (AKDENIZ)"}]
