[{"date":"2020.10.15","time":"20:43:27","latitude":"35.8158","longitude":"26.8965","depth":"5.0","md":"-.-","ml":"2.0","mw":"-.-","location":"AKDENIZ"},{"date":"2020.10.15","time":"19:37:02","latitude":"35.6725","longitude":"26.2332","depth":"4.2","md":"-.-","ml":"2.6","mw":"-.-","location":"AKDENIZ"},{"date":"2020.10.15","time":"18:02:22","latitude":"40.8737","longitude":"28.7522","depth":"9.6","md":"-.-","ml":"1.9","mw":"-.-","location":"MARMARA DENIZI"},{"date":"2020.10.15","time":"17:47:55","latitude":"41.0958","longitude":"29.0608","depth":"0.0","md":"-.-","ml":"1.1","mw":"-.-","location":"BEYKOZ (ISTANBUL)"},{"date":"2020.10.15","time":"17:12:12","latitude":"37.0542","longitude":"28.0457","depth":"4.5","md":"-.-","ml":"2.3","mw":"-.-","location":"KULTAK-MILAS (MUGLA)"},{"date":"2020.10.15","time":"17:07:26","latitude":"40.8775","longitude":"28.7405","depth":"15.2","md":"-.-","ml":"2.1","mw":"-.-","location":"AVCILAR A\ufffdIKLARI MARMARA DENIZI"},{"date":"2020.10.15","time":"16:55:12","latitude":"40.8722","longitude":"28.7417","depth":"5.4","md":"-.-","ml":"3.2","mw":"3.2","location":"MARMARA DENIZI"},{"date":"2020.10.15","time":"16:33:19","latitude":"36.1368","longitude":"29.4988","depth":"9.8","md":"-.-","ml":"1.8","mw":"-.-","location":"GOKCEOREN-KAS (ANTALYA)"},{"date":"2020.10.15","time":"15:53:17","latitude":"39.2723","longitude":"28.1012","depth":"15.5","md":"-.-","ml":"1.2","mw":"-.-","location":"KUCUKBUKU-SINDIRGI (BALIKESIR)"},{"date":"2020.10.15","time":"15:38:48","latitude":"39.8522","longitude":"42.8907","depth":"22.2","md":"-.-","ml":"1.8","mw":"-.-","location":"HAYDAROGLU-ELESKIRT (AGRI)"},{"date":"2020.10.15","time":"15:30:56","latitude":"38.3203","longitude":"38.7107","depth":"17.4","md":"-.-","ml":"1.4","mw":"-.-","location":"KAMISTAS-(MALATYA)"},{"date":"2020.10.15","time":"15:27:20","latitude":"39.9340","longitude":"32.4148","depth":"4.2","md":"-.-","ml":"1.7","mw":"-.-","location":"AYAS (ANKARA)"},{"date":"2020.10.15","time":"15:21:39","latitude":"39.7890","longitude":"42.5707","depth":"5.0","md":"-.-","ml":"2.4","mw":"-.-","location":"GUNEYKAYA-ELESKIRT (AGRI)"},{"date":"2020.10.15","time":"15:20:43","latitude":"39.7957","longitude":"42.5970","depth":"5.0","md":"-.-","ml":"3.2","mw":"3.3","location":"GUNEYKAYA-ELESKIRT (AGRI)"},{"date":"2020.10.15","time":"15:13:11","latitude":"38.1717","longitude":"38.8335","depth":"5.2","md":"-.-","ml":"2.1","mw":"-.-","location":"TASMIS-PUTURGE (MALATYA)"},{"date":"2020.10.15","time":"15:12:37","latitude":"38.1865","longitude":"38.8135","depth":"12.2","md":"-.-","ml":"2.3","mw":"-.-","location":"TASMIS-PUTURGE (MALATYA)"},{"date":"2020.10.15","time":"14:55:51","latitude":"36.7540","longitude":"28.5030","depth":"3.8","md":"-.-","ml":"1.6","mw":"-.-","location":"MARMARIS ACIKLARI-MUGLA (AKDENIZ)"},{"date":"2020.10.15","time":"14:45:01","latitude":"36.1667","longitude":"33.5390","depth":"0.0","md":"-.-","ml":"1.0","mw":"-.-","location":"BUYUKECELI-GULNAR (MERSIN)"},{"date":"2020.10.15","time":"14:33:18","latitude":"38.6783","longitude":"38.0402","depth":"3.9","md":"-.-","ml":"1.3","mw":"-.-","location":"ALICAN-YAZIHAN (MALATYA)"},{"date":"2020.10.15","time":"14:23:17","latitude":"36.9743","longitude":"36.0503","depth":"5.3","md":"-.-","ml":"2.0","mw":"-.-","location":"TURUNCLU-ERZIN (HATAY)"},{"date":"2020.10.15","time":"14:17:47","latitude":"35.6088","longitude":"26.2813","depth":"5.0","md":"-.-","ml":"2.7","mw":"-.-","location":"AKDENIZ"},{"date":"2020.10.15","time":"13:45:25","latitude":"34.9443","longitude":"27.2197","depth":"5.3","md":"-.-","ml":"2.3","mw":"-.-","location":"GIRIT ADASI ACIKLARI (AKDENIZ)"},{"date":"2020.10.15","time":"13:45:18","latitude":"39.7972","longitude":"42.6275","depth":"7.3","md":"-.-","ml":"2.7","mw":"-.-","location":"SUZGECLI-ELESKIRT (AGRI)"},{"date":"2020.10.15","time":"13:43:59","latitude":"40.7613","longitude":"31.7077","depth":"5.0","md":"-.-","ml":"1.7","mw":"-.-","location":"AHMETLER-(BOLU)"},{"date":"2020.10.15","time":"13:09:01","latitude":"35.7958","longitude":"28.2083","depth":"5.0","md":"-.-","ml":"1.9","mw":"-.-","location":"AKDENIZ"},{"date":"2020.10.15","time":"12:55:53","latitude":"39.6498","longitude":"42.3688","depth":"5.4","md":"-.-","ml":"1.9","mw":"-.-","location":"UGURDALI-KARAYAZI (ERZURUM)"},{"date":"2020.10.15","time":"12:50:53","latitude":"39.6557","longitude":"29.4797","depth":"0.0","md":"-.-","ml":"1.4","mw":"-.-","location":"MUHACIRLER-DOMANIC (KUTAHYA)"},{"date":"2020.10.15","time":"12:09:08","latitude":"39.1180","longitude":"27.5342","depth":"0.0","md":"-.-","ml":"1.4","mw":"-.-","location":"DEREKOY-SOMA (MANISA)"},{"date":"2020.10.15","time":"12:05:31","latitude":"40.2272","longitude":"29.0238","depth":"5.0","md":"-.-","ml":"1.4","mw":"-.-","location":"NILUFER (BURSA)"},{"date":"2020.10.15","time":"11:37:56","latitude":"39.7048","longitude":"42.5295","depth":"5.0","md":"-.-","ml":"1.8","mw":"-.-","location":"YAGMURLU-ELESKIRT (AGRI)"},{"date":"2020.10.15","time":"11:18:52","latitude":"39.7782","longitude":"42.5817","depth":"5.0","md":"-.-","ml":"3.4","mw":"3.5","location":"GUNEYKAYA-ELESKIRT (AGRI)"},{"date":"2020.10.15","time":"11:09:19","latitude":"39.8328","longitude":"30.2067","depth":"0.0","md":"-.-","ml":"1.8","mw":"-.-","location":"OKLUBALI-INONU (ESKISEHIR)"},{"date":"2020.10.15","time":"11:05:37","latitude":"39.6512","longitude":"38.3973","depth":"5.0","md":"-.-","ml":"1.9","mw":"-.-","location":"YILMAZ-ILIC (ERZINCAN)"},{"date":"2020.10.15","time":"10:26:54","latitude":"35.5753","longitude":"26.2055","depth":"5.5","md":"-.-","ml":"2.3","mw":"-.-","location":"GIRIT ADASI (AKDENIZ)"},{"date":"2020.10.15","time":"10:07:37","latitude":"37.2905","longitude":"31.7465","depth":"5.4","md":"-.-","ml":"2.1","mw":"-.-","location":"SULEYMANIYE-AKSEKI (ANTALYA)"},{"date":"2020.10.15","time":"09:57:00","latitude":"39.6177","longitude":"38.4107","depth":"9.7","md":"-.-","ml":"2.3","mw":"-.-","location":"YALINGOZE-ILIC (ERZINCAN)"},{"date":"2020.10.15","time":"09:24:28","latitude":"35.4663","longitude":"26.6773","depth":"5.0","md":"-.-","ml":"3.1","mw":"3.2","location":"GIRIT ADASI (AKDENIZ)"},{"date":"2020.10.15","time":"09:06:48","latitude":"37.1743","longitude":"28.1833","depth":"0.0","md":"-.-","ml":"1.5","mw":"-.-","location":"CIFTLIKKOY-(MUGLA)"},{"date":"2020.10.15","time":"08:51:25","latitude":"40.7723","longitude":"33.0937","depth":"5.1","md":"-.-","ml":"1.9","mw":"-.-","location":"ILIPINAR-ATKARACALAR (CANKIRI)"},{"date":"2020.10.15","time":"07:35:17","latitude":"40.5878","longitude":"28.9938","depth":"3.7","md":"-.-","ml":"1.6","mw":"-.-","location":"SENKOY-CINARCIK (YALOVA)"},{"date":"2020.10.15","time":"07:32:00","latitude":"40.5825","longitude":"28.9895","depth":"4.0","md":"-.-","ml":"1.9","mw":"-.-","location":"SENKOY-CINARCIK (YALOVA)"},{"date":"2020.10.15","time":"07:31:15","latitude":"40.6035","longitude":"28.9822","depth":"6.5","md":"-.-","ml":"2.0","mw":"-.-","location":"ESENKOY-CINARCIK (YALOVA)"},{"date":"2020.10.15","time":"07:12:44","latitude":"38.0192","longitude":"34.0788","depth":"6.1","md":"-.-","ml":"1.5","mw":"-.-","location":"OBRUK-BOR (NIGDE)"},{"date":"2020.10.15","time":"07:09:30","latitude":"35.6642","longitude":"26.2187","depth":"8.6","md":"-.-","ml":"2.2","mw":"-.-","location":"AKDENIZ"},{"date":"2020.10.15","time":"05:41:38","latitude":"35.6853","longitude":"26.1938","depth":"7.5","md":"-.-","ml":"1.9","mw":"-.-","location":"AKDENIZ"},{"date":"2020.10.15","time":"05:39:09","latitude":"35.6712","longitude":"26.2515","depth":"9.7","md":"-.-","ml":"2.6","mw":"-.-","location":"AKDENIZ"},{"date":"2020.10.15","time":"05:15:26","latitude":"39.0418","longitude":"27.9077","depth":"2.4","md":"-.-","ml":"1.8","mw":"-.-","location":"ZEYTINLIBAG-AKHISAR (MANISA)"},{"date":"2020.10.15","time":"04:56:32","latitude":"35.6548","longitude":"26.2505","depth":"3.0","md":"-.-","ml":"2.5","mw":"-.-","location":"AKDENIZ"},{"date":"2020.10.15","time":"04:48:10","latitude":"35.5927","longitude":"26.2168","depth":"7.1","md":"-.-","ml":"1.9","mw":"-.-","location":"AKDENIZ"},{"date":"2020.10.15","time":"04:20:16","latitude":"36.3165","longitude":"29.6443","depth":"13.5","md":"-.-","ml":"1.2","mw":"-.-","location":"SINNELI-KAS (ANTALYA)"},{"date":"2020.10.15","time":"04:16:45","latitude":"35.6132","longitude":"26.2203","depth":"1.8","md":"-.-","ml":"2.8","mw":"-.-","location":"AKDENIZ"},{"date":"2020.10.15","time":"04:14:36","latitude":"35.6753","longitude":"26.2302","depth":"11.3","md":"-.-","ml":"2.9","mw":"-.-","location":"AKDENIZ"},{"date":"2020.10.15","time":"03:54:49","latitude":"40.0605","longitude":"28.2085","depth":"11.6","md":"-.-","ml":"2.1","mw":"-.-","location":"BEYKOY-SUSURLUK (BALIKESIR)"},{"date":"2020.10.15","time":"03:42:19","latitude":"35.7242","longitude":"26.2622","depth":"10.7","md":"-.-","ml":"2.5","mw":"-.-","location":"AKDENIZ"},{"date":"2020.10.15","time":"02:57:37","latitude":"35.6442","longitude":"29.5717","depth":"10.6","md":"-.-","ml":"1.7","mw":"-.-","location":"AKDENIZ"},{"date":"2020.10.15","time":"02:38:53","latitude":"39.3640","longitude":"27.9618","depth":"5.0","md":"-.-","ml":"2.4","mw":"-.-","location":"AKCAKISRAK-SINDIRGI (BALIKESIR)"},{"date":"2020.10.15","time":"01:59:45","latitude":"39.5232","longitude":"27.6255","depth":"5.0","md":"-.-","ml":"1.6","mw":"-.-","location":"KARAPINAR-SAVASTEPE (BALIKESIR)"},{"date":"2020.10.15","time":"01:51:24","latitude":"38.7055","longitude":"43.1077","depth":"3.1","md":"-.-","ml":"1.4","mw":"-.-","location":"VAN GOLU"},{"date":"2020.10.15","time":"01:22:49","latitude":"35.6765","longitude":"26.2405","depth":"7.8","md":"-.-","ml":"4.0","mw":"4.1","location":"AKDENIZ"},{"date":"2020.10.14","time":"21:51:11","latitude":"35.8213","longitude":"28.2428","depth":"5.0","md":"-.-","ml":"2.1","mw":"-.-","location":"AKDENIZ"},{"date":"2020.10.14","time":"21:28:11","latitude":"35.5515","longitude":"26.3777","depth":"5.0","md":"-.-","ml":"2.5","mw":"-.-","location":"GIRIT ADASI (AKDENIZ)"},{"date":"2020.10.14","time":"21:25:51","latitude":"35.6623","longitude":"26.2228","depth":"7.8","md":"-.-","ml":"3.2","mw":"-.-","location":"AKDENIZ"},{"date":"2020.10.14","time":"20:33:48","latitude":"35.6018","longitude":"26.2073","depth":"11.6","md":"-.-","ml":"2.4","mw":"-.-","location":"AKDENIZ"},{"date":"2020.10.14","time":"19:55:05","latitude":"39.7842","longitude":"42.4917","depth":"5.0","md":"-.-","ml":"2.5","mw":"-.-","location":"SARIKOY-ELESKIRT (AGRI)"},{"date":"2020.10.14","time":"19:53:17","latitude":"39.3435","longitude":"37.9458","depth":"8.6","md":"-.-","ml":"2.3","mw":"-.-","location":"KARAAGACLI-DIVRIGI (SIVAS)"},{"date":"2020.10.14","time":"19:50:42","latitude":"35.6293","longitude":"26.2670","depth":"5.4","md":"-.-","ml":"2.5","mw":"-.-","location":"AKDENIZ"},{"date":"2020.10.14","time":"18:55:11","latitude":"35.6747","longitude":"26.2343","depth":"5.1","md":"-.-","ml":"2.5","mw":"-.-","location":"AKDENIZ"},{"date":"2020.10.14","time":"18:53:48","latitude":"35.6223","longitude":"26.2075","depth":"5.5","md":"-.-","ml":"2.7","mw":"-.-","location":"AKDENIZ"},{"date":"2020.10.14","time":"18:47:46","latitude":"35.3647","longitude":"26.4828","depth":"5.0","md":"-.-","ml":"3.2","mw":"-.-","location":"GIRIT ADASI (AKDENIZ)"},{"date":"2020.10.14","time":"18:18:31","latitude":"35.6457","longitude":"26.2442","depth":"4.8","md":"-.-","ml":"2.7","mw":"-.-","location":"AKDENIZ"},{"date":"2020.10.14","time":"18:10:04","latitude":"35.6625","longitude":"26.2370","depth":"5.7","md":"-.-","ml":"3.3","mw":"3.4","location":"AKDENIZ"},{"date":"2020.10.14","time":"17:54:09","latitude":"40.6440","longitude":"27.5875","depth":"3.8","md":"-.-","ml":"1.7","mw":"-.-","location":"MARMARA DENIZI"},{"date":"2020.10.14","time":"17:53:02","latitude":"39.3795","longitude":"29.3753","depth":"0.0","md":"-.-","ml":"1.7","mw":"-.-","location":"KOPRUCEK-EMET (KUTAHYA)"},{"date":"2020.10.14","time":"16:51:38","latitude":"35.5963","longitude":"26.2567","depth":"5.0","md":"-.-","ml":"2.5","mw":"-.-","location":"AKDENIZ"},{"date":"2020.10.14","time":"16:40:06","latitude":"35.6122","longitude":"26.3333","depth":"15.4","md":"-.-","ml":"2.4","mw":"-.-","location":"AKDENIZ"},{"date":"2020.10.14","time":"16:20:20","latitude":"36.7298","longitude":"28.4995","depth":"2.4","md":"-.-","ml":"1.4","mw":"-.-","location":"DALYAN ACIKLARI-MUGLA (AKDENIZ)"},{"date":"2020.10.14","time":"16:08:12","latitude":"37.7723","longitude":"34.1483","depth":"28.2","md":"-.-","ml":"1.6","mw":"-.-","location":"ASAGIGONDELEN-EREGLI (KONYA)"},{"date":"2020.10.14","time":"16:06:04","latitude":"38.3698","longitude":"39.1343","depth":"4.3","md":"-.-","ml":"1.7","mw":"-.-","location":"USLU-SIVRICE (ELAZIG)"},{"date":"2020.10.14","time":"15:59:17","latitude":"38.5540","longitude":"26.3605","depth":"27.1","md":"-.-","ml":"2.0","mw":"-.-","location":"KUCUKBAHCE-KARABURUN (IZMIR)"},{"date":"2020.10.14","time":"15:21:55","latitude":"39.4852","longitude":"33.4748","depth":"7.0","md":"-.-","ml":"2.0","mw":"-.-","location":"HACIYUSUFLU-CELEBI (KIRIKKALE)"},{"date":"2020.10.14","time":"14:02:02","latitude":"36.4648","longitude":"28.6892","depth":"1.4","md":"-.-","ml":"2.8","mw":"2.6","location":"AKDENIZ"},{"date":"2020.10.14","time":"13:58:30","latitude":"35.6162","longitude":"26.2430","depth":"8.4","md":"-.-","ml":"3.8","mw":"4.0","location":"AKDENIZ"},{"date":"2020.10.14","time":"13:58:03","latitude":"38.5893","longitude":"38.8943","depth":"13.9","md":"-.-","ml":"1.0","mw":"-.-","location":"KAYABEYLI-BASKIL (ELAZIG)"},{"date":"2020.10.14","time":"13:33:51","latitude":"35.8047","longitude":"28.2288","depth":"5.0","md":"-.-","ml":"3.0","mw":"2.8","location":"AKDENIZ"},{"date":"2020.10.14","time":"13:04:11","latitude":"35.6597","longitude":"26.2202","depth":"6.1","md":"-.-","ml":"2.3","mw":"-.-","location":"AKDENIZ"},{"date":"2020.10.14","time":"12:47:30","latitude":"36.5157","longitude":"28.6763","depth":"9.4","md":"-.-","ml":"1.4","mw":"-.-","location":"AKDENIZ"},{"date":"2020.10.14","time":"12:41:59","latitude":"35.6423","longitude":"26.2352","depth":"5.0","md":"-.-","ml":"2.7","mw":"2.7","location":"AKDENIZ"},{"date":"2020.10.14","time":"12:39:23","latitude":"38.2082","longitude":"33.0368","depth":"5.0","md":"-.-","ml":"1.7","mw":"-.-","location":"HACINUMAN-ALTINEKIN (KONYA)"},{"date":"2020.10.14","time":"12:37:28","latitude":"35.6352","longitude":"26.3147","depth":"5.0","md":"-.-","ml":"2.0","mw":"-.-","location":"AKDENIZ"},{"date":"2020.10.14","time":"12:27:29","latitude":"35.6452","longitude":"26.2752","depth":"7.6","md":"-.-","ml":"2.4","mw":"-.-","location":"AKDENIZ"},{"date":"2020.10.14","time":"12:24:07","latitude":"39.5843","longitude":"29.4908","depth":"0.0","md":"-.-","ml":"1.5","mw":"-.-","location":"KAYAARASI-TAVSANLI (KUTAHYA)"},{"date":"2020.10.14","time":"12:06:38","latitude":"35.2323","longitude":"33.5145","depth":"0.0","md":"-.-","ml":"1.7","mw":"-.-","location":"KIBRIS-DEGIRMENLIK"},{"date":"2020.10.14","time":"11:39:22","latitude":"38.3622","longitude":"27.2025","depth":"15.3","md":"-.-","ml":"1.0","mw":"-.-","location":"BUCA (IZMIR)"},{"date":"2020.10.14","time":"10:33:54","latitude":"38.5740","longitude":"39.2122","depth":"1.3","md":"-.-","ml":"1.0","mw":"-.-","location":"SARIYAKUP-(ELAZIG)"},{"date":"2020.10.14","time":"10:18:52","latitude":"35.6398","longitude":"26.2185","depth":"11.2","md":"-.-","ml":"2.8","mw":"-.-","location":"AKDENIZ"},{"date":"2020.10.14","time":"10:04:46","latitude":"39.5230","longitude":"40.4097","depth":"6.7","md":"-.-","ml":"2.7","mw":"2.6","location":"AYANOGLU-YEDISU (BINGOL)"},{"date":"2020.10.14","time":"09:27:37","latitude":"35.5980","longitude":"26.3283","depth":"20.5","md":"-.-","ml":"2.3","mw":"-.-","location":"AKDENIZ"},{"date":"2020.10.14","time":"09:26:04","latitude":"35.6677","longitude":"26.2310","depth":"5.3","md":"-.-","ml":"2.6","mw":"-.-","location":"AKDENIZ"},{"date":"2020.10.14","time":"07:48:07","latitude":"35.5862","longitude":"26.2442","depth":"7.6","md":"-.-","ml":"2.6","mw":"-.-","location":"AKDENIZ"},{"date":"2020.10.14","time":"07:43:59","latitude":"37.7582","longitude":"29.4003","depth":"6.0","md":"-.-","ml":"1.6","mw":"-.-","location":"AKBAS-HONAZ (DENIZLI)"},{"date":"2020.10.14","time":"07:40:30","latitude":"35.2925","longitude":"26.6020","depth":"2.0","md":"-.-","ml":"2.1","mw":"-.-","location":"GIRIT ADASI (AKDENIZ)"},{"date":"2020.10.14","time":"07:11:28","latitude":"35.6355","longitude":"31.7148","depth":"13.0","md":"-.-","ml":"2.3","mw":"-.-","location":"AKDENIZ"},{"date":"2020.10.14","time":"07:07:15","latitude":"35.6060","longitude":"26.2347","depth":"8.7","md":"-.-","ml":"2.6","mw":"-.-","location":"AKDENIZ"},{"date":"2020.10.14","time":"06:57:16","latitude":"40.7483","longitude":"23.0137","depth":"13.2","md":"-.-","ml":"3.8","mw":"3.8","location":"YUNANISTAN"},{"date":"2020.10.14","time":"06:41:24","latitude":"37.2075","longitude":"36.1368","depth":"5.1","md":"-.-","ml":"1.9","mw":"-.-","location":"KIRMACILI-(OSMANIYE)"},{"date":"2020.10.14","time":"06:28:08","latitude":"35.6682","longitude":"26.2488","depth":"9.8","md":"-.-","ml":"2.5","mw":"-.-","location":"AKDENIZ"},{"date":"2020.10.14","time":"04:52:18","latitude":"35.6550","longitude":"26.2273","depth":"8.6","md":"-.-","ml":"3.8","mw":"3.9","location":"AKDENIZ"},{"date":"2020.10.14","time":"03:53:47","latitude":"35.7998","longitude":"28.2398","depth":"10.4","md":"-.-","ml":"1.7","mw":"-.-","location":"AKDENIZ"},{"date":"2020.10.14","time":"03:28:44","latitude":"34.2400","longitude":"26.3275","depth":"5.0","md":"-.-","ml":"2.4","mw":"-.-","location":"GIRIT ADASI ACIKLARI (AKDENIZ)"},{"date":"2020.10.14","time":"02:49:54","latitude":"40.3935","longitude":"27.4433","depth":"14.0","md":"-.-","ml":"1.1","mw":"-.-","location":"BOZLAR-BIGA (CANAKKALE)"},{"date":"2020.10.14","time":"02:45:08","latitude":"40.5110","longitude":"33.5687","depth":"4.9","md":"-.-","ml":"1.3","mw":"-.-","location":"GOLEZ-ELDIVAN (CANKIRI)"},{"date":"2020.10.14","time":"02:24:27","latitude":"38.8238","longitude":"38.2545","depth":"5.0","md":"-.-","ml":"2.0","mw":"-.-","location":"YENIKOY-ARGUVAN (MALATYA)"},{"date":"2020.10.14","time":"02:20:57","latitude":"37.5395","longitude":"26.8690","depth":"10.4","md":"-.-","ml":"1.5","mw":"-.-","location":"EGE DENIZI"},{"date":"2020.10.14","time":"02:13:48","latitude":"39.6653","longitude":"35.3608","depth":"15.2","md":"-.-","ml":"1.1","mw":"-.-","location":"KARACALAR-SARIKAYA (YOZGAT)"},{"date":"2020.10.14","time":"01:38:24","latitude":"38.2952","longitude":"25.4603","depth":"8.4","md":"-.-","ml":"2.2","mw":"-.-","location":"EGE DENIZI"},{"date":"2020.10.14","time":"00:56:08","latitude":"39.1995","longitude":"29.4370","depth":"4.9","md":"-.-","ml":"1.1","mw":"-.-","location":"PUSATLAR-CAVDARHISAR (KUTAHYA)"},{"date":"2020.10.14","time":"00:52:54","latitude":"38.8698","longitude":"38.1933","depth":"5.0","md":"-.-","ml":"3.0","mw":"-.-","location":"KURUTTAS-ARGUVAN (MALATYA)"},{"date":"2020.10.14","time":"00:00:25","latitude":"38.8557","longitude":"38.2127","depth":"7.1","md":"-.-","ml":"2.4","mw":"-.-","location":"EYMIR-ARGUVAN (MALATYA)"},{"date":"2020.10.13","time":"23:34:45","latitude":"39.4390","longitude":"33.0783","depth":"5.5","md":"-.-","ml":"1.7","mw":"-.-","location":"AFSAR-BALA (ANKARA)"},{"date":"2020.10.13","time":"21:41:37","latitude":"35.5943","longitude":"26.2115","depth":"8.1","md":"-.-","ml":"2.4","mw":"-.-","location":"AKDENIZ"},{"date":"2020.10.13","time":"21:09:06","latitude":"38.7405","longitude":"27.5240","depth":"9.3","md":"-.-","ml":"1.6","mw":"-.-","location":"TEPECIK-(MANISA)"},{"date":"2020.10.13","time":"20:46:08","latitude":"35.2455","longitude":"27.7945","depth":"9.0","md":"-.-","ml":"2.2","mw":"-.-","location":"AKDENIZ"},{"date":"2020.10.13","time":"20:27:52","latitude":"37.9925","longitude":"29.1028","depth":"0.0","md":"-.-","ml":"1.8","mw":"-.-","location":"HAYTABEY-(DENIZLI)"},{"date":"2020.10.13","time":"19:42:12","latitude":"37.0265","longitude":"28.3057","depth":"0.0","md":"-.-","ml":"1.7","mw":"-.-","location":"CETIBELI-MARMARIS (MUGLA)"},{"date":"2020.10.13","time":"19:15:22","latitude":"38.5588","longitude":"42.9420","depth":"17.8","md":"-.-","ml":"1.8","mw":"-.-","location":"VAN GOLU"},{"date":"2020.10.13","time":"18:22:33","latitude":"39.6817","longitude":"27.8595","depth":"6.5","md":"-.-","ml":"1.4","mw":"-.-","location":"KABAKDERE-(BALIKESIR)"},{"date":"2020.10.13","time":"16:08:07","latitude":"36.1480","longitude":"33.5612","depth":"0.0","md":"-.-","ml":"1.4","mw":"-.-","location":"BUYUKECELI-GULNAR (MERSIN)"},{"date":"2020.10.13","time":"14:54:40","latitude":"38.7770","longitude":"27.0222","depth":"17.9","md":"-.-","ml":"1.4","mw":"-.-","location":"GUZELHISAR-ALIAGA (IZMIR)"},{"date":"2020.10.13","time":"13:17:42","latitude":"38.4257","longitude":"25.7277","depth":"8.0","md":"-.-","ml":"2.1","mw":"-.-","location":"EGE DENIZI"},{"date":"2020.10.13","time":"13:13:45","latitude":"39.0848","longitude":"27.8025","depth":"5.9","md":"-.-","ml":"2.0","mw":"-.-","location":"ILYASLAR-KIRKAGAC (MANISA)"},{"date":"2020.10.13","time":"12:45:06","latitude":"40.2153","longitude":"30.7267","depth":"11.1","md":"-.-","ml":"1.8","mw":"-.-","location":"KUYUPINAR-GOYNUK (BOLU)"},{"date":"2020.10.13","time":"12:23:38","latitude":"39.9687","longitude":"42.4782","depth":"12.6","md":"-.-","ml":"2.1","mw":"-.-","location":"MOLLAAHMET-HORASAN (ERZURUM)"},{"date":"2020.10.13","time":"11:55:56","latitude":"37.4788","longitude":"28.3638","depth":"0.0","md":"-.-","ml":"1.9","mw":"-.-","location":"CAYBOYU-KAVAKLIDERE (MUGLA)"},{"date":"2020.10.13","time":"09:40:39","latitude":"37.7640","longitude":"32.2285","depth":"0.0","md":"-.-","ml":"1.8","mw":"-.-","location":"ERENKAYA-MERAM (KONYA)"},{"date":"2020.10.13","time":"08:55:32","latitude":"40.6130","longitude":"33.1103","depth":"10.2","md":"-.-","ml":"1.7","mw":"-.-","location":"ORTA (CANKIRI)"},{"date":"2020.10.13","time":"08:37:36","latitude":"36.9697","longitude":"28.1692","depth":"2.7","md":"-.-","ml":"1.7","mw":"-.-","location":"KARACA-MARMARIS (MUGLA)"},{"date":"2020.10.13","time":"08:01:57","latitude":"38.8648","longitude":"38.2813","depth":"3.5","md":"-.-","ml":"1.9","mw":"-.-","location":"YENIKOY-ARGUVAN (MALATYA)"},{"date":"2020.10.13","time":"07:22:38","latitude":"38.8858","longitude":"38.2045","depth":"6.4","md":"-.-","ml":"2.3","mw":"-.-","location":"KURUTTAS-ARGUVAN (MALATYA)"},{"date":"2020.10.13","time":"05:49:48","latitude":"36.3898","longitude":"29.5632","depth":"12.4","md":"-.-","ml":"0.8","mw":"-.-","location":"CAMLIOVA-KAS (ANTALYA)"},{"date":"2020.10.13","time":"05:28:11","latitude":"36.9257","longitude":"27.5155","depth":"11.2","md":"-.-","ml":"1.2","mw":"-.-","location":"GOKOVA KORFEZI (AKDENIZ)"},{"date":"2020.10.13","time":"05:13:08","latitude":"36.9335","longitude":"27.5148","depth":"4.5","md":"-.-","ml":"1.5","mw":"-.-","location":"GOKOVA KORFEZI (AKDENIZ)"},{"date":"2020.10.13","time":"04:59:27","latitude":"36.9322","longitude":"27.5220","depth":"5.3","md":"-.-","ml":"1.7","mw":"-.-","location":"GOKOVA KORFEZI (AKDENIZ)"},{"date":"2020.10.13","time":"04:26:48","latitude":"36.9515","longitude":"27.3175","depth":"2.5","md":"-.-","ml":"1.9","mw":"-.-","location":"AKYARLAR-BODRUM (MUGLA)"},{"date":"2020.10.13","time":"04:25:32","latitude":"36.2947","longitude":"32.1445","depth":"10.4","md":"-.-","ml":"1.5","mw":"-.-","location":"DEMIRTAS ACIKLARI-ANTALYA (AKDENIZ)"},{"date":"2020.10.13","time":"03:40:28","latitude":"37.7690","longitude":"32.1567","depth":"5.7","md":"-.-","ml":"1.7","mw":"-.-","location":"ERENKAYA-MERAM (KONYA)"},{"date":"2020.10.13","time":"02:56:41","latitude":"37.8518","longitude":"32.0438","depth":"5.3","md":"-.-","ml":"1.2","mw":"-.-","location":"SAGLIK-MERAM (KONYA)"},{"date":"2020.10.13","time":"02:55:33","latitude":"37.7282","longitude":"32.2543","depth":"5.4","md":"-.-","ml":"1.7","mw":"-.-","location":"KAYALI-MERAM (KONYA)"},{"date":"2020.10.13","time":"02:52:02","latitude":"37.7743","longitude":"32.2072","depth":"16.2","md":"-.-","ml":"1.3","mw":"-.-","location":"ERENKAYA-MERAM (KONYA)"},{"date":"2020.10.13","time":"02:48:09","latitude":"37.7337","longitude":"32.1527","depth":"6.0","md":"-.-","ml":"1.5","mw":"-.-","location":"KAYALI-MERAM (KONYA)"},{"date":"2020.10.13","time":"02:31:41","latitude":"37.7697","longitude":"32.1687","depth":"1.2","md":"-.-","ml":"1.9","mw":"-.-","location":"ERENKAYA-MERAM (KONYA)"},{"date":"2020.10.13","time":"02:07:30","latitude":"36.0612","longitude":"35.9003","depth":"7.8","md":"-.-","ml":"1.6","mw":"-.-","location":"MAGARACIK-SAMANDAG (HATAY)"},{"date":"2020.10.13","time":"01:31:44","latitude":"40.3637","longitude":"44.8417","depth":"5.0","md":"-.-","ml":"2.5","mw":"-.-","location":"AZERBAYCAN"},{"date":"2020.10.13","time":"01:15:20","latitude":"37.7353","longitude":"32.1108","depth":"5.0","md":"-.-","ml":"1.5","mw":"-.-","location":"INLICE-MERAM (KONYA)"},{"date":"2020.10.13","time":"00:48:49","latitude":"37.7885","longitude":"32.1512","depth":"8.2","md":"-.-","ml":"2.0","mw":"-.-","location":"SEFAKOY-MERAM (KONYA)"},{"date":"2020.10.13","time":"00:34:12","latitude":"38.8403","longitude":"26.9847","depth":"15.7","md":"-.-","ml":"1.2","mw":"-.-","location":"CANDARLI KORFEZI (EGE DENIZI)"},{"date":"2020.10.13","time":"00:28:03","latitude":"37.7060","longitude":"32.2560","depth":"11.3","md":"-.-","ml":"0.7","mw":"-.-","location":"KUMRALI-MERAM (KONYA)"},{"date":"2020.10.13","time":"00:26:01","latitude":"38.8222","longitude":"26.9950","depth":"8.0","md":"-.-","ml":"1.8","mw":"-.-","location":"ALIAGA (IZMIR)"},{"date":"2020.10.13","time":"00:25:55","latitude":"37.7482","longitude":"32.1480","depth":"5.0","md":"-.-","ml":"1.8","mw":"-.-","location":"ERENKAYA-MERAM (KONYA)"},{"date":"2020.10.13","time":"00:18:16","latitude":"37.7792","longitude":"32.1252","depth":"5.5","md":"-.-","ml":"1.9","mw":"-.-","location":"SEFAKOY-MERAM (KONYA)"},{"date":"2020.10.12","time":"23:24:37","latitude":"37.1178","longitude":"28.2772","depth":"15.2","md":"-.-","ml":"1.2","mw":"-.-","location":"YERKESIK-(MUGLA)"},{"date":"2020.10.12","time":"22:43:21","latitude":"38.8557","longitude":"26.7527","depth":"5.4","md":"-.-","ml":"1.8","mw":"-.-","location":"CANDARLI KORFEZI (EGE DENIZI)"},{"date":"2020.10.12","time":"22:33:10","latitude":"40.7657","longitude":"27.9370","depth":"7.7","md":"-.-","ml":"1.5","mw":"-.-","location":"MARMARA DENIZI"},{"date":"2020.10.12","time":"22:28:42","latitude":"35.6048","longitude":"26.2247","depth":"6.3","md":"-.-","ml":"1.6","mw":"-.-","location":"AKDENIZ"},{"date":"2020.10.12","time":"22:26:48","latitude":"37.1393","longitude":"28.3452","depth":"18.3","md":"-.-","ml":"1.4","mw":"-.-","location":"GULAGZI-(MUGLA)"},{"date":"2020.10.12","time":"22:12:14","latitude":"35.5792","longitude":"26.1693","depth":"2.5","md":"-.-","ml":"2.5","mw":"-.-","location":"GIRIT ADASI (AKDENIZ)"},{"date":"2020.10.12","time":"21:54:37","latitude":"37.1858","longitude":"28.1883","depth":"0.0","md":"-.-","ml":"1.5","mw":"-.-","location":"CIFTLIKKOY-(MUGLA)"},{"date":"2020.10.12","time":"21:51:27","latitude":"37.1058","longitude":"28.2715","depth":"0.0","md":"-.-","ml":"1.0","mw":"-.-","location":"YENIBAGYAKA-(MUGLA)"},{"date":"2020.10.12","time":"21:49:14","latitude":"38.1508","longitude":"38.8087","depth":"5.3","md":"-.-","ml":"1.3","mw":"-.-","location":"GOKCELI-PUTURGE (MALATYA)"},{"date":"2020.10.12","time":"21:48:49","latitude":"35.7630","longitude":"28.1395","depth":"6.3","md":"-.-","ml":"1.4","mw":"-.-","location":"AKDENIZ"},{"date":"2020.10.12","time":"21:46:44","latitude":"37.1378","longitude":"28.1730","depth":"15.2","md":"-.-","ml":"1.2","mw":"-.-","location":"MEKE-(MUGLA)"},{"date":"2020.10.12","time":"21:44:04","latitude":"38.8505","longitude":"43.4578","depth":"2.6","md":"-.-","ml":"3.0","mw":"3.2","location":"GEDIKBULAK-(VAN)"},{"date":"2020.10.12","time":"21:41:01","latitude":"37.1440","longitude":"28.2987","depth":"0.0","md":"-.-","ml":"1.3","mw":"-.-","location":"YERKESIK-(MUGLA)"},{"date":"2020.10.12","time":"21:33:33","latitude":"37.1223","longitude":"28.2710","depth":"0.0","md":"-.-","ml":"1.6","mw":"-.-","location":"YERKESIK-(MUGLA)"},{"date":"2020.10.12","time":"21:31:44","latitude":"37.1338","longitude":"28.2375","depth":"16.1","md":"-.-","ml":"1.8","mw":"-.-","location":"ALGI-(MUGLA)"},{"date":"2020.10.12","time":"21:31:14","latitude":"37.1527","longitude":"28.2237","depth":"6.8","md":"-.-","ml":"1.8","mw":"-.-","location":"YENIKOY-(MUGLA)"},{"date":"2020.10.12","time":"21:13:42","latitude":"38.3733","longitude":"38.8855","depth":"8.0","md":"-.-","ml":"1.9","mw":"-.-","location":"KAYABAGLARI-SIVRICE (ELAZIG)"},{"date":"2020.10.12","time":"20:51:27","latitude":"39.0535","longitude":"34.6522","depth":"2.6","md":"-.-","ml":"2.2","mw":"-.-","location":"SADIK-HACIBEKTAS (NEVSEHIR)"},{"date":"2020.10.12","time":"19:26:48","latitude":"37.1373","longitude":"28.1955","depth":"16.8","md":"-.-","ml":"1.4","mw":"-.-","location":"YENIKOY-(MUGLA)"},{"date":"2020.10.12","time":"19:18:05","latitude":"38.8208","longitude":"26.7568","depth":"7.5","md":"-.-","ml":"2.3","mw":"-.-","location":"CANDARLI KORFEZI (EGE DENIZI)"},{"date":"2020.10.12","time":"18:38:25","latitude":"38.3497","longitude":"39.2523","depth":"12.7","md":"-.-","ml":"1.7","mw":"-.-","location":"ASAGICANAKCI-SIVRICE (ELAZIG)"},{"date":"2020.10.12","time":"18:00:02","latitude":"36.4840","longitude":"28.7330","depth":"7.9","md":"-.-","ml":"2.0","mw":"-.-","location":"AKDENIZ"},{"date":"2020.10.12","time":"16:53:45","latitude":"35.3190","longitude":"26.5350","depth":"5.0","md":"-.-","ml":"3.3","mw":"3.2","location":"GIRIT ADASI (AKDENIZ)"},{"date":"2020.10.12","time":"15:31:55","latitude":"36.9568","longitude":"28.1715","depth":"6.9","md":"-.-","ml":"2.6","mw":"-.-","location":"KARACA-MARMARIS (MUGLA)"},{"date":"2020.10.12","time":"13:55:35","latitude":"37.5255","longitude":"30.5755","depth":"2.2","md":"-.-","ml":"1.9","mw":"-.-","location":"ALKAYA-BUCAK (BURDUR)"},{"date":"2020.10.12","time":"12:46:02","latitude":"35.6585","longitude":"26.2888","depth":"7.3","md":"-.-","ml":"2.8","mw":"-.-","location":"AKDENIZ"},{"date":"2020.10.12","time":"11:53:19","latitude":"35.5695","longitude":"26.2552","depth":"7.5","md":"-.-","ml":"3.8","mw":"3.9","location":"GIRIT ADASI (AKDENIZ)"},{"date":"2020.10.12","time":"09:55:53","latitude":"39.3445","longitude":"40.6035","depth":"8.1","md":"-.-","ml":"2.4","mw":"-.-","location":"ELMALI-YEDISU (BINGOL)"},{"date":"2020.10.12","time":"09:39:34","latitude":"35.5762","longitude":"26.2292","depth":"4.1","md":"-.-","ml":"2.5","mw":"2.3","location":"GIRIT ADASI (AKDENIZ)"},{"date":"2020.10.12","time":"08:15:20","latitude":"35.6312","longitude":"26.3495","depth":"16.0","md":"-.-","ml":"2.7","mw":"-.-","location":"AKDENIZ"},{"date":"2020.10.12","time":"08:12:32","latitude":"35.6112","longitude":"26.2367","depth":"3.2","md":"-.-","ml":"2.3","mw":"-.-","location":"AKDENIZ"},{"date":"2020.10.12","time":"08:11:37","latitude":"35.6377","longitude":"26.1843","depth":"4.9","md":"-.-","ml":"2.3","mw":"-.-","location":"AKDENIZ"},{"date":"2020.10.12","time":"08:06:27","latitude":"35.6598","longitude":"26.2575","depth":"8.9","md":"-.-","ml":"2.3","mw":"-.-","location":"AKDENIZ"},{"date":"2020.10.12","time":"08:05:06","latitude":"35.6245","longitude":"26.2417","depth":"7.0","md":"-.-","ml":"2.5","mw":"-.-","location":"AKDENIZ"},{"date":"2020.10.12","time":"08:00:32","latitude":"35.6733","longitude":"26.2187","depth":"6.1","md":"-.-","ml":"3.9","mw":"4.0","location":"AKDENIZ"},{"date":"2020.10.12","time":"07:51:57","latitude":"35.6442","longitude":"26.2183","depth":"6.9","md":"-.-","ml":"3.1","mw":"3.0","location":"AKDENIZ"},{"date":"2020.10.12","time":"07:47:51","latitude":"35.6778","longitude":"26.2465","depth":"9.3","md":"-.-","ml":"2.8","mw":"-.-","location":"AKDENIZ"},{"date":"2020.10.12","time":"07:42:43","latitude":"35.6497","longitude":"26.2605","depth":"8.1","md":"-.-","ml":"2.7","mw":"-.-","location":"AKDENIZ"},{"date":"2020.10.12","time":"07:38:36","latitude":"35.6245","longitude":"26.2218","depth":"9.3","md":"-.-","ml":"3.6","mw":"3.6","location":"AKDENIZ"},{"date":"2020.10.12","time":"07:36:09","latitude":"35.6455","longitude":"26.2085","depth":"5.4","md":"-.-","ml":"2.4","mw":"-.-","location":"AKDENIZ"},{"date":"2020.10.12","time":"07:30:21","latitude":"35.6133","longitude":"26.2128","depth":"8.1","md":"-.-","ml":"3.2","mw":"3.2","location":"AKDENIZ"},{"date":"2020.10.12","time":"07:26:37","latitude":"35.6200","longitude":"26.2043","depth":"12.8","md":"-.-","ml":"2.8","mw":"-.-","location":"AKDENIZ"},{"date":"2020.10.12","time":"07:18:36","latitude":"35.5258","longitude":"26.2588","depth":"23.7","md":"-.-","ml":"2.3","mw":"-.-","location":"GIRIT ADASI (AKDENIZ)"},{"date":"2020.10.12","time":"07:11:26","latitude":"35.6880","longitude":"26.2170","depth":"7.9","md":"-.-","ml":"5.0","mw":"5.1","location":"AKDENIZ"},{"date":"2020.10.12","time":"07:00:11","latitude":"37.2125","longitude":"28.4642","depth":"18.6","md":"-.-","ml":"2.2","mw":"-.-","location":"YARAS-(MUGLA)"},{"date":"2020.10.12","time":"06:39:16","latitude":"39.1540","longitude":"28.9792","depth":"10.4","md":"-.-","ml":"1.3","mw":"-.-","location":"NASA-SIMAV (KUTAHYA)"},{"date":"2020.10.12","time":"06:33:20","latitude":"39.1753","longitude":"29.0233","depth":"5.2","md":"-.-","ml":"1.5","mw":"-.-","location":"KARACAOREN-SIMAV (KUTAHYA)"},{"date":"2020.10.12","time":"06:20:45","latitude":"35.6948","longitude":"26.2587","depth":"10.7","md":"-.-","ml":"2.1","mw":"-.-","location":"AKDENIZ"},{"date":"2020.10.12","time":"05:50:15","latitude":"35.8430","longitude":"28.2047","depth":"5.0","md":"-.-","ml":"2.4","mw":"-.-","location":"AKDENIZ"},{"date":"2020.10.12","time":"05:38:52","latitude":"35.6445","longitude":"26.2517","depth":"11.2","md":"-.-","ml":"3.9","mw":"3.9","location":"AKDENIZ"},{"date":"2020.10.12","time":"05:07:59","latitude":"35.6175","longitude":"26.2343","depth":"12.4","md":"-.-","ml":"2.9","mw":"-.-","location":"AKDENIZ"},{"date":"2020.10.12","time":"04:58:22","latitude":"35.6390","longitude":"26.2283","depth":"12.1","md":"-.-","ml":"3.2","mw":"3.2","location":"AKDENIZ"},{"date":"2020.10.12","time":"04:51:19","latitude":"36.9498","longitude":"27.5935","depth":"1.4","md":"-.-","ml":"1.1","mw":"-.-","location":"GOKOVA KORFEZI (AKDENIZ)"},{"date":"2020.10.12","time":"04:49:12","latitude":"37.2982","longitude":"26.6867","depth":"8.9","md":"-.-","ml":"2.2","mw":"-.-","location":"ONIKI ADALAR (AKDENIZ)"},{"date":"2020.10.12","time":"04:46:25","latitude":"35.6692","longitude":"26.2550","depth":"11.6","md":"-.-","ml":"2.5","mw":"-.-","location":"AKDENIZ"},{"date":"2020.10.12","time":"04:38:01","latitude":"40.4135","longitude":"26.1215","depth":"15.8","md":"-.-","ml":"2.3","mw":"-.-","location":"SAROS KORFEZI (EGE DENIZI)"},{"date":"2020.10.12","time":"04:35:09","latitude":"35.6298","longitude":"26.2605","depth":"5.0","md":"-.-","ml":"3.5","mw":"3.6","location":"AKDENIZ"},{"date":"2020.10.12","time":"04:28:39","latitude":"35.6497","longitude":"26.2728","depth":"9.4","md":"-.-","ml":"1.9","mw":"-.-","location":"AKDENIZ"},{"date":"2020.10.12","time":"04:27:55","latitude":"35.6873","longitude":"26.2455","depth":"11.2","md":"-.-","ml":"2.1","mw":"-.-","location":"AKDENIZ"},{"date":"2020.10.12","time":"04:24:11","latitude":"35.6297","longitude":"26.2537","depth":"11.3","md":"-.-","ml":"2.0","mw":"-.-","location":"AKDENIZ"},{"date":"2020.10.12","time":"04:21:38","latitude":"35.6795","longitude":"26.2447","depth":"8.3","md":"-.-","ml":"2.1","mw":"-.-","location":"AKDENIZ"},{"date":"2020.10.12","time":"04:20:44","latitude":"35.6972","longitude":"26.2995","depth":"5.4","md":"-.-","ml":"2.3","mw":"-.-","location":"AKDENIZ"},{"date":"2020.10.12","time":"04:19:24","latitude":"35.6235","longitude":"26.2882","depth":"20.7","md":"-.-","ml":"1.9","mw":"-.-","location":"AKDENIZ"},{"date":"2020.10.12","time":"04:16:08","latitude":"35.6598","longitude":"26.2242","depth":"13.4","md":"-.-","ml":"2.6","mw":"-.-","location":"AKDENIZ"},{"date":"2020.10.12","time":"04:13:28","latitude":"35.6737","longitude":"26.2367","depth":"11.7","md":"-.-","ml":"3.1","mw":"-.-","location":"AKDENIZ"},{"date":"2020.10.12","time":"04:11:57","latitude":"35.6817","longitude":"26.2435","depth":"11.8","md":"-.-","ml":"3.8","mw":"3.8","location":"AKDENIZ"},{"date":"2020.10.12","time":"03:58:35","latitude":"39.7688","longitude":"33.0525","depth":"3.0","md":"-.-","ml":"1.7","mw":"-.-","location":"DELILER-ELMADAG (ANKARA)"},{"date":"2020.10.12","time":"03:56:41","latitude":"35.6583","longitude":"26.2332","depth":"11.6","md":"-.-","ml":"3.1","mw":"2.9","location":"AKDENIZ"},{"date":"2020.10.12","time":"03:53:36","latitude":"35.6338","longitude":"26.2387","depth":"7.8","md":"-.-","ml":"3.1","mw":"2.9","location":"AKDENIZ"},{"date":"2020.10.12","time":"03:50:17","latitude":"35.6513","longitude":"26.2258","depth":"5.4","md":"-.-","ml":"2.1","mw":"-.-","location":"AKDENIZ"},{"date":"2020.10.12","time":"03:49:11","latitude":"35.4162","longitude":"26.3660","depth":"27.0","md":"-.-","ml":"2.1","mw":"-.-","location":"GIRIT ADASI (AKDENIZ)"},{"date":"2020.10.12","time":"03:47:09","latitude":"35.6320","longitude":"26.2323","depth":"11.9","md":"-.-","ml":"2.6","mw":"-.-","location":"AKDENIZ"},{"date":"2020.10.12","time":"03:44:24","latitude":"35.6558","longitude":"26.2452","depth":"11.4","md":"-.-","ml":"4.2","mw":"4.2","location":"AKDENIZ"},{"date":"2020.10.12","time":"03:41:04","latitude":"35.6987","longitude":"26.2847","depth":"14.5","md":"-.-","ml":"3.0","mw":"-.-","location":"AKDENIZ"},{"date":"2020.10.12","time":"03:39:50","latitude":"35.6495","longitude":"26.2753","depth":"10.6","md":"-.-","ml":"2.6","mw":"-.-","location":"AKDENIZ"},{"date":"2020.10.12","time":"03:30:40","latitude":"35.6712","longitude":"26.2708","depth":"8.4","md":"-.-","ml":"5.0","mw":"5.0","location":"AKDENIZ"},{"date":"2020.10.12","time":"02:29:20","latitude":"35.7958","longitude":"28.2200","depth":"7.8","md":"-.-","ml":"1.9","mw":"-.-","location":"AKDENIZ"},{"date":"2020.10.12","time":"02:24:44","latitude":"35.8070","longitude":"28.2378","depth":"5.0","md":"-.-","ml":"2.2","mw":"-.-","location":"AKDENIZ"},{"date":"2020.10.12","time":"02:14:29","latitude":"36.9510","longitude":"27.7148","depth":"11.1","md":"-.-","ml":"0.7","mw":"-.-","location":"GOKOVA KORFEZI (AKDENIZ)"},{"date":"2020.10.12","time":"01:49:16","latitude":"39.1988","longitude":"27.7758","depth":"7.3","md":"-.-","ml":"1.5","mw":"-.-","location":"KARACAKAS-SOMA (MANISA)"},{"date":"2020.10.12","time":"01:45:52","latitude":"39.3183","longitude":"27.5547","depth":"7.5","md":"-.-","ml":"1.6","mw":"-.-","location":"BUYUKISIKLAR-SOMA (MANISA)"},{"date":"2020.10.12","time":"01:08:48","latitude":"35.7503","longitude":"28.1727","depth":"8.5","md":"-.-","ml":"1.7","mw":"-.-","location":"AKDENIZ"},{"date":"2020.10.12","time":"00:40:34","latitude":"40.7033","longitude":"32.9590","depth":"5.9","md":"-.-","ml":"1.9","mw":"-.-","location":"HACILAR-CERKES (CANKIRI)"},{"date":"2020.10.12","time":"00:32:56","latitude":"38.2762","longitude":"38.7135","depth":"5.0","md":"-.-","ml":"1.5","mw":"-.-","location":"BALPINARI-PUTURGE (MALATYA)"},{"date":"2020.10.12","time":"00:30:08","latitude":"38.3293","longitude":"39.2508","depth":"15.1","md":"-.-","ml":"1.5","mw":"-.-","location":"HACILAR-SIVRICE (ELAZIG)"},{"date":"2020.10.12","time":"00:19:16","latitude":"40.5590","longitude":"28.9978","depth":"1.1","md":"-.-","ml":"1.3","mw":"-.-","location":"SELIMIYE-ARMUTLU (YALOVA)"},{"date":"2020.10.12","time":"00:15:00","latitude":"35.5277","longitude":"31.2305","depth":"5.0","md":"-.-","ml":"2.3","mw":"-.-","location":"AKDENIZ"},{"date":"2020.10.11","time":"23:29:44","latitude":"38.2627","longitude":"38.8155","depth":"1.5","md":"-.-","ml":"1.6","mw":"-.-","location":"KARSIYAKA-PUTURGE (MALATYA)"},{"date":"2020.10.11","time":"23:24:39","latitude":"35.8677","longitude":"28.2432","depth":"5.0","md":"-.-","ml":"1.9","mw":"-.-","location":"AKDENIZ"},{"date":"2020.10.11","time":"23:22:57","latitude":"38.2488","longitude":"38.8310","depth":"5.3","md":"-.-","ml":"2.5","mw":"-.-","location":"ORMELI-PUTURGE (MALATYA)"},{"date":"2020.10.11","time":"22:59:15","latitude":"38.4158","longitude":"39.2218","depth":"3.1","md":"-.-","ml":"2.3","mw":"-.-","location":"YEDIPINAR-SIVRICE (ELAZIG)"},{"date":"2020.10.11","time":"22:58:09","latitude":"38.3223","longitude":"39.2688","depth":"9.7","md":"-.-","ml":"2.3","mw":"-.-","location":"CATALDUT-CUNGUS (DIYARBAKIR)"},{"date":"2020.10.11","time":"22:51:29","latitude":"35.7828","longitude":"28.2583","depth":"5.2","md":"-.-","ml":"1.9","mw":"-.-","location":"AKDENIZ"},{"date":"2020.10.11","time":"22:20:57","latitude":"35.8047","longitude":"28.2422","depth":"5.0","md":"-.-","ml":"2.3","mw":"-.-","location":"AKDENIZ"},{"date":"2020.10.11","time":"22:16:51","latitude":"35.8268","longitude":"28.2202","depth":"5.7","md":"-.-","ml":"2.6","mw":"-.-","location":"AKDENIZ"},{"date":"2020.10.11","time":"22:02:42","latitude":"36.8763","longitude":"27.6113","depth":"3.9","md":"-.-","ml":"1.5","mw":"-.-","location":"GOKOVA KORFEZI (AKDENIZ)"},{"date":"2020.10.11","time":"21:29:35","latitude":"38.2577","longitude":"38.7552","depth":"2.1","md":"-.-","ml":"2.5","mw":"-.-","location":"BALPINARI-PUTURGE (MALATYA)"},{"date":"2020.10.11","time":"21:26:23","latitude":"35.9080","longitude":"28.2490","depth":"5.7","md":"-.-","ml":"1.4","mw":"-.-","location":"AKDENIZ"},{"date":"2020.10.11","time":"21:23:49","latitude":"36.4653","longitude":"27.2080","depth":"17.9","md":"-.-","ml":"1.7","mw":"-.-","location":"ONIKI ADALAR (AKDENIZ)"},{"date":"2020.10.11","time":"19:57:59","latitude":"40.7165","longitude":"32.9747","depth":"7.1","md":"-.-","ml":"1.8","mw":"-.-","location":"HACILAR-CERKES (CANKIRI)"},{"date":"2020.10.11","time":"18:45:36","latitude":"38.5900","longitude":"39.7242","depth":"22.4","md":"-.-","ml":"1.5","mw":"-.-","location":"GUMUSKAYNAK-PALU (ELAZIG)"},{"date":"2020.10.11","time":"18:33:20","latitude":"41.0935","longitude":"34.9442","depth":"5.4","md":"-.-","ml":"1.8","mw":"-.-","location":"DANISMENT-OSMANCIK (CORUM)"},{"date":"2020.10.11","time":"18:31:42","latitude":"38.5668","longitude":"25.7367","depth":"5.1","md":"-.-","ml":"1.9","mw":"-.-","location":"EGE DENIZI"},{"date":"2020.10.11","time":"18:23:59","latitude":"36.8732","longitude":"27.6962","depth":"7.8","md":"-.-","ml":"1.8","mw":"-.-","location":"GOKOVA KORFEZI (AKDENIZ)"},{"date":"2020.10.11","time":"17:55:25","latitude":"34.6735","longitude":"24.1227","depth":"59.4","md":"-.-","ml":"3.5","mw":"-.-","location":"GIRIT ADASI ACIKLARI (AKDENIZ)"},{"date":"2020.10.11","time":"15:57:44","latitude":"37.0110","longitude":"29.2195","depth":"19.7","md":"-.-","ml":"1.8","mw":"-.-","location":"EMECIK-CAMELI (DENIZLI)"},{"date":"2020.10.11","time":"15:49:27","latitude":"36.5865","longitude":"31.7910","depth":"14.8","md":"-.-","ml":"2.4","mw":"-.-","location":"TURKLER-ALANYA (ANTALYA)"},{"date":"2020.10.11","time":"15:49:11","latitude":"37.0348","longitude":"28.1223","depth":"8.5","md":"-.-","ml":"1.7","mw":"-.-","location":"SARNICKOY-(MUGLA)"},{"date":"2020.10.11","time":"14:09:55","latitude":"38.4753","longitude":"25.5658","depth":"20.3","md":"-.-","ml":"2.6","mw":"-.-","location":"EGE DENIZI"},{"date":"2020.10.11","time":"13:30:46","latitude":"39.7743","longitude":"24.2210","depth":"31.4","md":"-.-","ml":"2.4","mw":"-.-","location":"YUNANISTAN"},{"date":"2020.10.11","time":"13:16:28","latitude":"37.3275","longitude":"26.6368","depth":"7.9","md":"-.-","ml":"1.8","mw":"-.-","location":"ONIKI ADALAR (AKDENIZ)"},{"date":"2020.10.11","time":"12:54:46","latitude":"36.0225","longitude":"31.5083","depth":"31.4","md":"-.-","ml":"2.3","mw":"-.-","location":"AKDENIZ"},{"date":"2020.10.11","time":"12:23:33","latitude":"34.5042","longitude":"28.9522","depth":"6.3","md":"-.-","ml":"2.4","mw":"-.-","location":"AKDENIZ"},{"date":"2020.10.11","time":"12:00:59","latitude":"39.4272","longitude":"29.3462","depth":"0.0","md":"-.-","ml":"1.2","mw":"-.-","location":"GUNLUCE-EMET (KUTAHYA)"},{"date":"2020.10.11","time":"11:39:51","latitude":"37.5747","longitude":"29.2175","depth":"0.0","md":"-.-","ml":"1.4","mw":"-.-","location":"SERINHISAR (DENIZLI)"},{"date":"2020.10.11","time":"10:56:54","latitude":"38.6190","longitude":"27.0238","depth":"17.2","md":"-.-","ml":"1.9","mw":"-.-","location":"MENEMEN (IZMIR)"},{"date":"2020.10.11","time":"08:41:25","latitude":"38.4802","longitude":"25.4348","depth":"17.6","md":"-.-","ml":"3.8","mw":"3.8","location":"EGE DENIZI"},{"date":"2020.10.11","time":"07:44:53","latitude":"37.6583","longitude":"26.9312","depth":"17.6","md":"-.-","ml":"1.3","mw":"-.-","location":"EGE DENIZI"},{"date":"2020.10.11","time":"07:27:49","latitude":"38.4105","longitude":"39.0378","depth":"17.1","md":"-.-","ml":"1.8","mw":"-.-","location":"TARLATEPE-SIVRICE (ELAZIG)"},{"date":"2020.10.11","time":"05:29:37","latitude":"39.1400","longitude":"29.3845","depth":"15.8","md":"-.-","ml":"2.0","mw":"-.-","location":"YESILOVA-GEDIZ (KUTAHYA)"},{"date":"2020.10.11","time":"02:39:50","latitude":"39.2285","longitude":"27.8155","depth":"11.6","md":"-.-","ml":"1.4","mw":"-.-","location":"SOGUTALANI-KIRKAGAC (MANISA)"},{"date":"2020.10.11","time":"02:28:31","latitude":"38.7327","longitude":"39.9620","depth":"11.4","md":"-.-","ml":"1.9","mw":"-.-","location":"SENOVA-KOVANCILAR (ELAZIG)"},{"date":"2020.10.11","time":"02:05:37","latitude":"38.1683","longitude":"38.7262","depth":"7.7","md":"-.-","ml":"1.7","mw":"-.-","location":"YAZICA-PUTURGE (MALATYA)"},{"date":"2020.10.11","time":"01:23:03","latitude":"38.7262","longitude":"41.9188","depth":"5.0","md":"-.-","ml":"2.5","mw":"-.-","location":"AKYILDIZ-KORKUT (MUS)"},{"date":"2020.10.11","time":"00:47:59","latitude":"35.2315","longitude":"27.1055","depth":"6.8","md":"-.-","ml":"2.6","mw":"-.-","location":"AKDENIZ"},{"date":"2020.10.11","time":"00:21:37","latitude":"37.3800","longitude":"26.6943","depth":"8.1","md":"-.-","ml":"1.8","mw":"-.-","location":"ONIKI ADALAR (AKDENIZ)"},{"date":"2020.10.10","time":"23:25:55","latitude":"37.8785","longitude":"26.7262","depth":"5.5","md":"-.-","ml":"1.3","mw":"-.-","location":"EGE DENIZI"},{"date":"2020.10.10","time":"23:07:19","latitude":"39.3808","longitude":"40.5270","depth":"3.5","md":"-.-","ml":"1.6","mw":"-.-","location":"SENKOY-YEDISU (BINGOL)"},{"date":"2020.10.10","time":"21:01:57","latitude":"37.9405","longitude":"34.0683","depth":"6.5","md":"-.-","ml":"1.9","mw":"-.-","location":"OBRUK-BOR (NIGDE)"},{"date":"2020.10.10","time":"19:34:19","latitude":"38.3957","longitude":"39.2218","depth":"3.6","md":"-.-","ml":"1.3","mw":"-.-","location":"DORTBOLUK-SIVRICE (ELAZIG)"},{"date":"2020.10.10","time":"18:30:25","latitude":"38.2375","longitude":"38.7810","depth":"2.1","md":"-.-","ml":"2.8","mw":"-.-","location":"ORMANICI-PUTURGE (MALATYA)"},{"date":"2020.10.10","time":"18:03:11","latitude":"36.0463","longitude":"27.4095","depth":"9.9","md":"-.-","ml":"2.1","mw":"-.-","location":"AKDENIZ"},{"date":"2020.10.10","time":"17:13:17","latitude":"40.8075","longitude":"33.0580","depth":"9.2","md":"-.-","ml":"2.0","mw":"-.-","location":"ATKARACALAR (CANKIRI)"},{"date":"2020.10.10","time":"17:04:03","latitude":"39.0013","longitude":"27.9008","depth":"5.4","md":"-.-","ml":"1.7","mw":"-.-","location":"YENICE-AKHISAR (MANISA)"},{"date":"2020.10.10","time":"16:38:52","latitude":"40.5247","longitude":"29.2400","depth":"2.5","md":"-.-","ml":"1.3","mw":"-.-","location":"HAMZALI-ORHANGAZI (BURSA)"},{"date":"2020.10.10","time":"16:06:52","latitude":"40.7930","longitude":"33.1100","depth":"1.4","md":"-.-","ml":"2.0","mw":"-.-","location":"ILIPINAR-ATKARACALAR (CANKIRI)"},{"date":"2020.10.10","time":"15:54:14","latitude":"38.4687","longitude":"34.1202","depth":"9.0","md":"-.-","ml":"2.0","mw":"-.-","location":"AGZIKARAHAN-(AKSARAY)"},{"date":"2020.10.10","time":"14:46:05","latitude":"40.7008","longitude":"32.9908","depth":"5.0","md":"-.-","ml":"3.8","mw":"3.8","location":"HACILAR-CERKES (CANKIRI)"},{"date":"2020.10.10","time":"14:35:53","latitude":"36.4740","longitude":"28.7307","depth":"4.9","md":"-.-","ml":"1.9","mw":"-.-","location":"AKDENIZ"},{"date":"2020.10.10","time":"13:44:46","latitude":"37.2452","longitude":"28.2312","depth":"5.0","md":"-.-","ml":"1.7","mw":"-.-","location":"PASAPINARI-(MUGLA)"},{"date":"2020.10.10","time":"13:14:19","latitude":"39.0953","longitude":"27.6643","depth":"0.0","md":"-.-","ml":"1.6","mw":"-.-","location":"KIRKAGAC (MANISA)"},{"date":"2020.10.10","time":"13:09:16","latitude":"36.1545","longitude":"33.5400","depth":"0.0","md":"-.-","ml":"1.4","mw":"-.-","location":"BUYUKECELI-GULNAR (MERSIN)"},{"date":"2020.10.10","time":"13:00:38","latitude":"37.2452","longitude":"28.2323","depth":"7.0","md":"-.-","ml":"1.7","mw":"-.-","location":"PASAPINARI-(MUGLA)"},{"date":"2020.10.10","time":"12:50:44","latitude":"37.2407","longitude":"28.1680","depth":"1.8","md":"-.-","ml":"1.6","mw":"-.-","location":"CAYBUKU-(MUGLA)"},{"date":"2020.10.10","time":"12:37:29","latitude":"35.8385","longitude":"28.1353","depth":"13.6","md":"-.-","ml":"2.1","mw":"-.-","location":"AKDENIZ"},{"date":"2020.10.10","time":"12:36:10","latitude":"36.2815","longitude":"30.0085","depth":"21.9","md":"-.-","ml":"1.5","mw":"-.-","location":"KOSKERLER-DEMRE (ANTALYA)"},{"date":"2020.10.10","time":"12:28:19","latitude":"38.4108","longitude":"34.3450","depth":"4.6","md":"-.-","ml":"1.8","mw":"-.-","location":"GULAGAC (AKSARAY)"},{"date":"2020.10.10","time":"12:23:13","latitude":"37.2188","longitude":"27.9545","depth":"4.4","md":"-.-","ml":"1.5","mw":"-.-","location":"CAMLICA-YATAGAN (MUGLA)"},{"date":"2020.10.10","time":"12:17:03","latitude":"37.2137","longitude":"27.8960","depth":"5.0","md":"-.-","ml":"1.1","mw":"-.-","location":"KAYADERE-MILAS (MUGLA)"},{"date":"2020.10.10","time":"12:11:51","latitude":"37.1250","longitude":"27.8380","depth":"5.2","md":"-.-","ml":"1.5","mw":"-.-","location":"PINARARASI-MILAS (MUGLA)"},{"date":"2020.10.10","time":"12:07:25","latitude":"37.2562","longitude":"37.5860","depth":"5.0","md":"-.-","ml":"1.8","mw":"-.-","location":"SARAYMAGARA-YAVUZELI (GAZIANTEP)"},{"date":"2020.10.10","time":"10:18:23","latitude":"36.2567","longitude":"28.0625","depth":"5.4","md":"-.-","ml":"3.2","mw":"3.3","location":"RODOS ADASI (AKDENIZ)"},{"date":"2020.10.10","time":"09:29:45","latitude":"45.2793","longitude":"25.5502","depth":"78.1","md":"-.-","ml":"3.8","mw":"3.8","location":"ROMANYA"},{"date":"2020.10.10","time":"09:02:54","latitude":"37.2417","longitude":"28.2585","depth":"8.3","md":"-.-","ml":"1.7","mw":"-.-","location":"SALIHPASALAR-(MUGLA)"},{"date":"2020.10.10","time":"08:52:44","latitude":"39.4135","longitude":"28.1245","depth":"1.7","md":"-.-","ml":"0.9","mw":"-.-","location":"ISIKLAR-BIGADIC (BALIKESIR)"},{"date":"2020.10.10","time":"08:46:54","latitude":"38.6420","longitude":"38.1132","depth":"1.8","md":"-.-","ml":"2.3","mw":"-.-","location":"FETHIYE-YAZIHAN (MALATYA)"},{"date":"2020.10.10","time":"08:45:07","latitude":"39.4503","longitude":"31.5492","depth":"10.1","md":"-.-","ml":"1.3","mw":"-.-","location":"SIVRIHISAR (ESKISEHIR)"},{"date":"2020.10.10","time":"08:30:27","latitude":"34.0450","longitude":"25.8755","depth":"8.5","md":"-.-","ml":"3.2","mw":"3.3","location":"GIRIT ADASI ACIKLARI (AKDENIZ)"},{"date":"2020.10.10","time":"07:07:29","latitude":"38.0787","longitude":"44.6380","depth":"9.2","md":"-.-","ml":"3.4","mw":"3.6","location":"TURKIYE-IRAN SINIR BOLGESI"},{"date":"2020.10.10","time":"06:11:46","latitude":"38.0218","longitude":"34.1177","depth":"11.6","md":"-.-","ml":"1.6","mw":"-.-","location":"KECIKALESI-ALTUNHISAR (NIGDE)"},{"date":"2020.10.10","time":"05:45:14","latitude":"39.1678","longitude":"29.3648","depth":"10.3","md":"-.-","ml":"0.6","mw":"-.-","location":"SEYHLER-HISARCIK (KUTAHYA)"},{"date":"2020.10.10","time":"05:41:59","latitude":"39.1473","longitude":"29.4280","depth":"10.7","md":"-.-","ml":"2.4","mw":"-.-","location":"YESILOVA-GEDIZ (KUTAHYA)"},{"date":"2020.10.10","time":"05:35:18","latitude":"37.3232","longitude":"26.7430","depth":"10.8","md":"-.-","ml":"1.8","mw":"-.-","location":"ONIKI ADALAR (AKDENIZ)"},{"date":"2020.10.10","time":"04:41:56","latitude":"38.3312","longitude":"38.9723","depth":"16.0","md":"-.-","ml":"2.0","mw":"-.-","location":"TOPALUSAGI-SIVRICE (ELAZIG)"},{"date":"2020.10.10","time":"04:10:51","latitude":"37.1567","longitude":"27.9252","depth":"4.6","md":"-.-","ml":"1.2","mw":"-.-","location":"KARACAAGAC-MILAS (MUGLA)"},{"date":"2020.10.10","time":"03:56:03","latitude":"40.3278","longitude":"43.0112","depth":"27.8","md":"-.-","ml":"2.2","mw":"-.-","location":"KOMURLU-KAGIZMAN (KARS)"},{"date":"2020.10.10","time":"03:15:46","latitude":"38.7970","longitude":"25.2912","depth":"5.0","md":"-.-","ml":"2.3","mw":"-.-","location":"EGE DENIZI"},{"date":"2020.10.10","time":"02:22:27","latitude":"41.0220","longitude":"31.7220","depth":"5.4","md":"-.-","ml":"2.0","mw":"-.-","location":"YAYLATEPE-YIGILCA (DUZCE)"},{"date":"2020.10.10","time":"00:28:21","latitude":"40.8248","longitude":"28.0153","depth":"14.5","md":"-.-","ml":"2.3","mw":"-.-","location":"MARMARA DENIZI"},{"date":"2020.10.10","time":"00:18:54","latitude":"38.4283","longitude":"39.2655","depth":"7.2","md":"-.-","ml":"1.6","mw":"-.-","location":"DUZBAHCE-SIVRICE (ELAZIG)"},{"date":"2020.10.09","time":"23:19:38","latitude":"39.0613","longitude":"30.1768","depth":"11.6","md":"-.-","ml":"1.3","mw":"-.-","location":"MERKEZ-ALTINTAS (KUTAHYA)"},{"date":"2020.10.09","time":"23:01:21","latitude":"38.7095","longitude":"26.5085","depth":"12.9","md":"-.-","ml":"1.9","mw":"-.-","location":"IZMIR KORFEZI (EGE DENIZI)"},{"date":"2020.10.09","time":"22:50:53","latitude":"39.5248","longitude":"28.8065","depth":"3.1","md":"-.-","ml":"0.9","mw":"-.-","location":"POYRACIK-DURSUNBEY (BALIKESIR)"},{"date":"2020.10.09","time":"22:18:12","latitude":"34.9067","longitude":"25.3558","depth":"73.7","md":"-.-","ml":"2.6","mw":"-.-","location":"GIRIT ADASI (AKDENIZ)"},{"date":"2020.10.09","time":"20:57:25","latitude":"38.0620","longitude":"38.6900","depth":"22.0","md":"-.-","ml":"1.3","mw":"-.-","location":"CAT-SINCIK (ADIYAMAN)"},{"date":"2020.10.09","time":"20:56:39","latitude":"37.5012","longitude":"27.5900","depth":"16.0","md":"-.-","ml":"1.8","mw":"-.-","location":"KARAHAYIT-MILAS (MUGLA)"},{"date":"2020.10.09","time":"20:28:45","latitude":"38.4103","longitude":"39.2370","depth":"7.6","md":"-.-","ml":"1.7","mw":"-.-","location":"SOGUKPINAR-SIVRICE (ELAZIG)"},{"date":"2020.10.09","time":"20:23:21","latitude":"37.2698","longitude":"26.5727","depth":"26.7","md":"-.-","ml":"2.0","mw":"-.-","location":"ONIKI ADALAR (AKDENIZ)"},{"date":"2020.10.09","time":"20:19:46","latitude":"36.9793","longitude":"27.8840","depth":"4.5","md":"-.-","ml":"1.6","mw":"-.-","location":"GOKOVA KORFEZI (AKDENIZ)"},{"date":"2020.10.09","time":"20:12:03","latitude":"36.9768","longitude":"27.7492","depth":"5.0","md":"-.-","ml":"2.5","mw":"-.-","location":"GOKOVA KORFEZI (AKDENIZ)"},{"date":"2020.10.09","time":"19:24:10","latitude":"38.9703","longitude":"27.8572","depth":"3.9","md":"-.-","ml":"1.8","mw":"-.-","location":"KARABORKLU-AKHISAR (MANISA)"},{"date":"2020.10.09","time":"19:11:24","latitude":"37.3303","longitude":"26.7595","depth":"17.1","md":"-.-","ml":"2.0","mw":"-.-","location":"ONIKI ADALAR (AKDENIZ)"},{"date":"2020.10.09","time":"19:09:52","latitude":"37.3142","longitude":"26.6922","depth":"18.1","md":"-.-","ml":"2.9","mw":"-.-","location":"ONIKI ADALAR (AKDENIZ)"},{"date":"2020.10.09","time":"18:39:03","latitude":"39.8937","longitude":"33.0750","depth":"0.0","md":"-.-","ml":"1.7","mw":"-.-","location":"ELMADAG (ANKARA)"},{"date":"2020.10.09","time":"18:30:16","latitude":"39.6445","longitude":"35.5932","depth":"7.9","md":"-.-","ml":"1.7","mw":"-.-","location":"OZAN-SARAYKENT (YOZGAT)"},{"date":"2020.10.09","time":"17:58:48","latitude":"40.5977","longitude":"27.4783","depth":"9.0","md":"-.-","ml":"1.6","mw":"-.-","location":"EKINLIK-MARMARA (BALIKESIR)"},{"date":"2020.10.09","time":"17:46:38","latitude":"36.8528","longitude":"27.8953","depth":"10.4","md":"-.-","ml":"1.8","mw":"-.-","location":"GOKOVA KORFEZI (AKDENIZ)"},{"date":"2020.10.09","time":"17:22:19","latitude":"37.2115","longitude":"37.2087","depth":"0.0","md":"-.-","ml":"1.1","mw":"-.-","location":"UCGOZE-SEHITKAMIL (GAZIANTEP)"},{"date":"2020.10.09","time":"16:59:02","latitude":"38.6657","longitude":"38.0415","depth":"5.0","md":"-.-","ml":"2.2","mw":"-.-","location":"ALICAN-YAZIHAN (MALATYA)"},{"date":"2020.10.09","time":"15:36:26","latitude":"36.4397","longitude":"27.7085","depth":"5.0","md":"-.-","ml":"2.5","mw":"-.-","location":"AKDENIZ"},{"date":"2020.10.09","time":"14:53:57","latitude":"38.1333","longitude":"45.0028","depth":"82.0","md":"-.-","ml":"2.5","mw":"-.-","location":"IRAN"},{"date":"2020.10.09","time":"14:13:14","latitude":"39.4107","longitude":"29.4803","depth":"27.0","md":"-.-","ml":"1.5","mw":"-.-","location":"UYUCEK-TAVSANLI (KUTAHYA)"},{"date":"2020.10.09","time":"13:33:21","latitude":"41.1108","longitude":"40.0858","depth":"6.8","md":"-.-","ml":"2.1","mw":"-.-","location":"TRABZON ACIKLARI (KARADENIZ)"},{"date":"2020.10.09","time":"13:11:02","latitude":"39.7442","longitude":"30.7858","depth":"0.0","md":"-.-","ml":"1.4","mw":"-.-","location":"KIRECKOYU-ODUNPAZARI (ESKISEHIR)"},{"date":"2020.10.09","time":"13:08:23","latitude":"36.4253","longitude":"34.2455","depth":"11.1","md":"-.-","ml":"1.6","mw":"-.-","location":"AYAS-ERDEMLI (MERSIN)"},{"date":"2020.10.09","time":"12:25:54","latitude":"39.1603","longitude":"29.4065","depth":"7.2","md":"-.-","ml":"1.7","mw":"-.-","location":"YESILOVA-GEDIZ (KUTAHYA)"},{"date":"2020.10.09","time":"12:12:04","latitude":"39.5850","longitude":"29.4193","depth":"0.0","md":"-.-","ml":"1.5","mw":"-.-","location":"KAYAARASI-TAVSANLI (KUTAHYA)"},{"date":"2020.10.09","time":"12:08:00","latitude":"39.4515","longitude":"28.1408","depth":"9.5","md":"-.-","ml":"1.4","mw":"-.-","location":"SALMANLI-BIGADIC (BALIKESIR)"},{"date":"2020.10.09","time":"11:59:16","latitude":"39.8900","longitude":"28.8268","depth":"0.0","md":"-.-","ml":"1.5","mw":"-.-","location":"YENIDANISMENT-ORHANELI (BURSA)"},{"date":"2020.10.09","time":"11:49:18","latitude":"37.6153","longitude":"29.2030","depth":"0.0","md":"-.-","ml":"1.2","mw":"-.-","location":"SARIABAT-TAVAS (DENIZLI)"},{"date":"2020.10.09","time":"11:45:51","latitude":"37.0297","longitude":"29.5482","depth":"5.0","md":"-.-","ml":"1.2","mw":"-.-","location":"CATAK-ALTINYAYLA (BURDUR)"},{"date":"2020.10.09","time":"11:26:24","latitude":"37.4470","longitude":"29.2175","depth":"31.2","md":"-.-","ml":"0.8","mw":"-.-","location":"OVACIK-TAVAS (DENIZLI)"},{"date":"2020.10.09","time":"09:44:44","latitude":"38.5362","longitude":"26.6670","depth":"5.5","md":"-.-","ml":"1.7","mw":"-.-","location":"IZMIR KORFEZI (EGE DENIZI)"},{"date":"2020.10.09","time":"09:38:46","latitude":"38.2487","longitude":"38.7562","depth":"10.8","md":"-.-","ml":"0.9","mw":"-.-","location":"BALPINARI-PUTURGE (MALATYA)"},{"date":"2020.10.09","time":"08:57:57","latitude":"39.1638","longitude":"29.3932","depth":"9.3","md":"-.-","ml":"1.6","mw":"-.-","location":"YESILOVA-GEDIZ (KUTAHYA)"},{"date":"2020.10.09","time":"08:38:22","latitude":"38.8145","longitude":"27.0192","depth":"6.0","md":"-.-","ml":"2.0","mw":"-.-","location":"GUZELHISAR-ALIAGA (IZMIR)"},{"date":"2020.10.09","time":"06:37:44","latitude":"34.9165","longitude":"26.7197","depth":"6.8","md":"-.-","ml":"3.0","mw":"-.-","location":"GIRIT ADASI ACIKLARI (AKDENIZ)"},{"date":"2020.10.09","time":"05:32:32","latitude":"36.8692","longitude":"29.1912","depth":"5.4","md":"-.-","ml":"1.3","mw":"-.-","location":"SOGUTLU-FETHIYE (MUGLA)"},{"date":"2020.10.09","time":"04:47:19","latitude":"39.4848","longitude":"29.0395","depth":"8.2","md":"-.-","ml":"1.9","mw":"-.-","location":"KAVAKLI-TAVSANLI (KUTAHYA)"},{"date":"2020.10.09","time":"03:35:34","latitude":"36.7837","longitude":"27.1250","depth":"25.9","md":"-.-","ml":"1.3","mw":"-.-","location":"KOS ADASI (AKDENIZ)"},{"date":"2020.10.09","time":"03:00:20","latitude":"37.8605","longitude":"26.7367","depth":"7.7","md":"-.-","ml":"3.6","mw":"3.6","location":"EGE DENIZI"},{"date":"2020.10.09","time":"02:01:04","latitude":"37.4585","longitude":"29.9223","depth":"5.0","md":"-.-","ml":"1.6","mw":"-.-","location":"MURSELLER-KARAMANLI (BURDUR)"},{"date":"2020.10.09","time":"01:03:26","latitude":"40.7267","longitude":"31.4693","depth":"15.7","md":"-.-","ml":"1.8","mw":"-.-","location":"YOLCATI-(BOLU)"},{"date":"2020.10.08","time":"23:45:18","latitude":"38.4202","longitude":"42.7638","depth":"5.3","md":"-.-","ml":"2.3","mw":"-.-","location":"DAGDIBI-TATVAN (BITLIS)"},{"date":"2020.10.08","time":"22:46:05","latitude":"36.3402","longitude":"28.1480","depth":"14.6","md":"-.-","ml":"1.4","mw":"-.-","location":"RODOS ADASI (AKDENIZ)"},{"date":"2020.10.08","time":"22:38:55","latitude":"36.8623","longitude":"28.8487","depth":"14.2","md":"-.-","ml":"1.2","mw":"-.-","location":"KIZILKAYA-DALAMAN (MUGLA)"},{"date":"2020.10.08","time":"21:07:07","latitude":"37.7158","longitude":"32.2300","depth":"0.0","md":"-.-","ml":"1.8","mw":"-.-","location":"KAYALI-MERAM (KONYA)"},{"date":"2020.10.08","time":"21:01:57","latitude":"38.9573","longitude":"27.1740","depth":"13.3","md":"-.-","ml":"1.7","mw":"-.-","location":"KOYUNELI-BERGAMA (IZMIR)"},{"date":"2020.10.08","time":"20:41:56","latitude":"37.2307","longitude":"32.3852","depth":"19.7","md":"-.-","ml":"1.9","mw":"-.-","location":"AYDINKISLA-BOZKIR (KONYA)"},{"date":"2020.10.08","time":"20:01:54","latitude":"37.9623","longitude":"34.0830","depth":"15.7","md":"-.-","ml":"1.8","mw":"-.-","location":"OBRUK-BOR (NIGDE)"},{"date":"2020.10.08","time":"20:00:09","latitude":"40.7230","longitude":"33.0127","depth":"11.9","md":"-.-","ml":"1.6","mw":"-.-","location":"GUZELYURT-CERKES (CANKIRI)"},{"date":"2020.10.08","time":"19:45:36","latitude":"38.2838","longitude":"38.7488","depth":"5.4","md":"-.-","ml":"2.7","mw":"-.-","location":"BALPINARI-PUTURGE (MALATYA)"},{"date":"2020.10.08","time":"19:36:43","latitude":"40.7635","longitude":"32.9933","depth":"9.9","md":"-.-","ml":"2.4","mw":"-.-","location":"YALIOZU-CERKES (CANKIRI)"},{"date":"2020.10.08","time":"19:06:04","latitude":"34.8522","longitude":"24.3087","depth":"5.0","md":"-.-","ml":"2.9","mw":"-.-","location":"GIRIT ADASI ACIKLARI (AKDENIZ)"},{"date":"2020.10.08","time":"16:55:52","latitude":"38.7518","longitude":"27.9365","depth":"5.3","md":"-.-","ml":"2.4","mw":"-.-","location":"HIROGLU-GOLMARMARA (MANISA)"},{"date":"2020.10.08","time":"16:55:30","latitude":"38.3877","longitude":"39.2262","depth":"11.5","md":"-.-","ml":"1.7","mw":"-.-","location":"DORTBOLUK-SIVRICE (ELAZIG)"},{"date":"2020.10.08","time":"16:44:07","latitude":"38.9687","longitude":"32.7377","depth":"0.0","md":"-.-","ml":"1.7","mw":"-.-","location":"BULDUK-CIHANBEYLI (KONYA)"},{"date":"2020.10.08","time":"16:17:37","latitude":"36.8892","longitude":"27.8208","depth":"3.2","md":"-.-","ml":"1.4","mw":"-.-","location":"GOKOVA KORFEZI (AKDENIZ)"},{"date":"2020.10.08","time":"16:08:12","latitude":"38.2167","longitude":"38.7780","depth":"14.6","md":"-.-","ml":"2.1","mw":"-.-","location":"ORMANICI-PUTURGE (MALATYA)"},{"date":"2020.10.08","time":"15:48:07","latitude":"36.2915","longitude":"27.9738","depth":"23.2","md":"-.-","ml":"1.9","mw":"-.-","location":"RODOS ADASI (AKDENIZ)"},{"date":"2020.10.08","time":"14:19:30","latitude":"39.2307","longitude":"33.3922","depth":"25.9","md":"-.-","ml":"1.2","mw":"-.-","location":"BUYUKDAMLACIK-SEREFLIKOCHISAR (ANKARA)"},{"date":"2020.10.08","time":"13:02:32","latitude":"34.7140","longitude":"24.3107","depth":"9.0","md":"-.-","ml":"3.2","mw":"3.2","location":"GIRIT ADASI ACIKLARI (AKDENIZ)"},{"date":"2020.10.08","time":"12:22:55","latitude":"39.6270","longitude":"29.4145","depth":"0.0","md":"-.-","ml":"1.4","mw":"-.-","location":"TUNCBILEK-TAVSANLI (KUTAHYA)"},{"date":"2020.10.08","time":"12:11:53","latitude":"39.6103","longitude":"29.3417","depth":"16.8","md":"-.-","ml":"1.5","mw":"-.-","location":"YENIKOY-TAVSANLI (KUTAHYA)"},{"date":"2020.10.08","time":"12:06:22","latitude":"36.5915","longitude":"30.1257","depth":"29.4","md":"-.-","ml":"1.4","mw":"-.-","location":"KARACAOREN-KUMLUCA (ANTALYA)"},{"date":"2020.10.08","time":"12:04:39","latitude":"38.8420","longitude":"37.8957","depth":"10.1","md":"-.-","ml":"1.8","mw":"-.-","location":"BEYKENT-HEKIMHAN (MALATYA)"},{"date":"2020.10.08","time":"11:57:20","latitude":"37.2223","longitude":"28.1820","depth":"0.0","md":"-.-","ml":"1.6","mw":"-.-","location":"CAYBUKU-(MUGLA)"},{"date":"2020.10.08","time":"11:49:51","latitude":"38.8435","longitude":"37.8988","depth":"2.8","md":"-.-","ml":"1.1","mw":"-.-","location":"BEYKENT-HEKIMHAN (MALATYA)"},{"date":"2020.10.08","time":"11:48:25","latitude":"37.2392","longitude":"31.7345","depth":"13.5","md":"-.-","ml":"1.8","mw":"-.-","location":"SALIHLER-AKSEKI (ANTALYA)"},{"date":"2020.10.08","time":"11:27:00","latitude":"40.4798","longitude":"29.2815","depth":"0.0","md":"-.-","ml":"1.7","mw":"-.-","location":"FINDIKLI-ORHANGAZI (BURSA)"},{"date":"2020.10.08","time":"11:18:41","latitude":"37.9627","longitude":"34.1057","depth":"4.3","md":"-.-","ml":"2.0","mw":"-.-","location":"OBRUK-BOR (NIGDE)"},{"date":"2020.10.08","time":"10:01:34","latitude":"39.1340","longitude":"27.6335","depth":"0.0","md":"-.-","ml":"1.3","mw":"-.-","location":"SARIKAYA-SOMA (MANISA)"},{"date":"2020.10.08","time":"09:32:40","latitude":"39.0370","longitude":"27.8230","depth":"3.2","md":"-.-","ml":"1.1","mw":"-.-","location":"MUSALAR-AKHISAR (MANISA)"},{"date":"2020.10.08","time":"09:16:36","latitude":"34.8690","longitude":"24.2952","depth":"5.0","md":"-.-","ml":"3.5","mw":"3.3","location":"GIRIT ADASI ACIKLARI (AKDENIZ)"},{"date":"2020.10.08","time":"09:12:28","latitude":"38.6582","longitude":"38.0487","depth":"6.2","md":"-.-","ml":"1.4","mw":"-.-","location":"ALICAN-YAZIHAN (MALATYA)"},{"date":"2020.10.08","time":"08:23:01","latitude":"40.0510","longitude":"35.7483","depth":"5.0","md":"-.-","ml":"1.9","mw":"-.-","location":"YAVUHASAN-KADISEHRI (YOZGAT)"},{"date":"2020.10.08","time":"07:00:49","latitude":"39.1763","longitude":"28.9833","depth":"5.3","md":"-.-","ml":"2.6","mw":"-.-","location":"NASA-SIMAV (KUTAHYA)"},{"date":"2020.10.08","time":"06:59:40","latitude":"39.1670","longitude":"29.0067","depth":"6.0","md":"-.-","ml":"2.1","mw":"-.-","location":"KARACAOREN-SIMAV (KUTAHYA)"},{"date":"2020.10.08","time":"05:59:20","latitude":"39.3620","longitude":"40.6972","depth":"4.3","md":"-.-","ml":"1.6","mw":"-.-","location":"DINARBEY-YEDISU (BINGOL)"},{"date":"2020.10.08","time":"05:56:00","latitude":"38.5423","longitude":"38.7938","depth":"2.5","md":"-.-","ml":"2.1","mw":"-.-","location":"SAHAPLI-BASKIL (ELAZIG)"},{"date":"2020.10.08","time":"04:36:48","latitude":"35.3847","longitude":"26.6488","depth":"5.0","md":"-.-","ml":"1.3","mw":"-.-","location":"GIRIT ADASI (AKDENIZ)"},{"date":"2020.10.08","time":"04:09:40","latitude":"35.3868","longitude":"26.6385","depth":"5.0","md":"-.-","ml":"1.2","mw":"-.-","location":"GIRIT ADASI (AKDENIZ)"},{"date":"2020.10.08","time":"04:05:52","latitude":"37.8965","longitude":"32.2107","depth":"3.5","md":"-.-","ml":"1.0","mw":"-.-","location":"ULUMUHSINE-SELCUKLU (KONYA)"},{"date":"2020.10.08","time":"03:58:38","latitude":"38.3800","longitude":"39.1683","depth":"6.7","md":"-.-","ml":"1.6","mw":"-.-","location":"KOSEBAYIR-SIVRICE (ELAZIG)"},{"date":"2020.10.08","time":"03:43:35","latitude":"35.0497","longitude":"26.9798","depth":"5.0","md":"-.-","ml":"2.6","mw":"-.-","location":"GIRIT ADASI ACIKLARI (AKDENIZ)"},{"date":"2020.10.08","time":"02:55:34","latitude":"35.7445","longitude":"26.9392","depth":"12.8","md":"-.-","ml":"1.4","mw":"-.-","location":"AKDENIZ"},{"date":"2020.10.08","time":"02:38:14","latitude":"36.8907","longitude":"28.0042","depth":"4.7","md":"-.-","ml":"1.3","mw":"-.-","location":"GOKOVA KORFEZI (AKDENIZ)"},{"date":"2020.10.08","time":"02:37:21","latitude":"37.8112","longitude":"27.2257","depth":"4.7","md":"-.-","ml":"1.5","mw":"-.-","location":"KUSADASI KORFEZI (EGE DENIZI)"},{"date":"2020.10.08","time":"02:32:16","latitude":"40.1787","longitude":"24.9762","depth":"17.5","md":"-.-","ml":"2.1","mw":"-.-","location":"EGE DENIZI"},{"date":"2020.10.08","time":"01:36:47","latitude":"39.8185","longitude":"27.7215","depth":"8.4","md":"-.-","ml":"1.7","mw":"-.-","location":"GOKMUSA-BALYA (BALIKESIR)"},{"date":"2020.10.08","time":"00:44:16","latitude":"35.1117","longitude":"32.8510","depth":"15.3","md":"-.-","ml":"2.0","mw":"-.-","location":"KIBRIS-LEFKE"},{"date":"2020.10.08","time":"00:22:53","latitude":"36.5027","longitude":"27.4882","depth":"10.1","md":"-.-","ml":"1.7","mw":"-.-","location":"AKDENIZ"},{"date":"2020.10.08","time":"00:13:03","latitude":"36.1433","longitude":"29.2938","depth":"6.1","md":"-.-","ml":"1.4","mw":"-.-","location":"KALKAN ACIKLARI-ANTALYA (AKDENIZ)"},{"date":"2020.10.07","time":"21:51:41","latitude":"38.4278","longitude":"26.6268","depth":"12.6","md":"-.-","ml":"2.2","mw":"-.-","location":"BALIKLIOVA-URLA (IZMIR)"},{"date":"2020.10.07","time":"21:39:54","latitude":"39.2408","longitude":"43.7225","depth":"24.8","md":"-.-","ml":"2.0","mw":"-.-","location":"DEDEBULAK-DIYADIN (AGRI)"},{"date":"2020.10.07","time":"21:32:02","latitude":"34.4963","longitude":"25.0052","depth":"22.5","md":"-.-","ml":"3.3","mw":"3.3","location":"GIRIT ADASI ACIKLARI (AKDENIZ)"},{"date":"2020.10.07","time":"21:17:09","latitude":"36.4507","longitude":"28.6803","depth":"3.6","md":"-.-","ml":"1.8","mw":"-.-","location":"AKDENIZ"},{"date":"2020.10.07","time":"21:08:34","latitude":"35.7518","longitude":"28.3125","depth":"5.2","md":"-.-","ml":"1.6","mw":"-.-","location":"AKDENIZ"},{"date":"2020.10.07","time":"21:01:19","latitude":"35.8087","longitude":"28.2415","depth":"5.0","md":"-.-","ml":"1.5","mw":"-.-","location":"AKDENIZ"},{"date":"2020.10.07","time":"20:40:28","latitude":"39.7867","longitude":"27.5840","depth":"7.4","md":"-.-","ml":"1.2","mw":"-.-","location":"YAZLIK-BALYA (BALIKESIR)"},{"date":"2020.10.07","time":"20:24:42","latitude":"38.0382","longitude":"34.0957","depth":"2.5","md":"-.-","ml":"1.5","mw":"-.-","location":"KECIKALESI-ALTUNHISAR (NIGDE)"},{"date":"2020.10.07","time":"19:31:31","latitude":"38.0085","longitude":"34.0717","depth":"6.0","md":"-.-","ml":"2.2","mw":"-.-","location":"OBRUK-BOR (NIGDE)"},{"date":"2020.10.07","time":"18:46:17","latitude":"38.4123","longitude":"39.2760","depth":"21.0","md":"-.-","ml":"1.8","mw":"-.-","location":"YEDIKARDES-SIVRICE (ELAZIG)"},{"date":"2020.10.07","time":"17:55:45","latitude":"39.8848","longitude":"33.0590","depth":"0.0","md":"-.-","ml":"1.5","mw":"-.-","location":"MAMAK (ANKARA)"},{"date":"2020.10.07","time":"16:42:58","latitude":"38.3635","longitude":"39.6048","depth":"11.8","md":"-.-","ml":"2.3","mw":"-.-","location":"CAYIRKOY-MADEN (ELAZIG)"},{"date":"2020.10.07","time":"16:26:44","latitude":"38.4825","longitude":"39.2407","depth":"3.8","md":"-.-","ml":"3.5","mw":"3.5","location":"ALINCIK-SIVRICE (ELAZIG)"},{"date":"2020.10.07","time":"16:10:09","latitude":"37.1018","longitude":"27.8657","depth":"8.9","md":"-.-","ml":"1.7","mw":"-.-","location":"BAYIRKOY-MILAS (MUGLA)"},{"date":"2020.10.07","time":"16:08:18","latitude":"37.1083","longitude":"27.8660","depth":"5.4","md":"-.-","ml":"2.3","mw":"-.-","location":"BAYIRKOY-MILAS (MUGLA)"},{"date":"2020.10.07","time":"15:16:28","latitude":"35.8655","longitude":"32.7258","depth":"25.6","md":"-.-","ml":"2.1","mw":"-.-","location":"ANAMUR ACIKLARI-MERSIN (AKDENIZ)"},{"date":"2020.10.07","time":"14:27:43","latitude":"36.0177","longitude":"30.7553","depth":"16.2","md":"-.-","ml":"2.6","mw":"-.-","location":"AKDENIZ"},{"date":"2020.10.07","time":"14:12:41","latitude":"36.0238","longitude":"30.7987","depth":"1.7","md":"-.-","ml":"2.6","mw":"-.-","location":"AKDENIZ"},{"date":"2020.10.07","time":"14:01:18","latitude":"36.7385","longitude":"29.9395","depth":"5.0","md":"-.-","ml":"1.2","mw":"-.-","location":"ELMALI (ANTALYA)"},{"date":"2020.10.07","time":"13:34:58","latitude":"38.2040","longitude":"38.7462","depth":"10.3","md":"-.-","ml":"2.2","mw":"-.-","location":"PAZARCIK-PUTURGE (MALATYA)"},{"date":"2020.10.07","time":"13:16:54","latitude":"39.8748","longitude":"33.0570","depth":"9.0","md":"-.-","ml":"1.6","mw":"-.-","location":"MAMAK (ANKARA)"},{"date":"2020.10.07","time":"13:05:17","latitude":"39.9058","longitude":"28.8565","depth":"0.0","md":"-.-","ml":"1.7","mw":"-.-","location":"DUNDAR-ORHANELI (BURSA)"},{"date":"2020.10.07","time":"13:03:00","latitude":"36.9537","longitude":"28.2415","depth":"5.0","md":"-.-","ml":"1.2","mw":"-.-","location":"CAMLI-MARMARIS (MUGLA)"},{"date":"2020.10.07","time":"12:27:44","latitude":"39.2753","longitude":"27.6058","depth":"14.3","md":"-.-","ml":"1.5","mw":"-.-","location":"HECIZ-SOMA (MANISA)"},{"date":"2020.10.07","time":"12:06:46","latitude":"39.8290","longitude":"29.6278","depth":"0.0","md":"-.-","ml":"1.9","mw":"-.-","location":"DURABEY-DOMANIC (KUTAHYA)"},{"date":"2020.10.07","time":"11:52:09","latitude":"37.2337","longitude":"28.1627","depth":"0.0","md":"-.-","ml":"1.6","mw":"-.-","location":"CAYBUKU-(MUGLA)"},{"date":"2020.10.07","time":"11:51:46","latitude":"39.9983","longitude":"30.1583","depth":"0.0","md":"-.-","ml":"1.8","mw":"-.-","location":"KIZILSARAY-SOGUT (BILECIK)"},{"date":"2020.10.07","time":"11:45:20","latitude":"40.5382","longitude":"29.2583","depth":"0.0","md":"-.-","ml":"1.8","mw":"-.-","location":"HAMZALI-ORHANGAZI (BURSA)"},{"date":"2020.10.07","time":"11:29:03","latitude":"36.8725","longitude":"27.9833","depth":"5.0","md":"-.-","ml":"1.4","mw":"-.-","location":"GOKOVA KORFEZI (AKDENIZ)"},{"date":"2020.10.07","time":"11:02:09","latitude":"39.8380","longitude":"24.3575","depth":"5.0","md":"-.-","ml":"2.6","mw":"-.-","location":"YUNANISTAN"},{"date":"2020.10.07","time":"10:08:31","latitude":"39.4338","longitude":"28.0878","depth":"9.9","md":"-.-","ml":"1.3","mw":"-.-","location":"BADEMLI-BIGADIC (BALIKESIR)"},{"date":"2020.10.07","time":"09:32:55","latitude":"36.8785","longitude":"26.6905","depth":"22.1","md":"-.-","ml":"1.8","mw":"-.-","location":"AKDENIZ"},{"date":"2020.10.07","time":"09:17:55","latitude":"36.8707","longitude":"28.0083","depth":"6.6","md":"-.-","ml":"1.7","mw":"-.-","location":"GOKOVA KORFEZI (AKDENIZ)"},{"date":"2020.10.07","time":"07:55:22","latitude":"37.9988","longitude":"34.1073","depth":"5.0","md":"-.-","ml":"2.9","mw":"-.-","location":"KECIKALESI-ALTUNHISAR (NIGDE)"},{"date":"2020.10.07","time":"07:35:27","latitude":"37.9897","longitude":"34.0870","depth":"5.4","md":"-.-","ml":"2.6","mw":"-.-","location":"OBRUK-BOR (NIGDE)"},{"date":"2020.10.07","time":"05:35:03","latitude":"38.5360","longitude":"25.7607","depth":"7.6","md":"-.-","ml":"3.0","mw":"3.1","location":"SAKIZ ADASI (EGE DENIZI)"},{"date":"2020.10.07","time":"05:30:53","latitude":"39.1557","longitude":"28.9898","depth":"5.4","md":"-.-","ml":"2.5","mw":"-.-","location":"NASA-SIMAV (KUTAHYA)"},{"date":"2020.10.07","time":"05:01:01","latitude":"40.8763","longitude":"28.2140","depth":"14.7","md":"-.-","ml":"1.9","mw":"-.-","location":"SILIVRI ACIKLARI-ISTANBUL (MARMARA DENIZI)"},{"date":"2020.10.07","time":"04:59:35","latitude":"36.8892","longitude":"28.0032","depth":"5.2","md":"-.-","ml":"1.1","mw":"-.-","location":"GOKOVA KORFEZI (AKDENIZ)"},{"date":"2020.10.07","time":"02:35:23","latitude":"39.7547","longitude":"33.3592","depth":"5.2","md":"-.-","ml":"2.6","mw":"-.-","location":"CAMLICA-BAHSILI (KIRIKKALE)"},{"date":"2020.10.07","time":"00:17:01","latitude":"34.9080","longitude":"24.2315","depth":"7.1","md":"-.-","ml":"2.4","mw":"-.-","location":"GIRIT ADASI (AKDENIZ)"},{"date":"2020.10.07","time":"00:04:27","latitude":"40.0342","longitude":"24.4200","depth":"5.0","md":"-.-","ml":"2.5","mw":"-.-","location":"YUNANISTAN"},{"date":"2020.10.06","time":"20:21:27","latitude":"35.4187","longitude":"22.3023","depth":"84.7","md":"-.-","ml":"3.8","mw":"3.8","location":"YUNANISTAN"},{"date":"2020.10.06","time":"19:17:23","latitude":"36.9377","longitude":"27.4917","depth":"14.9","md":"-.-","ml":"1.4","mw":"-.-","location":"GOKOVA KORFEZI (AKDENIZ)"},{"date":"2020.10.06","time":"18:55:29","latitude":"36.9433","longitude":"27.6078","depth":"4.8","md":"-.-","ml":"1.7","mw":"-.-","location":"GOKOVA KORFEZI (AKDENIZ)"},{"date":"2020.10.06","time":"18:17:20","latitude":"39.1592","longitude":"29.0578","depth":"6.9","md":"-.-","ml":"1.9","mw":"-.-","location":"AHLATLICESME-SIMAV (KUTAHYA)"},{"date":"2020.10.06","time":"18:07:27","latitude":"39.2170","longitude":"27.6510","depth":"4.4","md":"-.-","ml":"2.3","mw":"-.-","location":"EVCILER-SOMA (MANISA)"},{"date":"2020.10.06","time":"17:12:13","latitude":"37.9898","longitude":"34.0237","depth":"5.0","md":"-.-","ml":"2.1","mw":"-.-","location":"OBRUK-BOR (NIGDE)"},{"date":"2020.10.06","time":"16:18:11","latitude":"40.8732","longitude":"25.5962","depth":"6.2","md":"-.-","ml":"1.4","mw":"-.-","location":"EGE DENIZI"},{"date":"2020.10.06","time":"15:56:30","latitude":"39.2102","longitude":"27.3658","depth":"12.6","md":"-.-","ml":"1.7","mw":"-.-","location":"ALIBEYLI-BERGAMA (IZMIR)"},{"date":"2020.10.06","time":"15:39:05","latitude":"36.9428","longitude":"29.4305","depth":"17.9","md":"-.-","ml":"2.0","mw":"-.-","location":"ELMALIYURT-GOLHISAR (BURDUR)"},{"date":"2020.10.06","time":"15:28:00","latitude":"40.1557","longitude":"29.9777","depth":"0.0","md":"-.-","ml":"1.6","mw":"-.-","location":"BILECIK (BILECIK)"},{"date":"2020.10.06","time":"14:37:54","latitude":"36.9583","longitude":"34.7832","depth":"0.0","md":"-.-","ml":"1.4","mw":"-.-","location":"DEDELER-TARSUS (MERSIN)"},{"date":"2020.10.06","time":"14:30:03","latitude":"40.7917","longitude":"30.9165","depth":"11.5","md":"-.-","ml":"2.3","mw":"-.-","location":"DEREKOY-GUMUSOVA (DUZCE)"},{"date":"2020.10.06","time":"13:59:19","latitude":"39.0557","longitude":"29.7320","depth":"29.5","md":"-.-","ml":"1.6","mw":"-.-","location":"TOKUL-ASLANAPA (KUTAHYA)"},{"date":"2020.10.06","time":"13:50:04","latitude":"39.8995","longitude":"28.8917","depth":"0.0","md":"-.-","ml":"1.6","mw":"-.-","location":"YESILLER-ORHANELI (BURSA)"},{"date":"2020.10.06","time":"13:25:36","latitude":"38.1822","longitude":"38.7590","depth":"19.1","md":"-.-","ml":"2.2","mw":"-.-","location":"YAZICA-PUTURGE (MALATYA)"},{"date":"2020.10.06","time":"13:12:54","latitude":"41.1783","longitude":"28.8155","depth":"0.0","md":"-.-","ml":"0.9","mw":"-.-","location":"PIRINCCI-EYUP (ISTANBUL)"},{"date":"2020.10.06","time":"12:45:58","latitude":"40.2755","longitude":"30.6967","depth":"4.8","md":"-.-","ml":"2.0","mw":"-.-","location":"SARICALAR-GOYNUK (BOLU)"},{"date":"2020.10.06","time":"12:30:54","latitude":"37.2637","longitude":"28.4532","depth":"22.3","md":"-.-","ml":"1.4","mw":"-.-","location":"OZLUCE-(MUGLA)"},{"date":"2020.10.06","time":"12:29:18","latitude":"39.3452","longitude":"33.4168","depth":"0.0","md":"-.-","ml":"1.8","mw":"-.-","location":"KUCUKCAMILI-BALA (ANKARA)"},{"date":"2020.10.06","time":"12:24:22","latitude":"37.2205","longitude":"28.1743","depth":"0.0","md":"-.-","ml":"1.7","mw":"-.-","location":"CAYBUKU-(MUGLA)"},{"date":"2020.10.06","time":"12:15:45","latitude":"40.8343","longitude":"29.4665","depth":"0.0","md":"-.-","ml":"1.2","mw":"-.-","location":"PELITLI-GEBZE (KOCAELI)"},{"date":"2020.10.06","time":"12:05:24","latitude":"38.3372","longitude":"39.3630","depth":"26.4","md":"-.-","ml":"1.8","mw":"-.-","location":"CAKIROGLU-MADEN (ELAZIG)"},{"date":"2020.10.06","time":"11:58:30","latitude":"38.2667","longitude":"38.8245","depth":"1.4","md":"-.-","ml":"3.5","mw":"3.4","location":"AKTARLI-PUTURGE (MALATYA)"},{"date":"2020.10.06","time":"11:36:43","latitude":"39.1472","longitude":"27.5358","depth":"0.0","md":"-.-","ml":"1.5","mw":"-.-","location":"AVDAN-SOMA (MANISA)"},{"date":"2020.10.06","time":"10:28:59","latitude":"39.5303","longitude":"38.6770","depth":"9.1","md":"-.-","ml":"2.6","mw":"-.-","location":"KAYABASI-KEMAH (ERZINCAN)"},{"date":"2020.10.06","time":"10:23:25","latitude":"38.9868","longitude":"27.4905","depth":"17.7","md":"-.-","ml":"1.5","mw":"-.-","location":"ARPADERE-KINIK (IZMIR)"},{"date":"2020.10.06","time":"09:30:49","latitude":"36.7968","longitude":"26.4960","depth":"19.0","md":"-.-","ml":"2.2","mw":"-.-","location":"AKDENIZ"},{"date":"2020.10.06","time":"09:16:35","latitude":"36.9478","longitude":"27.7045","depth":"6.7","md":"-.-","ml":"2.7","mw":"-.-","location":"GOKOVA KORFEZI (AKDENIZ)"},{"date":"2020.10.06","time":"08:50:18","latitude":"37.9900","longitude":"34.0842","depth":"5.0","md":"-.-","ml":"3.0","mw":"2.9","location":"OBRUK-BOR (NIGDE)"},{"date":"2020.10.06","time":"07:04:00","latitude":"40.3245","longitude":"24.0580","depth":"5.0","md":"-.-","ml":"1.9","mw":"-.-","location":"YUNANISTAN"},{"date":"2020.10.06","time":"06:47:54","latitude":"38.6912","longitude":"38.0557","depth":"8.3","md":"-.-","ml":"1.2","mw":"-.-","location":"ALICAN-YAZIHAN (MALATYA)"},{"date":"2020.10.06","time":"06:19:13","latitude":"39.4828","longitude":"25.8268","depth":"6.8","md":"-.-","ml":"1.8","mw":"-.-","location":"GULPINAR ACIKLARI-CANAKKALE (EGE DENIZI)"},{"date":"2020.10.06","time":"06:18:45","latitude":"38.8173","longitude":"26.8940","depth":"6.3","md":"-.-","ml":"1.6","mw":"-.-","location":"CANDARLI KORFEZI (EGE DENIZI)"},{"date":"2020.10.06","time":"06:06:58","latitude":"38.7253","longitude":"38.0600","depth":"13.4","md":"-.-","ml":"1.2","mw":"-.-","location":"YESILPINAR-HEKIMHAN (MALATYA)"}]
