[{"date":"2020.09.22","time":"05:42:19","latitude":"39.0798","longitude":"41.9818","depth":"10.8","md":"-.-","ml":"2.1","mw":"-.-","location":"HOSGELDI-BULANIK (MUS)"},{"date":"2020.09.22","time":"03:52:30","latitude":"38.2655","longitude":"39.0778","depth":"12.6","md":"-.-","ml":"1.8","mw":"-.-","location":"GEVHERUSAGI-DOGANYOL (MALATYA)"},{"date":"2020.09.22","time":"02:36:37","latitude":"39.0547","longitude":"27.7917","depth":"7.1","md":"-.-","ml":"2.2","mw":"-.-","location":"TUTENLI-AKHISAR (MANISA)"},{"date":"2020.09.22","time":"02:30:31","latitude":"37.0307","longitude":"28.2602","depth":"3.7","md":"-.-","ml":"2.1","mw":"-.-","location":"GOKOVA KORFEZI (AKDENIZ)"},{"date":"2020.09.22","time":"01:28:32","latitude":"35.8168","longitude":"28.2323","depth":"3.2","md":"-.-","ml":"1.9","mw":"-.-","location":"AKDENIZ"},{"date":"2020.09.22","time":"00:38:57","latitude":"38.6185","longitude":"27.2325","depth":"10.7","md":"-.-","ml":"2.2","mw":"-.-","location":"CALTI-MENEMEN (IZMIR)"},{"date":"2020.09.22","time":"00:26:31","latitude":"38.4255","longitude":"39.3433","depth":"17.4","md":"-.-","ml":"1.6","mw":"-.-","location":"SIVRICE (ELAZIG)"},{"date":"2020.09.22","time":"00:23:39","latitude":"38.3595","longitude":"39.0857","depth":"6.7","md":"-.-","ml":"1.7","mw":"-.-","location":"DOGANBAGI-SIVRICE (ELAZIG)"},{"date":"2020.09.21","time":"23:58:00","latitude":"38.9552","longitude":"26.0863","depth":"7.1","md":"-.-","ml":"2.4","mw":"-.-","location":"MIDILLI ADASI (EGE DENIZI)"},{"date":"2020.09.21","time":"23:45:12","latitude":"37.2645","longitude":"28.0277","depth":"7.4","md":"-.-","ml":"1.7","mw":"-.-","location":"BENCIK-YATAGAN (MUGLA)"},{"date":"2020.09.21","time":"23:24:03","latitude":"39.4383","longitude":"25.8088","depth":"3.0","md":"-.-","ml":"2.5","mw":"-.-","location":"EGE DENIZI"},{"date":"2020.09.21","time":"22:49:55","latitude":"38.0372","longitude":"34.0673","depth":"5.0","md":"-.-","ml":"1.9","mw":"-.-","location":"KECIKALESI-ALTUNHISAR (NIGDE)"},{"date":"2020.09.21","time":"22:40:48","latitude":"38.0057","longitude":"34.1003","depth":"2.7","md":"-.-","ml":"3.4","mw":"3.5","location":"KECIKALESI-ALTUNHISAR (NIGDE)"},{"date":"2020.09.21","time":"21:41:49","latitude":"38.3973","longitude":"39.2657","depth":"7.6","md":"-.-","ml":"1.6","mw":"-.-","location":"SOGUKPINAR-SIVRICE (ELAZIG)"},{"date":"2020.09.21","time":"20:12:24","latitude":"36.8258","longitude":"28.3592","depth":"9.0","md":"-.-","ml":"1.2","mw":"-.-","location":"ADAKOY-MARMARIS (MUGLA)"},{"date":"2020.09.21","time":"19:56:48","latitude":"37.1720","longitude":"30.6427","depth":"104.9","md":"-.-","ml":"3.6","mw":"3.7","location":"ILICAKOY-DOSEMEALTI (ANTALYA)"},{"date":"2020.09.21","time":"18:34:20","latitude":"36.6027","longitude":"25.7007","depth":"5.0","md":"-.-","ml":"2.2","mw":"-.-","location":"AKDENIZ"},{"date":"2020.09.21","time":"18:31:51","latitude":"39.8875","longitude":"33.0608","depth":"4.6","md":"-.-","ml":"1.7","mw":"-.-","location":"MAMAK (ANKARA)"},{"date":"2020.09.21","time":"17:01:56","latitude":"38.2642","longitude":"38.6672","depth":"11.3","md":"-.-","ml":"1.8","mw":"-.-","location":"CAYKOY-PUTURGE (MALATYA)"},{"date":"2020.09.21","time":"15:47:14","latitude":"39.0880","longitude":"27.5410","depth":"0.0","md":"-.-","ml":"1.7","mw":"-.-","location":"EGNEZ-SOMA (MANISA)"},{"date":"2020.09.21","time":"14:51:27","latitude":"38.0623","longitude":"34.0788","depth":"9.4","md":"-.-","ml":"2.4","mw":"-.-","location":"AKCAKENT-(AKSARAY)"},{"date":"2020.09.21","time":"14:09:27","latitude":"39.0143","longitude":"29.0227","depth":"15.3","md":"-.-","ml":"1.3","mw":"-.-","location":"HIDIRDIVAN-SIMAV (KUTAHYA)"},{"date":"2020.09.21","time":"13:50:23","latitude":"38.6583","longitude":"39.4858","depth":"6.9","md":"-.-","ml":"2.2","mw":"-.-","location":"GUZELYALI-(ELAZIG)"},{"date":"2020.09.21","time":"13:46:18","latitude":"36.1432","longitude":"33.5477","depth":"0.0","md":"-.-","ml":"1.3","mw":"-.-","location":"BUYUKECELI-GULNAR (MERSIN)"},{"date":"2020.09.21","time":"12:57:54","latitude":"39.7898","longitude":"41.4442","depth":"9.1","md":"-.-","ml":"2.1","mw":"-.-","location":"GECITKOY-TEKMAN (ERZURUM)"},{"date":"2020.09.21","time":"12:06:52","latitude":"38.9148","longitude":"39.2187","depth":"29.2","md":"-.-","ml":"2.0","mw":"-.-","location":"DEMIRSABAN-PERTEK (TUNCELI)"},{"date":"2020.09.21","time":"12:00:33","latitude":"39.8875","longitude":"26.2665","depth":"24.7","md":"-.-","ml":"1.1","mw":"-.-","location":"PINARBASI-EZINE (CANAKKALE)"},{"date":"2020.09.21","time":"11:46:01","latitude":"39.6578","longitude":"34.0010","depth":"8.0","md":"-.-","ml":"1.5","mw":"-.-","location":"AVANOGLU-AKCAKENT (KIRSEHIR)"},{"date":"2020.09.21","time":"11:33:38","latitude":"36.9957","longitude":"37.5582","depth":"0.0","md":"-.-","ml":"1.7","mw":"-.-","location":"KECIKUYUSU-OGUZELI (GAZIANTEP)"},{"date":"2020.09.21","time":"11:11:28","latitude":"39.0672","longitude":"29.0732","depth":"2.6","md":"-.-","ml":"1.3","mw":"-.-","location":"KALKAN-SIMAV (KUTAHYA)"},{"date":"2020.09.21","time":"10:45:02","latitude":"38.7108","longitude":"43.0023","depth":"3.7","md":"-.-","ml":"2.1","mw":"-.-","location":"ESENKIYI-ADILCEVAZ (BITLIS)"},{"date":"2020.09.21","time":"10:12:39","latitude":"39.1405","longitude":"43.7873","depth":"23.8","md":"-.-","ml":"1.5","mw":"-.-","location":"DEVETAS-MURADIYE (VAN)"},{"date":"2020.09.21","time":"09:55:39","latitude":"38.0417","longitude":"34.0225","depth":"13.2","md":"-.-","ml":"1.8","mw":"-.-","location":"OBRUK-BOR (NIGDE)"},{"date":"2020.09.21","time":"09:47:56","latitude":"37.9783","longitude":"34.1897","depth":"18.3","md":"-.-","ml":"1.7","mw":"-.-","location":"AKCAOREN-ALTUNHISAR (NIGDE)"},{"date":"2020.09.21","time":"09:45:12","latitude":"38.2847","longitude":"38.5813","depth":"14.4","md":"-.-","ml":"1.7","mw":"-.-","location":"TANISIK-(MALATYA)"},{"date":"2020.09.21","time":"09:19:16","latitude":"38.0850","longitude":"31.8722","depth":"4.4","md":"-.-","ml":"1.6","mw":"-.-","location":"YUKARICIGIL-ILGIN (KONYA)"},{"date":"2020.09.21","time":"08:51:30","latitude":"38.7298","longitude":"44.6183","depth":"16.3","md":"-.-","ml":"2.5","mw":"-.-","location":"TURKIYE-IRAN SINIR BOLGESI"},{"date":"2020.09.21","time":"08:39:32","latitude":"40.6923","longitude":"27.3912","depth":"21.0","md":"-.-","ml":"1.9","mw":"-.-","location":"GUZELKOY ACIKLARI-TEKIRDAG (MARMARA DENIZI)"},{"date":"2020.09.21","time":"08:35:43","latitude":"38.6890","longitude":"41.9848","depth":"6.9","md":"-.-","ml":"3.7","mw":"3.9","location":"SAZLIKBASI-KORKUT (MUS)"},{"date":"2020.09.21","time":"07:49:42","latitude":"38.0543","longitude":"34.0282","depth":"8.0","md":"-.-","ml":"2.0","mw":"-.-","location":"OBRUK-BOR (NIGDE)"},{"date":"2020.09.21","time":"07:45:19","latitude":"38.0678","longitude":"34.0307","depth":"14.3","md":"-.-","ml":"1.8","mw":"-.-","location":"AKCAKENT-(AKSARAY)"},{"date":"2020.09.21","time":"07:34:24","latitude":"38.0503","longitude":"34.1030","depth":"1.8","md":"-.-","ml":"1.4","mw":"-.-","location":"KECIKALESI-ALTUNHISAR (NIGDE)"},{"date":"2020.09.21","time":"07:25:12","latitude":"38.0268","longitude":"34.1058","depth":"5.3","md":"-.-","ml":"1.7","mw":"-.-","location":"KECIKALESI-ALTUNHISAR (NIGDE)"},{"date":"2020.09.21","time":"07:19:10","latitude":"37.5975","longitude":"27.3347","depth":"1.8","md":"-.-","ml":"1.5","mw":"-.-","location":"SARIKEMER-SOKE (AYDIN)"},{"date":"2020.09.21","time":"07:18:21","latitude":"38.0155","longitude":"34.0500","depth":"5.0","md":"-.-","ml":"2.3","mw":"-.-","location":"OBRUK-BOR (NIGDE)"},{"date":"2020.09.21","time":"07:02:40","latitude":"40.6747","longitude":"27.4475","depth":"4.2","md":"-.-","ml":"1.4","mw":"-.-","location":"GUZELKOY ACIKLARI-TEKIRDAG (MARMARA DENIZI)"},{"date":"2020.09.21","time":"06:52:26","latitude":"38.0240","longitude":"34.1525","depth":"13.0","md":"-.-","ml":"1.5","mw":"-.-","location":"KARAKAPI-ALTUNHISAR (NIGDE)"},{"date":"2020.09.21","time":"06:37:30","latitude":"38.0827","longitude":"34.0328","depth":"6.4","md":"-.-","ml":"4.1","mw":"4.3","location":"AKCAKENT-(AKSARAY)"},{"date":"2020.09.21","time":"06:21:50","latitude":"36.2412","longitude":"34.1875","depth":"8.8","md":"-.-","ml":"2.1","mw":"-.-","location":"KURTULUS ACIKLARI-MERSIN (AKDENIZ)"},{"date":"2020.09.21","time":"06:11:09","latitude":"38.2302","longitude":"38.7923","depth":"8.0","md":"-.-","ml":"1.8","mw":"-.-","location":"ORMANICI-PUTURGE (MALATYA)"},{"date":"2020.09.21","time":"05:27:09","latitude":"38.4502","longitude":"39.3128","depth":"8.7","md":"-.-","ml":"1.5","mw":"-.-","location":"SIVRICE (ELAZIG)"},{"date":"2020.09.21","time":"05:01:19","latitude":"38.0528","longitude":"34.0888","depth":"11.4","md":"-.-","ml":"1.0","mw":"-.-","location":"KECIKALESI-ALTUNHISAR (NIGDE)"},{"date":"2020.09.21","time":"05:01:03","latitude":"35.9027","longitude":"28.4055","depth":"6.6","md":"-.-","ml":"1.5","mw":"-.-","location":"AKDENIZ"},{"date":"2020.09.21","time":"04:54:19","latitude":"38.0477","longitude":"34.0577","depth":"6.9","md":"-.-","ml":"1.7","mw":"-.-","location":"AKCAKENT-(AKSARAY)"},{"date":"2020.09.21","time":"04:48:40","latitude":"38.0653","longitude":"34.1463","depth":"15.3","md":"-.-","ml":"1.0","mw":"-.-","location":"KARAKAPI-ALTUNHISAR (NIGDE)"},{"date":"2020.09.21","time":"04:38:50","latitude":"38.0242","longitude":"34.0998","depth":"6.0","md":"-.-","ml":"1.2","mw":"-.-","location":"KECIKALESI-ALTUNHISAR (NIGDE)"},{"date":"2020.09.21","time":"04:17:04","latitude":"38.0563","longitude":"34.0917","depth":"2.1","md":"-.-","ml":"1.1","mw":"-.-","location":"KECIKALESI-ALTUNHISAR (NIGDE)"},{"date":"2020.09.21","time":"04:14:13","latitude":"38.0693","longitude":"34.0605","depth":"7.9","md":"-.-","ml":"1.5","mw":"-.-","location":"AKCAKENT-(AKSARAY)"},{"date":"2020.09.21","time":"04:09:07","latitude":"38.0392","longitude":"34.0733","depth":"11.0","md":"-.-","ml":"1.0","mw":"-.-","location":"KECIKALESI-ALTUNHISAR (NIGDE)"},{"date":"2020.09.21","time":"04:06:51","latitude":"38.0767","longitude":"34.0628","depth":"7.6","md":"-.-","ml":"1.8","mw":"-.-","location":"AKCAKENT-(AKSARAY)"},{"date":"2020.09.21","time":"03:54:49","latitude":"38.0230","longitude":"34.1508","depth":"23.8","md":"-.-","ml":"1.3","mw":"-.-","location":"KARAKAPI-ALTUNHISAR (NIGDE)"},{"date":"2020.09.21","time":"03:47:24","latitude":"38.0137","longitude":"34.0453","depth":"5.4","md":"-.-","ml":"3.3","mw":"3.4","location":"OBRUK-BOR (NIGDE)"},{"date":"2020.09.21","time":"03:39:17","latitude":"38.7057","longitude":"38.1780","depth":"1.8","md":"-.-","ml":"1.8","mw":"-.-","location":"KOSAR-YAZIHAN (MALATYA)"},{"date":"2020.09.21","time":"03:27:08","latitude":"37.9783","longitude":"34.0993","depth":"8.4","md":"-.-","ml":"1.3","mw":"-.-","location":"OBRUK-BOR (NIGDE)"},{"date":"2020.09.21","time":"03:19:06","latitude":"38.4198","longitude":"39.0692","depth":"13.7","md":"-.-","ml":"1.3","mw":"-.-","location":"GOZELI-SIVRICE (ELAZIG)"},{"date":"2020.09.21","time":"03:16:34","latitude":"39.9205","longitude":"40.8252","depth":"7.9","md":"-.-","ml":"1.5","mw":"-.-","location":"KANDILLI-ASKALE (ERZURUM)"},{"date":"2020.09.21","time":"02:47:06","latitude":"38.0048","longitude":"34.0380","depth":"5.4","md":"-.-","ml":"2.8","mw":"-.-","location":"OBRUK-BOR (NIGDE)"},{"date":"2020.09.21","time":"02:44:08","latitude":"39.1698","longitude":"28.9065","depth":"11.6","md":"-.-","ml":"1.5","mw":"-.-","location":"GUNEY-SIMAV (KUTAHYA)"},{"date":"2020.09.21","time":"02:34:44","latitude":"35.5725","longitude":"26.7527","depth":"3.1","md":"-.-","ml":"2.7","mw":"-.-","location":"AKDENIZ"},{"date":"2020.09.21","time":"02:08:32","latitude":"38.0362","longitude":"34.0272","depth":"7.2","md":"-.-","ml":"2.0","mw":"-.-","location":"OBRUK-BOR (NIGDE)"},{"date":"2020.09.21","time":"02:07:23","latitude":"38.3990","longitude":"39.2228","depth":"4.6","md":"-.-","ml":"1.4","mw":"-.-","location":"DORTBOLUK-SIVRICE (ELAZIG)"},{"date":"2020.09.21","time":"02:01:28","latitude":"40.3838","longitude":"25.9008","depth":"7.0","md":"-.-","ml":"1.0","mw":"-.-","location":"KALEKOY-GOKCEADA (CANAKKALE)"},{"date":"2020.09.21","time":"01:57:27","latitude":"38.0213","longitude":"34.1023","depth":"6.1","md":"-.-","ml":"1.4","mw":"-.-","location":"KECIKALESI-ALTUNHISAR (NIGDE)"},{"date":"2020.09.21","time":"01:56:49","latitude":"38.0695","longitude":"34.1100","depth":"16.3","md":"-.-","ml":"1.1","mw":"-.-","location":"KECIKALESI-ALTUNHISAR (NIGDE)"},{"date":"2020.09.21","time":"01:53:23","latitude":"38.0643","longitude":"34.1033","depth":"10.4","md":"-.-","ml":"1.4","mw":"-.-","location":"KECIKALESI-ALTUNHISAR (NIGDE)"},{"date":"2020.09.21","time":"01:49:57","latitude":"38.0393","longitude":"34.0862","depth":"7.3","md":"-.-","ml":"1.1","mw":"-.-","location":"KECIKALESI-ALTUNHISAR (NIGDE)"},{"date":"2020.09.21","time":"01:40:28","latitude":"35.8305","longitude":"28.2035","depth":"8.5","md":"-.-","ml":"1.8","mw":"-.-","location":"AKDENIZ"},{"date":"2020.09.21","time":"01:24:15","latitude":"36.3070","longitude":"27.9238","depth":"7.6","md":"-.-","ml":"1.6","mw":"-.-","location":"RODOS ADASI (AKDENIZ)"},{"date":"2020.09.21","time":"00:20:08","latitude":"37.4700","longitude":"36.4690","depth":"5.0","md":"-.-","ml":"2.4","mw":"-.-","location":"KOKLU-ANDIRIN (KAHRAMANMARAS)"},{"date":"2020.09.20","time":"23:51:40","latitude":"38.7247","longitude":"27.8893","depth":"6.5","md":"-.-","ml":"2.4","mw":"-.-","location":"HACIBASTANLAR-GOLMARMARA (MANISA)"},{"date":"2020.09.20","time":"23:30:07","latitude":"40.5915","longitude":"29.0578","depth":"5.3","md":"-.-","ml":"1.3","mw":"-.-","location":"TESVIKIYE-CINARCIK (YALOVA)"},{"date":"2020.09.20","time":"23:20:55","latitude":"40.6030","longitude":"29.0593","depth":"10.0","md":"-.-","ml":"1.4","mw":"-.-","location":"TESVIKIYE-CINARCIK (YALOVA)"},{"date":"2020.09.20","time":"22:51:43","latitude":"39.1388","longitude":"40.2635","depth":"13.1","md":"-.-","ml":"2.2","mw":"-.-","location":"CELEBI-KARAKOCAN (ELAZIG)"},{"date":"2020.09.20","time":"22:42:31","latitude":"38.0202","longitude":"34.0192","depth":"5.8","md":"-.-","ml":"1.8","mw":"-.-","location":"OBRUK-BOR (NIGDE)"},{"date":"2020.09.20","time":"22:41:35","latitude":"38.0720","longitude":"34.0577","depth":"9.3","md":"-.-","ml":"1.7","mw":"-.-","location":"AKCAKENT-(AKSARAY)"},{"date":"2020.09.20","time":"22:37:07","latitude":"38.0602","longitude":"34.0847","depth":"14.3","md":"-.-","ml":"1.8","mw":"-.-","location":"AKCAKENT-(AKSARAY)"},{"date":"2020.09.20","time":"22:19:43","latitude":"38.0433","longitude":"34.0482","depth":"6.4","md":"-.-","ml":"2.6","mw":"-.-","location":"OBRUK-BOR (NIGDE)"},{"date":"2020.09.20","time":"22:18:53","latitude":"38.0850","longitude":"34.0047","depth":"8.5","md":"-.-","ml":"2.9","mw":"-.-","location":"KARACAOREN-(AKSARAY)"},{"date":"2020.09.20","time":"22:08:05","latitude":"38.0365","longitude":"34.0278","depth":"2.8","md":"-.-","ml":"5.1","mw":"5.4","location":"OBRUK-BOR (NIGDE)"},{"date":"2020.09.20","time":"21:09:08","latitude":"35.5587","longitude":"31.6695","depth":"9.8","md":"-.-","ml":"2.6","mw":"-.-","location":"AKDENIZ"},{"date":"2020.09.20","time":"20:33:07","latitude":"38.4557","longitude":"39.2825","depth":"9.7","md":"-.-","ml":"0.9","mw":"-.-","location":"SIVRICE (ELAZIG)"},{"date":"2020.09.20","time":"19:12:11","latitude":"39.3725","longitude":"40.6190","depth":"5.9","md":"-.-","ml":"2.5","mw":"-.-","location":"ELMALI-YEDISU (BINGOL)"},{"date":"2020.09.20","time":"19:08:15","latitude":"38.2583","longitude":"38.8795","depth":"5.4","md":"-.-","ml":"1.9","mw":"-.-","location":"CENGELLI-PUTURGE (MALATYA)"},{"date":"2020.09.20","time":"18:39:42","latitude":"36.9518","longitude":"27.5540","depth":"12.8","md":"-.-","ml":"1.4","mw":"-.-","location":"GOKOVA KORFEZI (AKDENIZ)"},{"date":"2020.09.20","time":"17:42:46","latitude":"37.0965","longitude":"29.0915","depth":"4.5","md":"-.-","ml":"1.9","mw":"-.-","location":"SANDALCIK-ACIPAYAM (DENIZLI)"},{"date":"2020.09.20","time":"17:40:28","latitude":"34.3307","longitude":"32.7893","depth":"7.6","md":"-.-","ml":"3.3","mw":"3.3","location":"KIBRIS RUM KESIMI"},{"date":"2020.09.20","time":"17:13:35","latitude":"39.5317","longitude":"37.6097","depth":"8.5","md":"-.-","ml":"2.2","mw":"-.-","location":"KANLICAYIR-ZARA (SIVAS)"},{"date":"2020.09.20","time":"13:39:48","latitude":"38.6812","longitude":"26.6178","depth":"6.9","md":"-.-","ml":"3.2","mw":"2.9","location":"IZMIR KORFEZI (EGE DENIZI)"},{"date":"2020.09.20","time":"13:15:19","latitude":"38.2632","longitude":"38.7698","depth":"5.0","md":"-.-","ml":"2.6","mw":"-.-","location":"BALPINARI-PUTURGE (MALATYA)"},{"date":"2020.09.20","time":"11:15:54","latitude":"34.1490","longitude":"24.0187","depth":"5.6","md":"-.-","ml":"3.8","mw":"-.-","location":"GIRIT ADASI ACIKLARI (AKDENIZ)"},{"date":"2020.09.20","time":"10:33:11","latitude":"38.0757","longitude":"34.0537","depth":"13.8","md":"-.-","ml":"1.8","mw":"-.-","location":"AKCAKENT-(AKSARAY)"},{"date":"2020.09.20","time":"09:33:14","latitude":"35.1163","longitude":"26.4702","depth":"8.6","md":"-.-","ml":"3.6","mw":"-.-","location":"GIRIT ADASI (AKDENIZ)"},{"date":"2020.09.20","time":"09:31:03","latitude":"35.2725","longitude":"26.3843","depth":"1.6","md":"-.-","ml":"4.1","mw":"4.1","location":"GIRIT ADASI (AKDENIZ)"},{"date":"2020.09.20","time":"09:01:20","latitude":"35.1048","longitude":"23.1108","depth":"21.5","md":"-.-","ml":"3.8","mw":"3.9","location":"GIRIT ADASI (AKDENIZ)"},{"date":"2020.09.20","time":"08:45:15","latitude":"38.6658","longitude":"38.0757","depth":"6.3","md":"-.-","ml":"3.7","mw":"4.0","location":"ALICAN-YAZIHAN (MALATYA)"},{"date":"2020.09.20","time":"06:46:04","latitude":"37.6860","longitude":"29.0023","depth":"5.1","md":"-.-","ml":"1.4","mw":"-.-","location":"VAKIF-TAVAS (DENIZLI)"},{"date":"2020.09.20","time":"06:46:01","latitude":"37.8082","longitude":"27.7325","depth":"5.4","md":"-.-","ml":"1.4","mw":"-.-","location":"YAZIDERE-INCIRLIOVA (AYDIN)"},{"date":"2020.09.20","time":"06:27:53","latitude":"38.3742","longitude":"39.2323","depth":"9.9","md":"-.-","ml":"1.7","mw":"-.-","location":"DORTBOLUK-SIVRICE (ELAZIG)"},{"date":"2020.09.20","time":"06:23:26","latitude":"38.4385","longitude":"39.2580","depth":"5.3","md":"-.-","ml":"2.2","mw":"-.-","location":"DUZBAHCE-SIVRICE (ELAZIG)"},{"date":"2020.09.20","time":"04:50:49","latitude":"38.6893","longitude":"38.0873","depth":"3.7","md":"-.-","ml":"2.1","mw":"-.-","location":"AKYAZI-YAZIHAN (MALATYA)"},{"date":"2020.09.20","time":"04:43:31","latitude":"38.7367","longitude":"38.1358","depth":"5.0","md":"-.-","ml":"2.7","mw":"-.-","location":"MOLLAIBRAHIM-HEKIMHAN (MALATYA)"},{"date":"2020.09.20","time":"04:25:06","latitude":"38.3528","longitude":"39.0923","depth":"8.7","md":"-.-","ml":"1.2","mw":"-.-","location":"DOGANBAGI-SIVRICE (ELAZIG)"},{"date":"2020.09.20","time":"04:17:23","latitude":"38.4440","longitude":"44.3510","depth":"5.0","md":"-.-","ml":"1.8","mw":"-.-","location":"TURKIYE-IRAN SINIR BOLGESI"},{"date":"2020.09.20","time":"04:01:09","latitude":"38.3625","longitude":"39.0247","depth":"14.3","md":"-.-","ml":"1.2","mw":"-.-","location":"DUYGULU-SIVRICE (ELAZIG)"},{"date":"2020.09.20","time":"03:44:37","latitude":"38.3275","longitude":"38.7937","depth":"14.7","md":"-.-","ml":"1.6","mw":"-.-","location":"CANAKCI-KALE (MALATYA)"},{"date":"2020.09.20","time":"03:39:47","latitude":"36.9430","longitude":"27.5555","depth":"8.4","md":"-.-","ml":"1.4","mw":"-.-","location":"GOKOVA KORFEZI (AKDENIZ)"},{"date":"2020.09.20","time":"02:29:48","latitude":"37.5652","longitude":"27.3115","depth":"5.0","md":"-.-","ml":"2.3","mw":"-.-","location":"SARIKEMER-SOKE (AYDIN)"},{"date":"2020.09.20","time":"02:17:29","latitude":"37.5812","longitude":"27.3332","depth":"2.1","md":"-.-","ml":"1.5","mw":"-.-","location":"SARIKEMER-SOKE (AYDIN)"},{"date":"2020.09.20","time":"00:54:15","latitude":"38.5002","longitude":"25.7730","depth":"5.4","md":"-.-","ml":"2.1","mw":"-.-","location":"SAKIZ ADASI (EGE DENIZI)"},{"date":"2020.09.20","time":"00:43:44","latitude":"38.3888","longitude":"39.0622","depth":"13.6","md":"-.-","ml":"1.1","mw":"-.-","location":"KALABA-SIVRICE (ELAZIG)"},{"date":"2020.09.20","time":"00:40:24","latitude":"38.6837","longitude":"42.0473","depth":"11.6","md":"-.-","ml":"2.1","mw":"-.-","location":"OZKAVAK-GUROYMAK (BITLIS)"},{"date":"2020.09.20","time":"00:23:38","latitude":"37.7787","longitude":"27.7763","depth":"8.1","md":"-.-","ml":"1.4","mw":"-.-","location":"CAKMAR-KOCARLI (AYDIN)"},{"date":"2020.09.20","time":"00:04:51","latitude":"37.2175","longitude":"30.5475","depth":"8.3","md":"-.-","ml":"1.7","mw":"-.-","location":"DAGBELI-DOSEMEALTI (ANTALYA)"},{"date":"2020.09.19","time":"23:40:37","latitude":"39.1285","longitude":"29.0270","depth":"7.5","md":"-.-","ml":"2.0","mw":"-.-","location":"KAPIKAYA-SIMAV (KUTAHYA)"},{"date":"2020.09.19","time":"23:38:07","latitude":"39.1420","longitude":"29.0250","depth":"5.4","md":"-.-","ml":"2.3","mw":"-.-","location":"AHLATLICESME-SIMAV (KUTAHYA)"},{"date":"2020.09.19","time":"23:36:12","latitude":"35.6265","longitude":"27.6118","depth":"5.0","md":"-.-","ml":"2.3","mw":"-.-","location":"AKDENIZ"},{"date":"2020.09.19","time":"22:48:04","latitude":"37.0318","longitude":"27.5580","depth":"2.8","md":"-.-","ml":"1.5","mw":"-.-","location":"CAMLIK-BODRUM (MUGLA)"},{"date":"2020.09.19","time":"22:30:26","latitude":"40.1883","longitude":"27.4060","depth":"10.2","md":"-.-","ml":"2.1","mw":"-.-","location":"AMBAROBA-BIGA (CANAKKALE)"},{"date":"2020.09.19","time":"21:04:47","latitude":"38.3688","longitude":"39.1242","depth":"4.9","md":"-.-","ml":"1.5","mw":"-.-","location":"AKSEKI-SIVRICE (ELAZIG)"},{"date":"2020.09.19","time":"20:33:30","latitude":"35.3725","longitude":"29.5513","depth":"18.7","md":"-.-","ml":"2.3","mw":"-.-","location":"AKDENIZ"},{"date":"2020.09.19","time":"19:19:15","latitude":"38.8813","longitude":"44.5555","depth":"8.2","md":"-.-","ml":"2.7","mw":"-.-","location":"TURKIYE-IRAN SINIR BOLGESI"},{"date":"2020.09.19","time":"16:49:03","latitude":"38.6775","longitude":"38.1350","depth":"8.8","md":"-.-","ml":"2.1","mw":"-.-","location":"AKYAZI-YAZIHAN (MALATYA)"},{"date":"2020.09.19","time":"16:38:53","latitude":"36.2378","longitude":"33.6727","depth":"0.0","md":"-.-","ml":"1.5","mw":"-.-","location":"ISIKLI-SILIFKE (MERSIN)"},{"date":"2020.09.19","time":"15:51:49","latitude":"40.1780","longitude":"25.1147","depth":"5.3","md":"-.-","ml":"2.5","mw":"-.-","location":"EGE DENIZI"},{"date":"2020.09.19","time":"15:25:47","latitude":"39.1275","longitude":"27.4780","depth":"0.0","md":"-.-","ml":"1.5","mw":"-.-","location":"CUMALI-KINIK (IZMIR)"},{"date":"2020.09.19","time":"14:42:13","latitude":"38.2940","longitude":"38.8137","depth":"9.5","md":"-.-","ml":"1.6","mw":"-.-","location":"BOLUKKAYA-PUTURGE (MALATYA)"},{"date":"2020.09.19","time":"13:19:59","latitude":"39.3168","longitude":"27.6148","depth":"0.0","md":"-.-","ml":"1.8","mw":"-.-","location":"KIZILOREN-SOMA (MANISA)"},{"date":"2020.09.19","time":"13:01:56","latitude":"39.9127","longitude":"33.3765","depth":"0.0","md":"-.-","ml":"2.0","mw":"-.-","location":"IRMAK-YAHSIHAN (KIRIKKALE)"},{"date":"2020.09.19","time":"13:01:09","latitude":"39.6393","longitude":"30.7612","depth":"0.0","md":"-.-","ml":"1.5","mw":"-.-","location":"AKSAKLI-SEYITGAZI (ESKISEHIR)"},{"date":"2020.09.19","time":"13:00:49","latitude":"37.9832","longitude":"36.1652","depth":"5.0","md":"-.-","ml":"1.1","mw":"-.-","location":"KALEBOYNU-GOKSUN (KAHRAMANMARAS)"},{"date":"2020.09.19","time":"12:30:06","latitude":"37.0292","longitude":"35.8420","depth":"7.5","md":"-.-","ml":"4.0","mw":"4.0","location":"CEYHAN (ADANA)"},{"date":"2020.09.19","time":"12:18:39","latitude":"38.0622","longitude":"38.6410","depth":"5.3","md":"-.-","ml":"1.6","mw":"-.-","location":"SINCIK (ADIYAMAN)"},{"date":"2020.09.19","time":"11:49:17","latitude":"37.2400","longitude":"28.2273","depth":"0.0","md":"-.-","ml":"2.1","mw":"-.-","location":"PASAPINARI-(MUGLA)"},{"date":"2020.09.19","time":"11:42:46","latitude":"39.6848","longitude":"34.0920","depth":"24.4","md":"-.-","ml":"2.1","mw":"-.-","location":"KILIMLI-AKCAKENT (KIRSEHIR)"},{"date":"2020.09.19","time":"11:36:02","latitude":"39.0040","longitude":"27.8373","depth":"15.9","md":"-.-","ml":"1.3","mw":"-.-","location":"GOKCEAHMET-AKHISAR (MANISA)"},{"date":"2020.09.19","time":"11:33:20","latitude":"39.0253","longitude":"27.8568","depth":"12.7","md":"-.-","ml":"1.7","mw":"-.-","location":"MUSALAR-AKHISAR (MANISA)"},{"date":"2020.09.19","time":"11:10:09","latitude":"40.6063","longitude":"42.2467","depth":"5.0","md":"-.-","ml":"1.7","mw":"-.-","location":"YUKARIBAKRACLI-SENKAYA (ERZURUM)"},{"date":"2020.09.19","time":"11:08:41","latitude":"39.6733","longitude":"34.0730","depth":"5.4","md":"-.-","ml":"2.0","mw":"-.-","location":"KILIMLI-AKCAKENT (KIRSEHIR)"},{"date":"2020.09.19","time":"11:05:30","latitude":"38.9982","longitude":"27.4107","depth":"6.9","md":"-.-","ml":"2.6","mw":"-.-","location":"CANKOY-KINIK (IZMIR)"},{"date":"2020.09.19","time":"10:27:44","latitude":"38.6652","longitude":"42.0298","depth":"12.5","md":"-.-","ml":"1.8","mw":"-.-","location":"BUDAKLI-GUROYMAK (BITLIS)"},{"date":"2020.09.19","time":"10:18:29","latitude":"38.7223","longitude":"37.9873","depth":"15.0","md":"-.-","ml":"2.0","mw":"-.-","location":"IPEKYOLU-HEKIMHAN (MALATYA)"},{"date":"2020.09.19","time":"09:59:06","latitude":"37.2375","longitude":"35.4220","depth":"9.0","md":"-.-","ml":"1.8","mw":"-.-","location":"MALIHIDIRLI-IMAMOGLU (ADANA)"},{"date":"2020.09.19","time":"09:50:14","latitude":"36.8430","longitude":"29.1462","depth":"16.3","md":"-.-","ml":"1.3","mw":"-.-","location":"ARPACIK-FETHIYE (MUGLA)"},{"date":"2020.09.19","time":"09:36:39","latitude":"38.6822","longitude":"38.2448","depth":"20.7","md":"-.-","ml":"2.1","mw":"-.-","location":"KARACA-YAZIHAN (MALATYA)"},{"date":"2020.09.19","time":"09:12:25","latitude":"36.9645","longitude":"43.8493","depth":"15.6","md":"-.-","ml":"2.0","mw":"-.-","location":"IRAK"},{"date":"2020.09.19","time":"08:44:26","latitude":"36.9087","longitude":"27.5077","depth":"12.8","md":"-.-","ml":"1.5","mw":"-.-","location":"GOKOVA KORFEZI (AKDENIZ)"},{"date":"2020.09.19","time":"08:35:25","latitude":"36.9537","longitude":"27.5353","depth":"4.7","md":"-.-","ml":"1.9","mw":"-.-","location":"GOKOVA KORFEZI (AKDENIZ)"},{"date":"2020.09.19","time":"08:25:56","latitude":"38.3462","longitude":"39.1268","depth":"15.2","md":"-.-","ml":"2.0","mw":"-.-","location":"AKSEKI-SIVRICE (ELAZIG)"},{"date":"2020.09.19","time":"06:00:36","latitude":"37.3918","longitude":"39.6400","depth":"6.5","md":"-.-","ml":"2.5","mw":"-.-","location":"TASONU-VIRANSEHIR (SANLIURFA)"},{"date":"2020.09.19","time":"05:52:34","latitude":"36.9448","longitude":"27.5343","depth":"5.4","md":"-.-","ml":"1.7","mw":"-.-","location":"GOKOVA KORFEZI (AKDENIZ)"},{"date":"2020.09.19","time":"05:30:14","latitude":"36.0083","longitude":"31.9767","depth":"8.5","md":"-.-","ml":"1.9","mw":"-.-","location":"AKDENIZ"},{"date":"2020.09.19","time":"05:22:26","latitude":"36.9427","longitude":"27.5373","depth":"5.3","md":"-.-","ml":"1.8","mw":"-.-","location":"GOKOVA KORFEZI (AKDENIZ)"},{"date":"2020.09.19","time":"04:10:07","latitude":"37.9418","longitude":"27.3677","depth":"16.0","md":"-.-","ml":"1.5","mw":"-.-","location":"SELCUK (IZMIR)"},{"date":"2020.09.19","time":"03:31:10","latitude":"36.9133","longitude":"29.0135","depth":"4.8","md":"-.-","ml":"1.2","mw":"-.-","location":"GURLEYIK-DALAMAN (MUGLA)"},{"date":"2020.09.19","time":"02:57:58","latitude":"38.9297","longitude":"29.3447","depth":"5.5","md":"-.-","ml":"1.7","mw":"-.-","location":"AKSAKLAR-GEDIZ (KUTAHYA)"},{"date":"2020.09.19","time":"02:11:55","latitude":"38.7365","longitude":"38.2093","depth":"15.9","md":"-.-","ml":"1.7","mw":"-.-","location":"YAYIKLI-ARGUVAN (MALATYA)"},{"date":"2020.09.19","time":"01:05:49","latitude":"38.6858","longitude":"38.1333","depth":"7.2","md":"-.-","ml":"1.9","mw":"-.-","location":"AKYAZI-YAZIHAN (MALATYA)"},{"date":"2020.09.18","time":"23:15:06","latitude":"36.2328","longitude":"28.7382","depth":"30.3","md":"-.-","ml":"2.1","mw":"-.-","location":"AKDENIZ"},{"date":"2020.09.18","time":"23:11:38","latitude":"38.6290","longitude":"38.2715","depth":"8.0","md":"-.-","ml":"1.7","mw":"-.-","location":"BOZBURUN-ARGUVAN (MALATYA)"},{"date":"2020.09.18","time":"22:41:07","latitude":"35.9773","longitude":"27.2930","depth":"8.2","md":"-.-","ml":"2.0","mw":"-.-","location":"AKDENIZ"},{"date":"2020.09.18","time":"22:17:56","latitude":"36.6650","longitude":"23.0182","depth":"10.5","md":"-.-","ml":"3.2","mw":"3.1","location":"YUNANISTAN"},{"date":"2020.09.18","time":"21:43:32","latitude":"38.4023","longitude":"39.1665","depth":"5.7","md":"-.-","ml":"3.3","mw":"3.1","location":"KOSEBAYIR-SIVRICE (ELAZIG)"},{"date":"2020.09.18","time":"20:42:15","latitude":"34.8817","longitude":"25.4152","depth":"24.0","md":"-.-","ml":"2.9","mw":"-.-","location":"GIRIT ADASI (AKDENIZ)"},{"date":"2020.09.18","time":"20:21:51","latitude":"36.9215","longitude":"27.5233","depth":"30.4","md":"-.-","ml":"1.5","mw":"-.-","location":"GOKOVA KORFEZI (AKDENIZ)"},{"date":"2020.09.18","time":"20:04:32","latitude":"38.6917","longitude":"38.1305","depth":"7.7","md":"-.-","ml":"2.3","mw":"-.-","location":"AKYAZI-YAZIHAN (MALATYA)"},{"date":"2020.09.18","time":"19:28:17","latitude":"35.0835","longitude":"25.4340","depth":"10.7","md":"-.-","ml":"5.8","mw":"5.6","location":"GIRIT ADASI (AKDENIZ)"},{"date":"2020.09.18","time":"17:52:39","latitude":"37.0015","longitude":"29.0862","depth":"20.3","md":"-.-","ml":"2.0","mw":"-.-","location":"NARLI-DALAMAN (MUGLA)"},{"date":"2020.09.18","time":"17:49:18","latitude":"38.3107","longitude":"39.1102","depth":"12.1","md":"-.-","ml":"2.0","mw":"-.-","location":"AKKENT-DOGANYOL (MALATYA)"},{"date":"2020.09.18","time":"17:07:47","latitude":"38.7605","longitude":"38.1638","depth":"14.3","md":"-.-","ml":"1.6","mw":"-.-","location":"YUREKTASI-ARGUVAN (MALATYA)"},{"date":"2020.09.18","time":"16:54:54","latitude":"38.5803","longitude":"38.2068","depth":"8.9","md":"-.-","ml":"1.7","mw":"-.-","location":"GOVUK-YAZIHAN (MALATYA)"},{"date":"2020.09.18","time":"16:14:59","latitude":"36.4230","longitude":"34.0050","depth":"3.9","md":"-.-","ml":"1.8","mw":"-.-","location":"TURKMENUSAGI-SILIFKE (MERSIN)"},{"date":"2020.09.18","time":"16:02:42","latitude":"36.9380","longitude":"27.5448","depth":"15.9","md":"-.-","ml":"1.3","mw":"-.-","location":"GOKOVA KORFEZI (AKDENIZ)"},{"date":"2020.09.18","time":"15:41:26","latitude":"38.6813","longitude":"38.1558","depth":"9.4","md":"-.-","ml":"3.0","mw":"-.-","location":"BOZTEPE-YAZIHAN (MALATYA)"},{"date":"2020.09.18","time":"15:16:41","latitude":"36.9600","longitude":"27.5628","depth":"9.0","md":"-.-","ml":"2.7","mw":"-.-","location":"GOKOVA KORFEZI (AKDENIZ)"},{"date":"2020.09.18","time":"14:59:49","latitude":"36.9322","longitude":"27.5313","depth":"13.2","md":"-.-","ml":"1.6","mw":"-.-","location":"GOKOVA KORFEZI (AKDENIZ)"},{"date":"2020.09.18","time":"14:50:04","latitude":"36.9467","longitude":"27.5430","depth":"1.7","md":"-.-","ml":"1.9","mw":"-.-","location":"GOKOVA KORFEZI (AKDENIZ)"},{"date":"2020.09.18","time":"14:27:08","latitude":"36.9528","longitude":"27.5523","depth":"9.8","md":"-.-","ml":"1.7","mw":"-.-","location":"GOKOVA KORFEZI (AKDENIZ)"},{"date":"2020.09.18","time":"14:22:42","latitude":"38.7140","longitude":"38.2107","depth":"8.7","md":"-.-","ml":"1.8","mw":"-.-","location":"ASAR-ARGUVAN (MALATYA)"},{"date":"2020.09.18","time":"13:25:10","latitude":"37.5742","longitude":"27.2790","depth":"5.3","md":"-.-","ml":"1.9","mw":"-.-","location":"BATIKOY-DIDIM (AYDIN)"},{"date":"2020.09.18","time":"12:58:47","latitude":"39.1912","longitude":"27.7133","depth":"0.0","md":"-.-","ml":"1.4","mw":"-.-","location":"BAYAT-SOMA (MANISA)"},{"date":"2020.09.18","time":"12:51:47","latitude":"37.2452","longitude":"28.2065","depth":"0.0","md":"-.-","ml":"1.8","mw":"-.-","location":"PASAPINARI-(MUGLA)"},{"date":"2020.09.18","time":"12:31:05","latitude":"38.6890","longitude":"41.9753","depth":"5.0","md":"-.-","ml":"2.4","mw":"-.-","location":"SAZLIKBASI-KORKUT (MUS)"},{"date":"2020.09.18","time":"12:30:44","latitude":"39.0697","longitude":"27.4857","depth":"0.0","md":"-.-","ml":"1.5","mw":"-.-","location":"KALEMKOY-KINIK (IZMIR)"},{"date":"2020.09.18","time":"12:04:23","latitude":"39.8605","longitude":"30.3968","depth":"0.0","md":"-.-","ml":"1.7","mw":"-.-","location":"KARACOBANPINARI-TEPEBASI (ESKISEHIR)"},{"date":"2020.09.18","time":"11:55:12","latitude":"36.8963","longitude":"28.8162","depth":"27.9","md":"-.-","ml":"1.1","mw":"-.-","location":"BEYOBASI-KOYCEGIZ (MUGLA)"},{"date":"2020.09.18","time":"11:49:25","latitude":"37.2060","longitude":"37.2093","depth":"0.0","md":"-.-","ml":"1.6","mw":"-.-","location":"UCGOZE-SEHITKAMIL (GAZIANTEP)"},{"date":"2020.09.18","time":"11:09:24","latitude":"38.7625","longitude":"38.1065","depth":"6.4","md":"-.-","ml":"1.8","mw":"-.-","location":"KAVACIK-HEKIMHAN (MALATYA)"},{"date":"2020.09.18","time":"10:55:16","latitude":"38.7463","longitude":"38.1708","depth":"4.5","md":"-.-","ml":"2.2","mw":"-.-","location":"KISLA-ARGUVAN (MALATYA)"},{"date":"2020.09.18","time":"10:41:26","latitude":"39.8938","longitude":"30.4515","depth":"0.0","md":"-.-","ml":"1.3","mw":"-.-","location":"BULDUKPINAR-TEPEBASI (ESKISEHIR)"},{"date":"2020.09.18","time":"10:31:36","latitude":"38.6848","longitude":"38.1173","depth":"8.5","md":"-.-","ml":"1.9","mw":"-.-","location":"AKYAZI-YAZIHAN (MALATYA)"},{"date":"2020.09.18","time":"09:54:04","latitude":"38.6787","longitude":"38.1058","depth":"5.0","md":"-.-","ml":"4.4","mw":"4.3","location":"AKYAZI-YAZIHAN (MALATYA)"},{"date":"2020.09.18","time":"09:09:38","latitude":"38.7403","longitude":"27.9515","depth":"9.8","md":"-.-","ml":"1.9","mw":"-.-","location":"HIROGLU-GOLMARMARA (MANISA)"},{"date":"2020.09.18","time":"09:06:59","latitude":"37.1840","longitude":"28.6543","depth":"9.4","md":"-.-","ml":"1.8","mw":"-.-","location":"CAKMAK-(MUGLA)"},{"date":"2020.09.18","time":"09:01:52","latitude":"39.1225","longitude":"27.7572","depth":"2.0","md":"-.-","ml":"2.2","mw":"-.-","location":"SILEDIK-KIRKAGAC (MANISA)"},{"date":"2020.09.18","time":"08:50:14","latitude":"37.2035","longitude":"28.6128","depth":"15.0","md":"-.-","ml":"1.5","mw":"-.-","location":"CAKMAK-(MUGLA)"},{"date":"2020.09.18","time":"08:38:36","latitude":"38.4267","longitude":"41.9397","depth":"21.7","md":"-.-","ml":"2.3","mw":"-.-","location":"YAYGIN-(BITLIS)"},{"date":"2020.09.18","time":"07:02:17","latitude":"40.8227","longitude":"27.6530","depth":"21.0","md":"-.-","ml":"1.7","mw":"-.-","location":"YENIKOY ACIKLARI-TEKIRDAG (MARMARA DENIZI)"},{"date":"2020.09.18","time":"06:45:13","latitude":"38.6982","longitude":"42.1333","depth":"13.7","md":"-.-","ml":"2.2","mw":"-.-","location":"CITAK-GUROYMAK (BITLIS)"},{"date":"2020.09.18","time":"06:05:43","latitude":"35.8275","longitude":"28.2575","depth":"2.3","md":"-.-","ml":"1.5","mw":"-.-","location":"AKDENIZ"},{"date":"2020.09.18","time":"06:04:46","latitude":"38.7780","longitude":"26.4848","depth":"13.2","md":"-.-","ml":"1.6","mw":"-.-","location":"EGE DENIZI"},{"date":"2020.09.18","time":"06:04:12","latitude":"38.6932","longitude":"41.9778","depth":"3.1","md":"-.-","ml":"2.1","mw":"-.-","location":"SAZLIKBASI-KORKUT (MUS)"},{"date":"2020.09.18","time":"05:52:21","latitude":"38.4343","longitude":"25.6952","depth":"12.1","md":"-.-","ml":"2.6","mw":"-.-","location":"EGE DENIZI"},{"date":"2020.09.18","time":"05:42:21","latitude":"38.6757","longitude":"41.9732","depth":"5.2","md":"-.-","ml":"2.0","mw":"-.-","location":"SAZLIKBASI-KORKUT (MUS)"},{"date":"2020.09.18","time":"05:12:04","latitude":"36.9803","longitude":"27.6287","depth":"4.9","md":"-.-","ml":"1.2","mw":"-.-","location":"GOKOVA KORFEZI (AKDENIZ)"},{"date":"2020.09.18","time":"05:06:06","latitude":"36.9407","longitude":"27.5465","depth":"6.1","md":"-.-","ml":"2.1","mw":"-.-","location":"GOKOVA KORFEZI (AKDENIZ)"},{"date":"2020.09.18","time":"04:59:28","latitude":"36.9632","longitude":"27.5290","depth":"21.9","md":"-.-","ml":"1.1","mw":"-.-","location":"GOKOVA KORFEZI (AKDENIZ)"},{"date":"2020.09.18","time":"04:50:02","latitude":"36.9515","longitude":"27.5852","depth":"9.7","md":"-.-","ml":"1.4","mw":"-.-","location":"GOKOVA KORFEZI (AKDENIZ)"},{"date":"2020.09.18","time":"04:42:39","latitude":"36.9392","longitude":"27.5383","depth":"2.4","md":"-.-","ml":"2.1","mw":"-.-","location":"GOKOVA KORFEZI (AKDENIZ)"},{"date":"2020.09.18","time":"04:41:44","latitude":"36.9087","longitude":"27.5420","depth":"3.2","md":"-.-","ml":"1.5","mw":"-.-","location":"GOKOVA KORFEZI (AKDENIZ)"},{"date":"2020.09.18","time":"03:59:37","latitude":"38.6652","longitude":"38.1828","depth":"7.3","md":"-.-","ml":"2.1","mw":"-.-","location":"KARACA-YAZIHAN (MALATYA)"},{"date":"2020.09.18","time":"03:50:33","latitude":"37.8433","longitude":"27.2673","depth":"9.8","md":"-.-","ml":"1.4","mw":"-.-","location":"KUSADASI (AYDIN)"},{"date":"2020.09.18","time":"03:48:49","latitude":"37.8253","longitude":"27.3040","depth":"11.0","md":"-.-","ml":"1.5","mw":"-.-","location":"SOGUCAK-KUSADASI (AYDIN)"},{"date":"2020.09.18","time":"03:47:49","latitude":"38.7017","longitude":"38.1097","depth":"5.0","md":"-.-","ml":"3.9","mw":"3.9","location":"AKYAZI-YAZIHAN (MALATYA)"},{"date":"2020.09.18","time":"03:44:45","latitude":"37.8390","longitude":"27.2773","depth":"8.9","md":"-.-","ml":"1.6","mw":"-.-","location":"KUSADASI (AYDIN)"},{"date":"2020.09.18","time":"03:42:16","latitude":"37.8395","longitude":"27.2512","depth":"13.6","md":"-.-","ml":"1.6","mw":"-.-","location":"KUSADASI (AYDIN)"},{"date":"2020.09.18","time":"03:41:53","latitude":"38.7990","longitude":"42.0487","depth":"4.3","md":"-.-","ml":"1.8","mw":"-.-","location":"CALAPLI-KORKUT (MUS)"},{"date":"2020.09.18","time":"03:39:36","latitude":"37.8273","longitude":"27.2528","depth":"10.2","md":"-.-","ml":"1.8","mw":"-.-","location":"KUSADASI (AYDIN)"},{"date":"2020.09.18","time":"03:29:28","latitude":"38.6890","longitude":"42.0342","depth":"9.7","md":"-.-","ml":"1.7","mw":"-.-","location":"GEDIKPINAR-GUROYMAK (BITLIS)"},{"date":"2020.09.18","time":"03:23:39","latitude":"38.6767","longitude":"41.9733","depth":"6.9","md":"-.-","ml":"2.4","mw":"-.-","location":"SAZLIKBASI-KORKUT (MUS)"},{"date":"2020.09.18","time":"03:21:13","latitude":"38.7223","longitude":"42.0323","depth":"29.6","md":"-.-","ml":"1.7","mw":"-.-","location":"YUNOREN-KORKUT (MUS)"},{"date":"2020.09.18","time":"03:20:35","latitude":"38.6668","longitude":"41.9697","depth":"10.2","md":"-.-","ml":"1.6","mw":"-.-","location":"SAZLIKBASI-KORKUT (MUS)"},{"date":"2020.09.18","time":"03:15:09","latitude":"38.6787","longitude":"41.9723","depth":"5.0","md":"-.-","ml":"4.0","mw":"4.1","location":"SAZLIKBASI-KORKUT (MUS)"},{"date":"2020.09.18","time":"03:08:29","latitude":"38.4212","longitude":"39.2460","depth":"5.4","md":"-.-","ml":"0.9","mw":"-.-","location":"SOGUKPINAR-SIVRICE (ELAZIG)"},{"date":"2020.09.18","time":"02:58:02","latitude":"36.9233","longitude":"27.5075","depth":"6.9","md":"-.-","ml":"1.4","mw":"-.-","location":"GOKOVA KORFEZI (AKDENIZ)"},{"date":"2020.09.18","time":"02:51:34","latitude":"36.2918","longitude":"27.1163","depth":"109.0","md":"-.-","ml":"2.5","mw":"-.-","location":"AKDENIZ"},{"date":"2020.09.18","time":"02:51:23","latitude":"38.8180","longitude":"42.0585","depth":"8.0","md":"-.-","ml":"1.8","mw":"-.-","location":"CINARARDI-KORKUT (MUS)"},{"date":"2020.09.18","time":"02:41:30","latitude":"38.6767","longitude":"38.1717","depth":"8.6","md":"-.-","ml":"1.9","mw":"-.-","location":"BOZTEPE-YAZIHAN (MALATYA)"},{"date":"2020.09.18","time":"02:32:56","latitude":"35.9318","longitude":"22.3720","depth":"28.0","md":"-.-","ml":"4.1","mw":"-.-","location":"YUNANISTAN"},{"date":"2020.09.18","time":"02:19:09","latitude":"38.7188","longitude":"41.9865","depth":"5.4","md":"-.-","ml":"1.1","mw":"-.-","location":"SARMASIK-KORKUT (MUS)"},{"date":"2020.09.18","time":"02:13:46","latitude":"37.7918","longitude":"27.7678","depth":"13.5","md":"-.-","ml":"1.2","mw":"-.-","location":"OSMANBUKU-INCIRLIOVA (AYDIN)"},{"date":"2020.09.18","time":"02:01:44","latitude":"38.3872","longitude":"44.1382","depth":"43.9","md":"-.-","ml":"2.0","mw":"-.-","location":"KARAHISAR-SARAY (VAN)"},{"date":"2020.09.18","time":"01:52:01","latitude":"39.2710","longitude":"41.6192","depth":"15.7","md":"-.-","ml":"1.4","mw":"-.-","location":"ALINTERI-HINIS (ERZURUM)"},{"date":"2020.09.18","time":"01:51:08","latitude":"36.5148","longitude":"29.0727","depth":"24.7","md":"-.-","ml":"1.2","mw":"-.-","location":"UZUNYURT-FETHIYE (MUGLA)"},{"date":"2020.09.18","time":"01:42:19","latitude":"38.9565","longitude":"27.7222","depth":"4.6","md":"-.-","ml":"1.9","mw":"-.-","location":"BUNYANOSMANIYE-AKHISAR (MANISA)"},{"date":"2020.09.18","time":"01:40:28","latitude":"38.6540","longitude":"38.1075","depth":"7.5","md":"-.-","ml":"1.4","mw":"-.-","location":"ALICAN-YAZIHAN (MALATYA)"},{"date":"2020.09.18","time":"01:24:30","latitude":"38.6875","longitude":"31.7702","depth":"12.0","md":"-.-","ml":"1.1","mw":"-.-","location":"KUZOREN-YUNAK (KONYA)"},{"date":"2020.09.18","time":"01:23:40","latitude":"38.6973","longitude":"38.1245","depth":"2.0","md":"-.-","ml":"3.4","mw":"3.4","location":"AKYAZI-YAZIHAN (MALATYA)"},{"date":"2020.09.18","time":"01:14:05","latitude":"36.9572","longitude":"27.5433","depth":"8.1","md":"-.-","ml":"1.9","mw":"-.-","location":"GOKOVA KORFEZI (AKDENIZ)"},{"date":"2020.09.18","time":"00:21:30","latitude":"35.5082","longitude":"31.5010","depth":"2.2","md":"-.-","ml":"2.0","mw":"-.-","location":"AKDENIZ"},{"date":"2020.09.18","time":"00:17:18","latitude":"40.8143","longitude":"30.9188","depth":"4.7","md":"-.-","ml":"2.7","mw":"-.-","location":"DEREKOY-GUMUSOVA (DUZCE)"},{"date":"2020.09.18","time":"00:13:04","latitude":"35.5070","longitude":"31.4348","depth":"5.3","md":"-.-","ml":"3.5","mw":"3.5","location":"AKDENIZ"},{"date":"2020.09.17","time":"23:50:08","latitude":"38.7125","longitude":"38.1138","depth":"5.0","md":"-.-","ml":"3.0","mw":"2.8","location":"YESILPINAR-HEKIMHAN (MALATYA)"},{"date":"2020.09.17","time":"23:45:52","latitude":"38.4295","longitude":"39.2710","depth":"8.0","md":"-.-","ml":"2.0","mw":"-.-","location":"DUZBAHCE-SIVRICE (ELAZIG)"},{"date":"2020.09.17","time":"23:11:28","latitude":"37.0377","longitude":"27.6380","depth":"5.0","md":"-.-","ml":"1.3","mw":"-.-","location":"PINARLIBELEN-BODRUM (MUGLA)"},{"date":"2020.09.17","time":"23:09:05","latitude":"38.7172","longitude":"26.6787","depth":"8.9","md":"-.-","ml":"1.9","mw":"-.-","location":"IZMIR KORFEZI (EGE DENIZI)"},{"date":"2020.09.17","time":"23:07:39","latitude":"38.4013","longitude":"39.3198","depth":"14.6","md":"-.-","ml":"1.3","mw":"-.-","location":"ALAATTINKOY-SIVRICE (ELAZIG)"},{"date":"2020.09.17","time":"22:52:38","latitude":"38.7295","longitude":"38.1210","depth":"6.4","md":"-.-","ml":"2.3","mw":"-.-","location":"YESILPINAR-HEKIMHAN (MALATYA)"},{"date":"2020.09.17","time":"21:42:35","latitude":"36.8982","longitude":"27.4987","depth":"22.2","md":"-.-","ml":"1.6","mw":"-.-","location":"GOKOVA KORFEZI (AKDENIZ)"},{"date":"2020.09.17","time":"20:55:56","latitude":"36.4362","longitude":"29.0973","depth":"27.2","md":"-.-","ml":"2.9","mw":"-.-","location":"UZUNYURT-FETHIYE (MUGLA)"},{"date":"2020.09.17","time":"20:45:39","latitude":"36.9130","longitude":"27.5063","depth":"2.8","md":"-.-","ml":"1.7","mw":"-.-","location":"GOKOVA KORFEZI (AKDENIZ)"},{"date":"2020.09.17","time":"20:22:36","latitude":"38.6640","longitude":"43.6310","depth":"5.0","md":"-.-","ml":"2.5","mw":"-.-","location":"ERCEK-(VAN)"},{"date":"2020.09.17","time":"20:11:45","latitude":"38.7705","longitude":"40.1120","depth":"22.6","md":"-.-","ml":"2.0","mw":"-.-","location":"YUKARIMIRAHMET-KOVANCILAR (ELAZIG)"},{"date":"2020.09.17","time":"20:02:02","latitude":"36.9390","longitude":"27.5327","depth":"6.7","md":"-.-","ml":"2.2","mw":"-.-","location":"GOKOVA KORFEZI (AKDENIZ)"},{"date":"2020.09.17","time":"19:06:25","latitude":"38.6567","longitude":"41.9540","depth":"5.0","md":"-.-","ml":"2.3","mw":"-.-","location":"ALTINOVA-KORKUT (MUS)"},{"date":"2020.09.17","time":"18:51:17","latitude":"35.5087","longitude":"26.6590","depth":"2.3","md":"-.-","ml":"2.1","mw":"-.-","location":"GIRIT ADASI (AKDENIZ)"},{"date":"2020.09.17","time":"18:37:57","latitude":"36.4262","longitude":"27.3067","depth":"26.2","md":"-.-","ml":"2.0","mw":"-.-","location":"KOS ADASI (AKDENIZ)"},{"date":"2020.09.17","time":"18:30:24","latitude":"36.8897","longitude":"27.4613","depth":"25.4","md":"-.-","ml":"1.5","mw":"-.-","location":"GOKOVA KORFEZI (AKDENIZ)"},{"date":"2020.09.17","time":"18:29:42","latitude":"39.0065","longitude":"24.1470","depth":"88.3","md":"-.-","ml":"2.9","mw":"-.-","location":"YUNANISTAN"},{"date":"2020.09.17","time":"18:12:29","latitude":"39.1528","longitude":"29.0605","depth":"15.6","md":"-.-","ml":"1.4","mw":"-.-","location":"AHLATLICESME-SIMAV (KUTAHYA)"},{"date":"2020.09.17","time":"17:25:15","latitude":"38.0498","longitude":"38.6458","depth":"5.5","md":"-.-","ml":"2.1","mw":"-.-","location":"SINCIK (ADIYAMAN)"},{"date":"2020.09.17","time":"17:23:46","latitude":"36.9435","longitude":"27.5123","depth":"22.2","md":"-.-","ml":"1.7","mw":"-.-","location":"GOKOVA KORFEZI (AKDENIZ)"},{"date":"2020.09.17","time":"17:12:15","latitude":"36.8727","longitude":"27.4480","depth":"2.6","md":"-.-","ml":"1.4","mw":"-.-","location":"GOKOVA KORFEZI (AKDENIZ)"},{"date":"2020.09.17","time":"17:07:40","latitude":"36.8892","longitude":"27.4825","depth":"11.7","md":"-.-","ml":"1.4","mw":"-.-","location":"GOKOVA KORFEZI (AKDENIZ)"},{"date":"2020.09.17","time":"16:20:42","latitude":"36.9460","longitude":"27.5623","depth":"2.9","md":"-.-","ml":"1.1","mw":"-.-","location":"GOKOVA KORFEZI (AKDENIZ)"},{"date":"2020.09.17","time":"15:54:56","latitude":"36.9250","longitude":"27.5352","depth":"3.5","md":"-.-","ml":"2.7","mw":"-.-","location":"GOKOVA KORFEZI (AKDENIZ)"},{"date":"2020.09.17","time":"15:40:10","latitude":"36.9693","longitude":"27.5165","depth":"28.9","md":"-.-","ml":"1.1","mw":"-.-","location":"GOKOVA KORFEZI (AKDENIZ)"},{"date":"2020.09.17","time":"15:14:17","latitude":"36.9550","longitude":"27.5423","depth":"16.8","md":"-.-","ml":"1.4","mw":"-.-","location":"GOKOVA KORFEZI (AKDENIZ)"},{"date":"2020.09.17","time":"15:08:23","latitude":"37.0130","longitude":"27.6278","depth":"13.8","md":"-.-","ml":"1.6","mw":"-.-","location":"GOKOVA KORFEZI (AKDENIZ)"},{"date":"2020.09.17","time":"14:59:49","latitude":"36.9520","longitude":"27.5850","depth":"5.0","md":"-.-","ml":"1.4","mw":"-.-","location":"GOKOVA KORFEZI (AKDENIZ)"},{"date":"2020.09.17","time":"13:44:24","latitude":"39.1642","longitude":"27.6470","depth":"0.0","md":"-.-","ml":"1.4","mw":"-.-","location":"SARIKAYA-SOMA (MANISA)"},{"date":"2020.09.17","time":"13:36:35","latitude":"36.9232","longitude":"27.5157","depth":"15.0","md":"-.-","ml":"1.6","mw":"-.-","location":"GOKOVA KORFEZI (AKDENIZ)"},{"date":"2020.09.17","time":"13:28:47","latitude":"39.1275","longitude":"27.5915","depth":"0.0","md":"-.-","ml":"1.7","mw":"-.-","location":"ADIL-SOMA (MANISA)"},{"date":"2020.09.17","time":"13:17:17","latitude":"36.9245","longitude":"27.5227","depth":"19.9","md":"-.-","ml":"1.5","mw":"-.-","location":"GOKOVA KORFEZI (AKDENIZ)"},{"date":"2020.09.17","time":"13:15:25","latitude":"38.4885","longitude":"39.3028","depth":"5.0","md":"-.-","ml":"1.7","mw":"-.-","location":"BEKCITEPE-SIVRICE (ELAZIG)"},{"date":"2020.09.17","time":"13:10:10","latitude":"38.4453","longitude":"39.2237","depth":"4.3","md":"-.-","ml":"1.9","mw":"-.-","location":"ALINCIK-SIVRICE (ELAZIG)"},{"date":"2020.09.17","time":"13:06:05","latitude":"39.7278","longitude":"30.6975","depth":"0.0","md":"-.-","ml":"1.6","mw":"-.-","location":"KANLIPINAR-ODUNPAZARI (ESKISEHIR)"},{"date":"2020.09.17","time":"12:53:41","latitude":"36.1307","longitude":"33.5433","depth":"0.0","md":"-.-","ml":"1.3","mw":"-.-","location":"YANISLI-GULNAR (MERSIN)"},{"date":"2020.09.17","time":"12:50:02","latitude":"39.9078","longitude":"29.0883","depth":"0.0","md":"-.-","ml":"1.4","mw":"-.-","location":"KABAKLAR-ORHANELI (BURSA)"},{"date":"2020.09.17","time":"12:47:55","latitude":"37.3778","longitude":"27.8678","depth":"0.0","md":"-.-","ml":"1.3","mw":"-.-","location":"OLUKBASI-MILAS (MUGLA)"},{"date":"2020.09.17","time":"12:42:24","latitude":"38.2090","longitude":"38.8402","depth":"9.2","md":"-.-","ml":"1.4","mw":"-.-","location":"TASMIS-PUTURGE (MALATYA)"},{"date":"2020.09.17","time":"12:34:54","latitude":"37.2737","longitude":"31.9053","depth":"0.0","md":"-.-","ml":"2.0","mw":"-.-","location":"SUSUZ-SEYDISEHIR (KONYA)"},{"date":"2020.09.17","time":"12:30:37","latitude":"39.4298","longitude":"29.3017","depth":"0.0","md":"-.-","ml":"1.2","mw":"-.-","location":"GUNLUCE-EMET (KUTAHYA)"},{"date":"2020.09.17","time":"12:26:39","latitude":"37.2992","longitude":"37.2048","depth":"0.0","md":"-.-","ml":"1.4","mw":"-.-","location":"KARABIYIKLI-PAZARCIK (KAHRAMANMARAS)"},{"date":"2020.09.17","time":"12:08:12","latitude":"36.8943","longitude":"37.5348","depth":"6.6","md":"-.-","ml":"2.3","mw":"-.-","location":"YAKACIK-OGUZELI (GAZIANTEP)"},{"date":"2020.09.17","time":"12:02:30","latitude":"37.1537","longitude":"27.8863","depth":"0.0","md":"-.-","ml":"1.4","mw":"-.-","location":"BAGDAMLARI-MILAS (MUGLA)"},{"date":"2020.09.17","time":"11:56:50","latitude":"36.9868","longitude":"27.6563","depth":"19.7","md":"-.-","ml":"1.1","mw":"-.-","location":"GOKOVA KORFEZI (AKDENIZ)"},{"date":"2020.09.17","time":"11:51:04","latitude":"37.2505","longitude":"28.2518","depth":"0.0","md":"-.-","ml":"1.8","mw":"-.-","location":"SALIHPASALAR-(MUGLA)"},{"date":"2020.09.17","time":"11:43:06","latitude":"38.3003","longitude":"39.3342","depth":"16.4","md":"-.-","ml":"1.6","mw":"-.-","location":"KOCOREN-CUNGUS (DIYARBAKIR)"},{"date":"2020.09.17","time":"11:03:20","latitude":"38.3737","longitude":"39.1487","depth":"12.7","md":"-.-","ml":"0.9","mw":"-.-","location":"USLU-SIVRICE (ELAZIG)"},{"date":"2020.09.17","time":"09:57:05","latitude":"38.2070","longitude":"38.9362","depth":"5.1","md":"-.-","ml":"1.6","mw":"-.-","location":"DUVENLIK-PUTURGE (MALATYA)"},{"date":"2020.09.17","time":"07:52:30","latitude":"36.8127","longitude":"27.3238","depth":"11.7","md":"-.-","ml":"1.0","mw":"-.-","location":"GOKOVA KORFEZI (AKDENIZ)"},{"date":"2020.09.17","time":"06:26:27","latitude":"38.6870","longitude":"41.9658","depth":"13.7","md":"-.-","ml":"2.1","mw":"-.-","location":"SAZLIKBASI-KORKUT (MUS)"},{"date":"2020.09.17","time":"04:12:39","latitude":"38.9428","longitude":"25.9850","depth":"10.0","md":"-.-","ml":"2.6","mw":"-.-","location":"EGE DENIZI"},{"date":"2020.09.17","time":"03:09:04","latitude":"39.1488","longitude":"27.1863","depth":"14.6","md":"-.-","ml":"2.2","mw":"-.-","location":"HAMZALISULEYMANIYE-BERGAMA (IZMIR)"},{"date":"2020.09.17","time":"03:08:19","latitude":"37.6830","longitude":"35.5810","depth":"5.0","md":"-.-","ml":"2.3","mw":"-.-","location":"ISIKKAYA-KOZAN (ADANA)"},{"date":"2020.09.17","time":"03:04:30","latitude":"38.6852","longitude":"41.9808","depth":"5.0","md":"-.-","ml":"1.4","mw":"-.-","location":"SAZLIKBASI-KORKUT (MUS)"},{"date":"2020.09.17","time":"01:54:58","latitude":"38.6523","longitude":"41.9553","depth":"8.9","md":"-.-","ml":"2.0","mw":"-.-","location":"SAZLIKBASI-KORKUT (MUS)"},{"date":"2020.09.17","time":"01:40:03","latitude":"35.1043","longitude":"27.1627","depth":"12.4","md":"-.-","ml":"3.0","mw":"-.-","location":"AKDENIZ"},{"date":"2020.09.17","time":"01:26:48","latitude":"39.7077","longitude":"43.5940","depth":"11.7","md":"-.-","ml":"1.6","mw":"-.-","location":"AKTARLA-DOGUBAYAZIT (AGRI)"},{"date":"2020.09.17","time":"00:49:57","latitude":"35.7572","longitude":"28.2230","depth":"6.7","md":"-.-","ml":"1.4","mw":"-.-","location":"AKDENIZ"},{"date":"2020.09.17","time":"00:09:16","latitude":"37.2720","longitude":"26.7890","depth":"2.2","md":"-.-","ml":"2.4","mw":"-.-","location":"ONIKI ADALAR (AKDENIZ)"},{"date":"2020.09.17","time":"00:01:50","latitude":"40.6938","longitude":"27.3815","depth":"10.6","md":"-.-","ml":"1.9","mw":"-.-","location":"GUZELKOY ACIKLARI-TEKIRDAG (MARMARA DENIZI)"},{"date":"2020.09.16","time":"23:52:36","latitude":"35.7612","longitude":"28.3575","depth":"17.5","md":"-.-","ml":"1.5","mw":"-.-","location":"AKDENIZ"},{"date":"2020.09.16","time":"23:48:31","latitude":"35.8878","longitude":"28.1688","depth":"4.7","md":"-.-","ml":"2.2","mw":"-.-","location":"AKDENIZ"},{"date":"2020.09.16","time":"22:51:13","latitude":"38.0667","longitude":"38.5983","depth":"4.0","md":"-.-","ml":"2.4","mw":"-.-","location":"SAKIZ-SINCIK (ADIYAMAN)"},{"date":"2020.09.16","time":"22:48:21","latitude":"35.8018","longitude":"28.1513","depth":"7.6","md":"-.-","ml":"1.7","mw":"-.-","location":"AKDENIZ"},{"date":"2020.09.16","time":"21:31:08","latitude":"38.0475","longitude":"38.2063","depth":"10.8","md":"-.-","ml":"1.7","mw":"-.-","location":"PINARBASI-CELIKHAN (ADIYAMAN)"},{"date":"2020.09.16","time":"21:26:49","latitude":"37.5367","longitude":"27.2322","depth":"10.1","md":"-.-","ml":"1.5","mw":"-.-","location":"BATIKOY-DIDIM (AYDIN)"},{"date":"2020.09.16","time":"21:10:04","latitude":"38.3280","longitude":"27.2067","depth":"11.1","md":"-.-","ml":"2.1","mw":"-.-","location":"KISIK-MENDERES (IZMIR)"},{"date":"2020.09.16","time":"21:05:47","latitude":"38.6407","longitude":"41.9087","depth":"6.6","md":"-.-","ml":"1.8","mw":"-.-","location":"DUZOVA-KORKUT (MUS)"},{"date":"2020.09.16","time":"20:56:24","latitude":"36.2817","longitude":"27.4898","depth":"12.5","md":"-.-","ml":"1.9","mw":"-.-","location":"ONIKI ADALAR (AKDENIZ)"},{"date":"2020.09.16","time":"20:50:07","latitude":"36.2717","longitude":"27.5247","depth":"30.6","md":"-.-","ml":"1.9","mw":"-.-","location":"DATCA ACIKLARI-MUGLA (AKDENIZ)"},{"date":"2020.09.16","time":"20:23:18","latitude":"39.6950","longitude":"38.4053","depth":"11.6","md":"-.-","ml":"2.4","mw":"-.-","location":"AKCAYAZI-ILIC (ERZINCAN)"},{"date":"2020.09.16","time":"20:03:52","latitude":"35.7612","longitude":"28.2320","depth":"8.7","md":"-.-","ml":"2.0","mw":"-.-","location":"AKDENIZ"},{"date":"2020.09.16","time":"18:29:08","latitude":"35.8015","longitude":"28.2077","depth":"5.9","md":"-.-","ml":"1.9","mw":"-.-","location":"AKDENIZ"},{"date":"2020.09.16","time":"18:22:19","latitude":"38.6777","longitude":"41.9670","depth":"7.7","md":"-.-","ml":"2.3","mw":"-.-","location":"SAZLIKBASI-KORKUT (MUS)"},{"date":"2020.09.16","time":"18:19:13","latitude":"38.6310","longitude":"41.9107","depth":"9.1","md":"-.-","ml":"1.8","mw":"-.-","location":"DUZOVA-KORKUT (MUS)"},{"date":"2020.09.16","time":"17:48:18","latitude":"38.6792","longitude":"41.9690","depth":"5.0","md":"-.-","ml":"4.6","mw":"4.7","location":"SAZLIKBASI-KORKUT (MUS)"},{"date":"2020.09.16","time":"16:50:53","latitude":"38.5330","longitude":"39.5558","depth":"16.0","md":"-.-","ml":"2.1","mw":"-.-","location":"KUCUKOVA-MADEN (ELAZIG)"},{"date":"2020.09.16","time":"16:38:32","latitude":"39.0328","longitude":"29.9198","depth":"18.0","md":"-.-","ml":"2.4","mw":"-.-","location":"ALINCIK-ALTINTAS (KUTAHYA)"},{"date":"2020.09.16","time":"15:57:05","latitude":"36.8430","longitude":"27.5387","depth":"23.4","md":"-.-","ml":"1.6","mw":"-.-","location":"GOKOVA KORFEZI (AKDENIZ)"},{"date":"2020.09.16","time":"15:54:57","latitude":"36.8822","longitude":"27.5567","depth":"1.0","md":"-.-","ml":"2.3","mw":"-.-","location":"GOKOVA KORFEZI (AKDENIZ)"},{"date":"2020.09.16","time":"15:46:50","latitude":"36.8028","longitude":"27.4205","depth":"2.8","md":"-.-","ml":"1.3","mw":"-.-","location":"GOKOVA KORFEZI (AKDENIZ)"},{"date":"2020.09.16","time":"14:39:10","latitude":"37.5872","longitude":"27.0902","depth":"7.8","md":"-.-","ml":"2.0","mw":"-.-","location":"DOGANBEY ACIKLARI-AYDIN (EGE DENIZI)"},{"date":"2020.09.16","time":"13:38:40","latitude":"40.6775","longitude":"26.6885","depth":"8.2","md":"-.-","ml":"1.6","mw":"-.-","location":"SAZLIDERE-KESAN (EDIRNE)"},{"date":"2020.09.16","time":"12:47:52","latitude":"40.7027","longitude":"27.4103","depth":"11.7","md":"-.-","ml":"1.9","mw":"-.-","location":"GUZELKOY ACIKLARI-TEKIRDAG (MARMARA DENIZI)"},{"date":"2020.09.16","time":"12:26:20","latitude":"39.3173","longitude":"33.4187","depth":"0.0","md":"-.-","ml":"1.7","mw":"-.-","location":"BUYUKCAMILI-BALA (ANKARA)"},{"date":"2020.09.16","time":"12:18:13","latitude":"39.9387","longitude":"28.7440","depth":"0.0","md":"-.-","ml":"1.8","mw":"-.-","location":"OMERALTI-MUSTAFAKEMALPASA (BURSA)"},{"date":"2020.09.16","time":"12:18:10","latitude":"36.4610","longitude":"34.1997","depth":"0.0","md":"-.-","ml":"1.0","mw":"-.-","location":"AYAS-ERDEMLI (MERSIN)"},{"date":"2020.09.16","time":"12:09:03","latitude":"38.5135","longitude":"39.3537","depth":"18.6","md":"-.-","ml":"1.6","mw":"-.-","location":"CEVIZDERE-(ELAZIG)"},{"date":"2020.09.16","time":"12:05:50","latitude":"38.5282","longitude":"31.5662","depth":"19.7","md":"-.-","ml":"1.1","mw":"-.-","location":"PAZARKAYA-TUZLUKCU (KONYA)"},{"date":"2020.09.16","time":"12:03:19","latitude":"39.7123","longitude":"33.0668","depth":"0.0","md":"-.-","ml":"1.4","mw":"-.-","location":"ERGIN-BALA (ANKARA)"},{"date":"2020.09.16","time":"12:03:17","latitude":"36.7617","longitude":"34.0905","depth":"0.0","md":"-.-","ml":"2.1","mw":"-.-","location":"SARIKAYA-ERDEMLI (MERSIN)"},{"date":"2020.09.16","time":"11:32:26","latitude":"37.0892","longitude":"28.3670","depth":"0.0","md":"-.-","ml":"1.2","mw":"-.-","location":"KIZILAGAC-ULA (MUGLA)"},{"date":"2020.09.16","time":"11:11:17","latitude":"40.6240","longitude":"32.4982","depth":"8.1","md":"-.-","ml":"1.6","mw":"-.-","location":"GEBELER-KIZILCAHAMAM (ANKARA)"},{"date":"2020.09.16","time":"09:52:53","latitude":"39.1380","longitude":"27.8548","depth":"9.6","md":"-.-","ml":"1.1","mw":"-.-","location":"BOSTANCI-KIRKAGAC (MANISA)"},{"date":"2020.09.16","time":"08:32:35","latitude":"37.9410","longitude":"26.8915","depth":"13.6","md":"-.-","ml":"1.8","mw":"-.-","location":"KUSADASI KORFEZI (EGE DENIZI)"},{"date":"2020.09.16","time":"07:16:03","latitude":"37.5455","longitude":"30.5690","depth":"1.0","md":"-.-","ml":"1.2","mw":"-.-","location":"ALKAYA-BUCAK (BURDUR)"},{"date":"2020.09.16","time":"06:11:22","latitude":"36.8362","longitude":"28.3715","depth":"2.9","md":"-.-","ml":"1.2","mw":"-.-","location":"ADAKOY-MARMARIS (MUGLA)"},{"date":"2020.09.16","time":"05:26:42","latitude":"39.0915","longitude":"27.8272","depth":"9.3","md":"-.-","ml":"1.5","mw":"-.-","location":"KARAKURT-KIRKAGAC (MANISA)"},{"date":"2020.09.16","time":"04:41:20","latitude":"38.8175","longitude":"26.4633","depth":"11.0","md":"-.-","ml":"2.0","mw":"-.-","location":"EGE DENIZI"},{"date":"2020.09.16","time":"04:31:20","latitude":"38.8532","longitude":"26.4275","depth":"8.5","md":"-.-","ml":"2.0","mw":"-.-","location":"EGE DENIZI"},{"date":"2020.09.16","time":"03:49:42","latitude":"38.2723","longitude":"38.7585","depth":"8.5","md":"-.-","ml":"2.2","mw":"-.-","location":"BALPINARI-PUTURGE (MALATYA)"},{"date":"2020.09.16","time":"02:58:34","latitude":"35.9443","longitude":"30.7990","depth":"10.4","md":"-.-","ml":"2.4","mw":"-.-","location":"AKDENIZ"},{"date":"2020.09.16","time":"02:38:08","latitude":"34.2608","longitude":"25.0775","depth":"86.1","md":"-.-","ml":"2.8","mw":"-.-","location":"GIRIT ADASI ACIKLARI (AKDENIZ)"},{"date":"2020.09.16","time":"01:37:07","latitude":"36.6250","longitude":"29.2832","depth":"29.1","md":"-.-","ml":"1.8","mw":"-.-","location":"BOZYER-FETHIYE (MUGLA)"},{"date":"2020.09.16","time":"00:47:18","latitude":"36.9490","longitude":"27.8125","depth":"5.3","md":"-.-","ml":"2.3","mw":"-.-","location":"GOKOVA KORFEZI (AKDENIZ)"},{"date":"2020.09.16","time":"00:07:55","latitude":"38.1117","longitude":"38.6718","depth":"5.0","md":"-.-","ml":"2.2","mw":"-.-","location":"CAMLIDERE-PUTURGE (MALATYA)"},{"date":"2020.09.15","time":"23:57:33","latitude":"38.1055","longitude":"38.6115","depth":"5.0","md":"-.-","ml":"3.7","mw":"3.8","location":"KOZLUK-PUTURGE (MALATYA)"},{"date":"2020.09.15","time":"23:27:49","latitude":"37.2948","longitude":"36.2655","depth":"5.4","md":"-.-","ml":"1.9","mw":"-.-","location":"KARATEPE-KADIRLI (OSMANIYE)"},{"date":"2020.09.15","time":"23:22:13","latitude":"35.4930","longitude":"29.6095","depth":"22.7","md":"-.-","ml":"2.7","mw":"-.-","location":"AKDENIZ"},{"date":"2020.09.15","time":"22:50:36","latitude":"39.3018","longitude":"27.4398","depth":"7.7","md":"-.-","ml":"1.9","mw":"-.-","location":"YAYLADALI-SOMA (MANISA)"},{"date":"2020.09.15","time":"21:33:23","latitude":"40.9945","longitude":"42.1538","depth":"8.8","md":"-.-","ml":"2.2","mw":"-.-","location":"ZEKERIYAKOY-ARDANUC (ARTVIN)"},{"date":"2020.09.15","time":"21:20:06","latitude":"37.1065","longitude":"29.5343","depth":"13.7","md":"-.-","ml":"1.6","mw":"-.-","location":"KARAPINAR-GOLHISAR (BURDUR)"},{"date":"2020.09.15","time":"20:35:32","latitude":"38.9812","longitude":"25.9933","depth":"11.9","md":"-.-","ml":"2.1","mw":"-.-","location":"EGE DENIZI"},{"date":"2020.09.15","time":"20:20:44","latitude":"40.7328","longitude":"32.4902","depth":"11.3","md":"-.-","ml":"2.0","mw":"-.-","location":"DEMIRLER-GEREDE (BOLU)"},{"date":"2020.09.15","time":"18:50:25","latitude":"37.2622","longitude":"26.8045","depth":"9.4","md":"-.-","ml":"1.9","mw":"-.-","location":"ONIKI ADALAR (AKDENIZ)"},{"date":"2020.09.15","time":"18:26:30","latitude":"39.0118","longitude":"29.9058","depth":"8.1","md":"-.-","ml":"1.7","mw":"-.-","location":"OYSU-ALTINTAS (KUTAHYA)"},{"date":"2020.09.15","time":"18:22:22","latitude":"38.9887","longitude":"29.8888","depth":"5.2","md":"-.-","ml":"3.6","mw":"3.5","location":"OYSU-ALTINTAS (KUTAHYA)"},{"date":"2020.09.15","time":"15:25:15","latitude":"38.4195","longitude":"39.4137","depth":"18.1","md":"-.-","ml":"1.4","mw":"-.-","location":"AKBUGDAY-SIVRICE (ELAZIG)"},{"date":"2020.09.15","time":"14:26:22","latitude":"38.5650","longitude":"44.2310","depth":"5.0","md":"-.-","ml":"2.4","mw":"-.-","location":"KAZLIGOL-SARAY (VAN)"},{"date":"2020.09.15","time":"12:51:27","latitude":"40.3858","longitude":"28.0878","depth":"27.9","md":"-.-","ml":"1.6","mw":"-.-","location":"YENICE-BANDIRMA (BALIKESIR)"},{"date":"2020.09.15","time":"12:40:28","latitude":"39.8870","longitude":"28.8360","depth":"0.0","md":"-.-","ml":"1.4","mw":"-.-","location":"YENIDANISMENT-ORHANELI (BURSA)"},{"date":"2020.09.15","time":"12:35:57","latitude":"34.0967","longitude":"25.1437","depth":"11.9","md":"-.-","ml":"3.0","mw":"-.-","location":"GIRIT ADASI ACIKLARI (AKDENIZ)"},{"date":"2020.09.15","time":"12:13:14","latitude":"37.2337","longitude":"27.9312","depth":"0.0","md":"-.-","ml":"1.9","mw":"-.-","location":"CAMLIBELEN-MILAS (MUGLA)"},{"date":"2020.09.15","time":"12:11:37","latitude":"37.3003","longitude":"27.8590","depth":"24.1","md":"-.-","ml":"1.6","mw":"-.-","location":"TUZABAT-MILAS (MUGLA)"},{"date":"2020.09.15","time":"12:09:21","latitude":"37.1300","longitude":"27.7882","depth":"0.0","md":"-.-","ml":"1.4","mw":"-.-","location":"SOGUTCUK-MILAS (MUGLA)"},{"date":"2020.09.15","time":"12:00:52","latitude":"37.2862","longitude":"28.2795","depth":"5.1","md":"-.-","ml":"2.0","mw":"-.-","location":"SALIHPASALAR-(MUGLA)"},{"date":"2020.09.15","time":"11:53:38","latitude":"37.2140","longitude":"37.2407","depth":"0.0","md":"-.-","ml":"1.7","mw":"-.-","location":"YIGINLI-SEHITKAMIL (GAZIANTEP)"},{"date":"2020.09.15","time":"11:50:54","latitude":"37.2433","longitude":"28.1868","depth":"0.0","md":"-.-","ml":"2.0","mw":"-.-","location":"PASAPINARI-(MUGLA)"},{"date":"2020.09.15","time":"11:41:38","latitude":"36.2473","longitude":"33.6760","depth":"0.0","md":"-.-","ml":"1.3","mw":"-.-","location":"ISIKLI-SILIFKE (MERSIN)"},{"date":"2020.09.15","time":"11:21:27","latitude":"37.7630","longitude":"27.1030","depth":"7.0","md":"-.-","ml":"1.6","mw":"-.-","location":"KUSADASI KORFEZI (EGE DENIZI)"},{"date":"2020.09.15","time":"11:16:53","latitude":"37.7685","longitude":"27.2087","depth":"12.7","md":"-.-","ml":"1.8","mw":"-.-","location":"KUSADASI KORFEZI (EGE DENIZI)"},{"date":"2020.09.15","time":"10:38:32","latitude":"36.8023","longitude":"29.2357","depth":"0.0","md":"-.-","ml":"1.7","mw":"-.-","location":"SOGUTLU-FETHIYE (MUGLA)"},{"date":"2020.09.15","time":"09:27:22","latitude":"38.2605","longitude":"38.8222","depth":"15.5","md":"-.-","ml":"1.9","mw":"-.-","location":"AKTARLI-PUTURGE (MALATYA)"},{"date":"2020.09.15","time":"06:47:49","latitude":"36.9182","longitude":"27.4458","depth":"3.0","md":"-.-","ml":"1.7","mw":"-.-","location":"GOKOVA KORFEZI (AKDENIZ)"},{"date":"2020.09.15","time":"05:34:29","latitude":"40.1772","longitude":"25.1592","depth":"5.4","md":"-.-","ml":"2.1","mw":"-.-","location":"EGE DENIZI"},{"date":"2020.09.15","time":"04:43:48","latitude":"39.8537","longitude":"40.4468","depth":"5.0","md":"-.-","ml":"2.0","mw":"-.-","location":"DOLUCA-TERCAN (ERZINCAN)"},{"date":"2020.09.15","time":"03:51:17","latitude":"40.7030","longitude":"30.6020","depth":"6.0","md":"-.-","ml":"2.2","mw":"-.-","location":"AKYAZI (SAKARYA)"},{"date":"2020.09.15","time":"02:36:17","latitude":"34.1308","longitude":"25.7267","depth":"13.3","md":"-.-","ml":"3.1","mw":"-.-","location":"GIRIT ADASI ACIKLARI (AKDENIZ)"},{"date":"2020.09.14","time":"23:47:11","latitude":"37.7388","longitude":"32.5118","depth":"24.4","md":"-.-","ml":"1.2","mw":"-.-","location":"BAYAT-MERAM (KONYA)"},{"date":"2020.09.14","time":"22:37:03","latitude":"37.2500","longitude":"26.7853","depth":"5.0","md":"-.-","ml":"2.9","mw":"-.-","location":"ONIKI ADALAR (AKDENIZ)"},{"date":"2020.09.14","time":"21:14:48","latitude":"38.0588","longitude":"37.9542","depth":"9.6","md":"-.-","ml":"2.0","mw":"-.-","location":"GUROBASI-DOGANSEHIR (MALATYA)"},{"date":"2020.09.14","time":"19:32:31","latitude":"39.1015","longitude":"23.7595","depth":"11.4","md":"-.-","ml":"2.7","mw":"-.-","location":"YUNANISTAN"},{"date":"2020.09.14","time":"19:26:29","latitude":"39.0180","longitude":"24.0448","depth":"25.8","md":"-.-","ml":"2.9","mw":"-.-","location":"YUNANISTAN"},{"date":"2020.09.14","time":"18:00:54","latitude":"38.9363","longitude":"25.9623","depth":"7.9","md":"-.-","ml":"2.7","mw":"-.-","location":"EGE DENIZI"},{"date":"2020.09.14","time":"17:37:34","latitude":"38.7135","longitude":"31.6070","depth":"7.3","md":"-.-","ml":"2.3","mw":"-.-","location":"SIRAM-YUNAK (KONYA)"},{"date":"2020.09.14","time":"17:36:41","latitude":"37.8667","longitude":"29.1163","depth":"0.0","md":"-.-","ml":"1.8","mw":"-.-","location":"CELTIKCI-(DENIZLI)"},{"date":"2020.09.14","time":"16:32:01","latitude":"39.0472","longitude":"27.8458","depth":"7.4","md":"-.-","ml":"1.7","mw":"-.-","location":"MUSALAR-AKHISAR (MANISA)"},{"date":"2020.09.14","time":"14:58:40","latitude":"37.0228","longitude":"28.5412","depth":"28.3","md":"-.-","ml":"0.9","mw":"-.-","location":"KARABOGURTLEN-ULA (MUGLA)"},{"date":"2020.09.14","time":"14:08:21","latitude":"37.0163","longitude":"28.8162","depth":"7.4","md":"-.-","ml":"2.0","mw":"-.-","location":"CAYHISAR-KOYCEGIZ (MUGLA)"},{"date":"2020.09.14","time":"13:49:40","latitude":"39.1612","longitude":"29.0845","depth":"8.0","md":"-.-","ml":"2.0","mw":"-.-","location":"SOGUT-SIMAV (KUTAHYA)"},{"date":"2020.09.14","time":"12:47:37","latitude":"37.8265","longitude":"29.6772","depth":"8.0","md":"-.-","ml":"1.3","mw":"-.-","location":"CARDAK (DENIZLI)"},{"date":"2020.09.14","time":"12:17:04","latitude":"38.1877","longitude":"38.0003","depth":"0.0","md":"-.-","ml":"1.6","mw":"-.-","location":"SUCATI-DOGANSEHIR (MALATYA)"},{"date":"2020.09.14","time":"12:15:49","latitude":"39.1112","longitude":"23.9245","depth":"9.1","md":"-.-","ml":"3.4","mw":"-.-","location":"YUNANISTAN"},{"date":"2020.09.14","time":"11:48:09","latitude":"37.5478","longitude":"29.1415","depth":"2.9","md":"-.-","ml":"1.6","mw":"-.-","location":"AYDOGDU-TAVAS (DENIZLI)"},{"date":"2020.09.14","time":"11:10:56","latitude":"39.9243","longitude":"28.9277","depth":"0.0","md":"-.-","ml":"1.3","mw":"-.-","location":"KUSUMLAR-ORHANELI (BURSA)"},{"date":"2020.09.14","time":"10:48:01","latitude":"40.2838","longitude":"27.4512","depth":"5.0","md":"-.-","ml":"1.7","mw":"-.-","location":"GUVEMALANI-BIGA (CANAKKALE)"},{"date":"2020.09.14","time":"08:50:42","latitude":"36.9810","longitude":"28.4982","depth":"13.6","md":"-.-","ml":"1.7","mw":"-.-","location":"CORUS-ULA (MUGLA)"},{"date":"2020.09.14","time":"08:29:31","latitude":"36.9878","longitude":"27.5012","depth":"22.6","md":"-.-","ml":"1.5","mw":"-.-","location":"GOKOVA KORFEZI (AKDENIZ)"},{"date":"2020.09.14","time":"08:20:37","latitude":"39.3835","longitude":"40.8150","depth":"18.8","md":"-.-","ml":"2.1","mw":"-.-","location":"SARIKUSAK-KARLIOVA (BINGOL)"},{"date":"2020.09.14","time":"07:54:45","latitude":"35.5523","longitude":"26.1658","depth":"8.8","md":"-.-","ml":"2.3","mw":"-.-","location":"GIRIT ADASI (AKDENIZ)"},{"date":"2020.09.14","time":"07:28:05","latitude":"34.2813","longitude":"25.1712","depth":"5.9","md":"-.-","ml":"3.0","mw":"-.-","location":"GIRIT ADASI ACIKLARI (AKDENIZ)"},{"date":"2020.09.14","time":"07:17:02","latitude":"38.5060","longitude":"43.9513","depth":"6.4","md":"-.-","ml":"2.6","mw":"-.-","location":"BAGRIACIK-OZALP (VAN)"},{"date":"2020.09.14","time":"07:01:13","latitude":"40.1012","longitude":"33.3920","depth":"28.0","md":"-.-","ml":"1.4","mw":"-.-","location":"KALECIK (ANKARA)"},{"date":"2020.09.14","time":"07:00:40","latitude":"35.3580","longitude":"29.9838","depth":"36.9","md":"-.-","ml":"2.2","mw":"-.-","location":"AKDENIZ"},{"date":"2020.09.14","time":"05:59:12","latitude":"38.7145","longitude":"38.2060","depth":"8.9","md":"-.-","ml":"1.7","mw":"-.-","location":"ASAR-ARGUVAN (MALATYA)"},{"date":"2020.09.14","time":"05:46:31","latitude":"39.4543","longitude":"33.0753","depth":"8.5","md":"-.-","ml":"1.4","mw":"-.-","location":"AFSAR-BALA (ANKARA)"},{"date":"2020.09.14","time":"05:32:00","latitude":"37.5495","longitude":"35.9795","depth":"19.7","md":"-.-","ml":"1.8","mw":"-.-","location":"KARAHAMZALI-KOZAN (ADANA)"},{"date":"2020.09.14","time":"04:54:30","latitude":"38.8827","longitude":"43.6080","depth":"28.2","md":"-.-","ml":"1.4","mw":"-.-","location":"SAGLAMTAS-(VAN)"},{"date":"2020.09.14","time":"04:52:56","latitude":"34.7752","longitude":"24.8673","depth":"7.5","md":"-.-","ml":"3.3","mw":"3.4","location":"GIRIT ADASI ACIKLARI (AKDENIZ)"},{"date":"2020.09.14","time":"04:46:08","latitude":"38.4447","longitude":"31.3098","depth":"19.1","md":"-.-","ml":"1.1","mw":"-.-","location":"DEGIRMENKOY-AKSEHIR (KONYA)"},{"date":"2020.09.14","time":"04:43:17","latitude":"40.9913","longitude":"36.0413","depth":"10.8","md":"-.-","ml":"1.8","mw":"-.-","location":"DOGANKAS-LADIK (SAMSUN)"},{"date":"2020.09.14","time":"04:24:03","latitude":"39.0673","longitude":"27.5548","depth":"1.8","md":"-.-","ml":"1.6","mw":"-.-","location":"EGNEZ-SOMA (MANISA)"},{"date":"2020.09.14","time":"03:53:02","latitude":"36.7607","longitude":"26.5760","depth":"5.0","md":"-.-","ml":"1.8","mw":"-.-","location":"AKDENIZ"},{"date":"2020.09.14","time":"03:31:08","latitude":"38.1495","longitude":"38.6768","depth":"5.0","md":"-.-","ml":"1.4","mw":"-.-","location":"BASMEZRA-PUTURGE (MALATYA)"},{"date":"2020.09.14","time":"03:06:47","latitude":"38.8718","longitude":"43.5892","depth":"5.0","md":"-.-","ml":"3.3","mw":"3.4","location":"SAGLAMTAS-(VAN)"},{"date":"2020.09.14","time":"02:06:04","latitude":"40.3932","longitude":"28.6870","depth":"6.6","md":"-.-","ml":"2.9","mw":"-.-","location":"YALICIFTLIK-MUDANYA (BURSA)"},{"date":"2020.09.13","time":"23:12:36","latitude":"36.7132","longitude":"41.2873","depth":"5.0","md":"-.-","ml":"3.0","mw":"-.-","location":"SURIYE"},{"date":"2020.09.13","time":"21:23:41","latitude":"39.0247","longitude":"23.9797","depth":"10.1","md":"-.-","ml":"3.0","mw":"-.-","location":"YUNANISTAN"},{"date":"2020.09.13","time":"19:24:58","latitude":"38.0295","longitude":"29.0043","depth":"5.0","md":"-.-","ml":"2.2","mw":"-.-","location":"MAHMUTLU-BULDAN (DENIZLI)"},{"date":"2020.09.13","time":"18:55:59","latitude":"40.6990","longitude":"27.4217","depth":"7.9","md":"-.-","ml":"1.7","mw":"-.-","location":"GUZELKOY ACIKLARI-TEKIRDAG (MARMARA DENIZI)"},{"date":"2020.09.13","time":"18:28:22","latitude":"35.9915","longitude":"31.1795","depth":"9.9","md":"-.-","ml":"2.1","mw":"-.-","location":"AKDENIZ"},{"date":"2020.09.13","time":"18:24:39","latitude":"38.7343","longitude":"27.5900","depth":"6.9","md":"-.-","ml":"1.4","mw":"-.-","location":"SARUHANLI (MANISA)"},{"date":"2020.09.13","time":"17:08:30","latitude":"36.9655","longitude":"27.7742","depth":"7.6","md":"-.-","ml":"1.9","mw":"-.-","location":"GOKOVA KORFEZI (AKDENIZ)"},{"date":"2020.09.13","time":"13:10:44","latitude":"38.2147","longitude":"38.5907","depth":"8.5","md":"-.-","ml":"1.7","mw":"-.-","location":"SOGUTLU-PUTURGE (MALATYA)"},{"date":"2020.09.13","time":"11:54:29","latitude":"37.1825","longitude":"27.8527","depth":"0.0","md":"-.-","ml":"1.4","mw":"-.-","location":"IKIZKOY-MILAS (MUGLA)"},{"date":"2020.09.13","time":"11:51:59","latitude":"37.1647","longitude":"27.8445","depth":"0.0","md":"-.-","ml":"1.5","mw":"-.-","location":"IKIZKOY-MILAS (MUGLA)"},{"date":"2020.09.13","time":"10:38:22","latitude":"38.4367","longitude":"39.1480","depth":"12.6","md":"-.-","ml":"1.7","mw":"-.-","location":"KAVAKKOY-SIVRICE (ELAZIG)"},{"date":"2020.09.13","time":"10:13:15","latitude":"35.5577","longitude":"27.3703","depth":"3.2","md":"-.-","ml":"2.1","mw":"-.-","location":"AKDENIZ"},{"date":"2020.09.13","time":"10:06:54","latitude":"38.3823","longitude":"39.1502","depth":"9.9","md":"-.-","ml":"1.5","mw":"-.-","location":"USLU-SIVRICE (ELAZIG)"},{"date":"2020.09.13","time":"08:41:00","latitude":"38.5617","longitude":"39.5073","depth":"17.0","md":"-.-","ml":"1.5","mw":"-.-","location":"KORUCU-(ELAZIG)"},{"date":"2020.09.13","time":"03:34:30","latitude":"36.9880","longitude":"29.6555","depth":"16.0","md":"-.-","ml":"1.6","mw":"-.-","location":"COBANISA-FETHIYE (MUGLA)"},{"date":"2020.09.13","time":"02:37:05","latitude":"37.8693","longitude":"30.5988","depth":"3.8","md":"-.-","ml":"2.1","mw":"-.-","location":"KULEONU-(ISPARTA)"},{"date":"2020.09.13","time":"00:06:11","latitude":"38.1525","longitude":"38.6462","depth":"5.0","md":"-.-","ml":"3.6","mw":"3.9","location":"BASMEZRA-PUTURGE (MALATYA)"},{"date":"2020.09.12","time":"23:21:57","latitude":"36.6977","longitude":"28.2790","depth":"61.9","md":"-.-","ml":"2.9","mw":"-.-","location":"OSMANIYE-MARMARIS (MUGLA)"},{"date":"2020.09.12","time":"16:29:40","latitude":"36.9460","longitude":"27.6078","depth":"17.6","md":"-.-","ml":"1.8","mw":"-.-","location":"GOKOVA KORFEZI (AKDENIZ)"},{"date":"2020.09.12","time":"16:27:01","latitude":"35.9527","longitude":"27.4927","depth":"9.9","md":"-.-","ml":"2.1","mw":"-.-","location":"AKDENIZ"},{"date":"2020.09.12","time":"10:41:26","latitude":"38.3248","longitude":"29.4832","depth":"14.1","md":"-.-","ml":"2.0","mw":"-.-","location":"KAYKILLI-KARAHALLI (USAK)"},{"date":"2020.09.12","time":"10:27:10","latitude":"38.1403","longitude":"38.8013","depth":"27.5","md":"-.-","ml":"1.0","mw":"-.-","location":"GOKCELI-PUTURGE (MALATYA)"},{"date":"2020.09.12","time":"10:20:23","latitude":"34.4320","longitude":"32.0610","depth":"6.1","md":"-.-","ml":"3.0","mw":"3.0","location":"AKDENIZ"},{"date":"2020.09.12","time":"10:05:28","latitude":"39.2115","longitude":"27.6362","depth":"0.0","md":"-.-","ml":"1.6","mw":"-.-","location":"BUYUKGUNEY-SOMA (MANISA)"},{"date":"2020.09.12","time":"09:38:19","latitude":"40.7030","longitude":"27.4118","depth":"10.6","md":"-.-","ml":"2.5","mw":"-.-","location":"GUZELKOY ACIKLARI-TEKIRDAG (MARMARA DENIZI)"},{"date":"2020.09.12","time":"08:19:51","latitude":"38.7055","longitude":"26.4752","depth":"3.6","md":"-.-","ml":"2.4","mw":"-.-","location":"BOZKOY-KARABURUN (IZMIR)"},{"date":"2020.09.12","time":"06:11:55","latitude":"37.9853","longitude":"38.2567","depth":"5.0","md":"-.-","ml":"2.0","mw":"-.-","location":"MESTAN-(ADIYAMAN)"},{"date":"2020.09.12","time":"05:50:42","latitude":"38.4472","longitude":"29.4185","depth":"19.4","md":"-.-","ml":"1.7","mw":"-.-","location":"SUKRANIYE-(USAK)"},{"date":"2020.09.12","time":"05:36:47","latitude":"39.1808","longitude":"27.6177","depth":"6.9","md":"-.-","ml":"1.8","mw":"-.-","location":"SOMA (MANISA)"},{"date":"2020.09.12","time":"05:30:08","latitude":"38.2585","longitude":"38.7567","depth":"5.3","md":"-.-","ml":"1.8","mw":"-.-","location":"BALPINARI-PUTURGE (MALATYA)"},{"date":"2020.09.12","time":"05:29:40","latitude":"38.2210","longitude":"38.7410","depth":"4.2","md":"-.-","ml":"1.9","mw":"-.-","location":"PAZARCIK-PUTURGE (MALATYA)"},{"date":"2020.09.12","time":"04:25:01","latitude":"37.9212","longitude":"27.0985","depth":"12.1","md":"-.-","ml":"1.8","mw":"-.-","location":"KUSADASI KORFEZI (EGE DENIZI)"},{"date":"2020.09.12","time":"04:11:54","latitude":"38.3670","longitude":"39.1775","depth":"9.7","md":"-.-","ml":"1.7","mw":"-.-","location":"DOGANSU-SIVRICE (ELAZIG)"},{"date":"2020.09.12","time":"01:06:05","latitude":"38.7565","longitude":"43.1977","depth":"5.0","md":"-.-","ml":"3.4","mw":"3.3","location":"OZYURT-(VAN)"},{"date":"2020.09.12","time":"00:35:02","latitude":"36.6542","longitude":"28.1285","depth":"9.3","md":"-.-","ml":"1.3","mw":"-.-","location":"SOGUTKOY-MARMARIS (MUGLA)"},{"date":"2020.09.11","time":"23:38:11","latitude":"39.1742","longitude":"28.8913","depth":"6.7","md":"-.-","ml":"1.8","mw":"-.-","location":"GOLKOY-SIMAV (KUTAHYA)"},{"date":"2020.09.11","time":"22:57:15","latitude":"40.4460","longitude":"27.4660","depth":"5.9","md":"-.-","ml":"1.9","mw":"-.-","location":"AVSA-MARMARA (BALIKESIR)"},{"date":"2020.09.11","time":"22:54:09","latitude":"40.4252","longitude":"27.4655","depth":"7.8","md":"-.-","ml":"2.3","mw":"-.-","location":"AVSA-MARMARA (BALIKESIR)"},{"date":"2020.09.11","time":"22:42:14","latitude":"40.6767","longitude":"27.4510","depth":"6.3","md":"-.-","ml":"1.9","mw":"-.-","location":"GUZELKOY ACIKLARI-TEKIRDAG (MARMARA DENIZI)"},{"date":"2020.09.11","time":"22:31:26","latitude":"38.7722","longitude":"27.7758","depth":"4.1","md":"-.-","ml":"2.0","mw":"-.-","location":"SAZOBA-AKHISAR (MANISA)"},{"date":"2020.09.11","time":"22:29:14","latitude":"40.4785","longitude":"27.4808","depth":"3.1","md":"-.-","ml":"2.1","mw":"-.-","location":"AVSA-MARMARA (BALIKESIR)"},{"date":"2020.09.11","time":"21:33:51","latitude":"39.4340","longitude":"37.9490","depth":"5.3","md":"-.-","ml":"2.1","mw":"-.-","location":"KEKLIKTEPE-DIVRIGI (SIVAS)"},{"date":"2020.09.11","time":"21:25:14","latitude":"39.4758","longitude":"38.0517","depth":"18.8","md":"-.-","ml":"2.0","mw":"-.-","location":"AKMESE-DIVRIGI (SIVAS)"},{"date":"2020.09.11","time":"21:08:51","latitude":"38.9218","longitude":"43.4707","depth":"5.4","md":"-.-","ml":"1.8","mw":"-.-","location":"VAN GOLU"},{"date":"2020.09.11","time":"20:55:25","latitude":"38.4017","longitude":"39.2247","depth":"5.1","md":"-.-","ml":"2.4","mw":"-.-","location":"DORTBOLUK-SIVRICE (ELAZIG)"},{"date":"2020.09.11","time":"20:43:48","latitude":"38.6015","longitude":"44.4370","depth":"5.0","md":"-.-","ml":"2.7","mw":"-.-","location":"KURUCAN-SARAY (VAN)"},{"date":"2020.09.11","time":"20:35:38","latitude":"38.8068","longitude":"26.9997","depth":"8.1","md":"-.-","ml":"2.4","mw":"-.-","location":"ALIAGA (IZMIR)"},{"date":"2020.09.11","time":"19:25:56","latitude":"38.7117","longitude":"26.5825","depth":"5.5","md":"-.-","ml":"3.2","mw":"3.3","location":"IZMIR KORFEZI (EGE DENIZI)"},{"date":"2020.09.11","time":"18:01:37","latitude":"36.4712","longitude":"28.7378","depth":"4.1","md":"-.-","ml":"2.0","mw":"-.-","location":"AKDENIZ"},{"date":"2020.09.11","time":"17:22:04","latitude":"39.2785","longitude":"27.6685","depth":"0.0","md":"-.-","ml":"1.5","mw":"-.-","location":"GOKTAS-SOMA (MANISA)"},{"date":"2020.09.11","time":"17:11:47","latitude":"36.9705","longitude":"28.5053","depth":"21.6","md":"-.-","ml":"0.8","mw":"-.-","location":"CORUS-ULA (MUGLA)"},{"date":"2020.09.11","time":"12:50:42","latitude":"37.2428","longitude":"28.1850","depth":"0.0","md":"-.-","ml":"1.5","mw":"-.-","location":"PASAPINARI-(MUGLA)"},{"date":"2020.09.11","time":"12:42:57","latitude":"37.0375","longitude":"28.4680","depth":"0.0","md":"-.-","ml":"1.1","mw":"-.-","location":"PORTAKALLIK-ULA (MUGLA)"},{"date":"2020.09.11","time":"11:53:13","latitude":"38.9608","longitude":"26.1752","depth":"12.8","md":"-.-","ml":"2.4","mw":"-.-","location":"MIDILLI ADASI (EGE DENIZI)"},{"date":"2020.09.11","time":"11:47:15","latitude":"39.6432","longitude":"29.4335","depth":"0.0","md":"-.-","ml":"1.7","mw":"-.-","location":"TUNCBILEK-TAVSANLI (KUTAHYA)"},{"date":"2020.09.11","time":"11:33:55","latitude":"36.2363","longitude":"33.6825","depth":"0.0","md":"-.-","ml":"0.8","mw":"-.-","location":"ISIKLI-SILIFKE (MERSIN)"},{"date":"2020.09.11","time":"10:44:12","latitude":"38.6438","longitude":"37.3867","depth":"3.4","md":"-.-","ml":"1.8","mw":"-.-","location":"TEPECIK-GURUN (SIVAS)"},{"date":"2020.09.11","time":"10:07:55","latitude":"37.8617","longitude":"29.5805","depth":"10.0","md":"-.-","ml":"1.4","mw":"-.-","location":"TUTLUCA-BOZKURT (DENIZLI)"},{"date":"2020.09.11","time":"09:44:12","latitude":"39.0472","longitude":"27.8105","depth":"3.2","md":"-.-","ml":"0.8","mw":"-.-","location":"TUTENLI-AKHISAR (MANISA)"},{"date":"2020.09.11","time":"09:26:18","latitude":"39.4453","longitude":"33.0840","depth":"6.7","md":"-.-","ml":"1.8","mw":"-.-","location":"AFSAR-BALA (ANKARA)"},{"date":"2020.09.11","time":"08:01:05","latitude":"34.2650","longitude":"25.6567","depth":"21.0","md":"-.-","ml":"2.8","mw":"-.-","location":"GIRIT ADASI ACIKLARI (AKDENIZ)"},{"date":"2020.09.11","time":"06:39:55","latitude":"39.1430","longitude":"28.1790","depth":"5.0","md":"-.-","ml":"2.2","mw":"-.-","location":"AKTAS-SINDIRGI (BALIKESIR)"},{"date":"2020.09.11","time":"06:00:54","latitude":"38.2228","longitude":"23.1065","depth":"2.1","md":"-.-","ml":"4.2","mw":"4.2","location":"YUNANISTAN"},{"date":"2020.09.11","time":"05:51:59","latitude":"38.0993","longitude":"38.5577","depth":"5.4","md":"-.-","ml":"1.8","mw":"-.-","location":"ARIKONAK-SINCIK (ADIYAMAN)"},{"date":"2020.09.11","time":"05:24:22","latitude":"37.1045","longitude":"28.5465","depth":"26.1","md":"-.-","ml":"1.2","mw":"-.-","location":"KIYRA-ULA (MUGLA)"},{"date":"2020.09.11","time":"04:52:23","latitude":"36.4533","longitude":"28.7198","depth":"15.5","md":"-.-","ml":"1.4","mw":"-.-","location":"AKDENIZ"},{"date":"2020.09.11","time":"04:36:29","latitude":"38.3792","longitude":"39.3960","depth":"6.0","md":"-.-","ml":"2.1","mw":"-.-","location":"YILDIZHAN-MADEN (ELAZIG)"},{"date":"2020.09.11","time":"03:35:28","latitude":"38.9665","longitude":"28.9532","depth":"5.4","md":"-.-","ml":"2.0","mw":"-.-","location":"KARAPINAR-SIMAV (KUTAHYA)"},{"date":"2020.09.11","time":"03:17:13","latitude":"38.2373","longitude":"38.7960","depth":"4.9","md":"-.-","ml":"1.2","mw":"-.-","location":"ORMANICI-PUTURGE (MALATYA)"},{"date":"2020.09.11","time":"02:50:41","latitude":"36.8857","longitude":"27.6095","depth":"6.7","md":"-.-","ml":"2.1","mw":"-.-","location":"GOKOVA KORFEZI (AKDENIZ)"},{"date":"2020.09.11","time":"01:49:19","latitude":"36.4877","longitude":"28.7673","depth":"5.1","md":"-.-","ml":"1.5","mw":"-.-","location":"AKDENIZ"},{"date":"2020.09.11","time":"01:42:16","latitude":"40.1543","longitude":"31.6425","depth":"9.4","md":"-.-","ml":"1.8","mw":"-.-","location":"ULUKOY-NALLIHAN (ANKARA)"}]
