[{"date":"2020.09.15","time":"18:50:25","latitude":"37.2622","longitude":"26.8045","depth":"9.4","md":"-.-","ml":"1.9","mw":"-.-","location":"ONIKI ADALAR (AKDENIZ)"},{"date":"2020.09.15","time":"18:26:30","latitude":"39.0118","longitude":"29.9058","depth":"8.1","md":"-.-","ml":"1.7","mw":"-.-","location":"OYSU-ALTINTAS (KUTAHYA)"},{"date":"2020.09.15","time":"18:22:22","latitude":"38.9887","longitude":"29.8888","depth":"5.2","md":"-.-","ml":"3.6","mw":"3.5","location":"OYSU-ALTINTAS (KUTAHYA)"},{"date":"2020.09.15","time":"15:25:15","latitude":"38.4195","longitude":"39.4137","depth":"18.1","md":"-.-","ml":"1.4","mw":"-.-","location":"AKBUGDAY-SIVRICE (ELAZIG)"},{"date":"2020.09.15","time":"14:26:22","latitude":"38.5650","longitude":"44.2310","depth":"5.0","md":"-.-","ml":"2.4","mw":"-.-","location":"KAZLIGOL-SARAY (VAN)"},{"date":"2020.09.15","time":"12:51:27","latitude":"40.3858","longitude":"28.0878","depth":"27.9","md":"-.-","ml":"1.6","mw":"-.-","location":"YENICE-BANDIRMA (BALIKESIR)"},{"date":"2020.09.15","time":"12:40:28","latitude":"39.8870","longitude":"28.8360","depth":"0.0","md":"-.-","ml":"1.4","mw":"-.-","location":"YENIDANISMENT-ORHANELI (BURSA)"},{"date":"2020.09.15","time":"12:35:57","latitude":"34.0967","longitude":"25.1437","depth":"11.9","md":"-.-","ml":"3.0","mw":"-.-","location":"GIRIT ADASI ACIKLARI (AKDENIZ)"},{"date":"2020.09.15","time":"12:13:14","latitude":"37.2337","longitude":"27.9312","depth":"0.0","md":"-.-","ml":"1.9","mw":"-.-","location":"CAMLIBELEN-MILAS (MUGLA)"},{"date":"2020.09.15","time":"12:11:37","latitude":"37.3003","longitude":"27.8590","depth":"24.1","md":"-.-","ml":"1.6","mw":"-.-","location":"TUZABAT-MILAS (MUGLA)"},{"date":"2020.09.15","time":"12:09:21","latitude":"37.1300","longitude":"27.7882","depth":"0.0","md":"-.-","ml":"1.4","mw":"-.-","location":"SOGUTCUK-MILAS (MUGLA)"},{"date":"2020.09.15","time":"12:00:52","latitude":"37.2862","longitude":"28.2795","depth":"5.1","md":"-.-","ml":"2.0","mw":"-.-","location":"SALIHPASALAR-(MUGLA)"},{"date":"2020.09.15","time":"11:53:38","latitude":"37.2140","longitude":"37.2407","depth":"0.0","md":"-.-","ml":"1.7","mw":"-.-","location":"YIGINLI-SEHITKAMIL (GAZIANTEP)"},{"date":"2020.09.15","time":"11:50:54","latitude":"37.2433","longitude":"28.1868","depth":"0.0","md":"-.-","ml":"2.0","mw":"-.-","location":"PASAPINARI-(MUGLA)"},{"date":"2020.09.15","time":"11:41:38","latitude":"36.2473","longitude":"33.6760","depth":"0.0","md":"-.-","ml":"1.3","mw":"-.-","location":"ISIKLI-SILIFKE (MERSIN)"},{"date":"2020.09.15","time":"11:21:27","latitude":"37.7630","longitude":"27.1030","depth":"7.0","md":"-.-","ml":"1.6","mw":"-.-","location":"KUSADASI KORFEZI (EGE DENIZI)"},{"date":"2020.09.15","time":"11:16:53","latitude":"37.7685","longitude":"27.2087","depth":"12.7","md":"-.-","ml":"1.8","mw":"-.-","location":"KUSADASI KORFEZI (EGE DENIZI)"},{"date":"2020.09.15","time":"10:38:32","latitude":"36.8023","longitude":"29.2357","depth":"0.0","md":"-.-","ml":"1.7","mw":"-.-","location":"SOGUTLU-FETHIYE (MUGLA)"},{"date":"2020.09.15","time":"09:27:22","latitude":"38.2605","longitude":"38.8222","depth":"15.5","md":"-.-","ml":"1.9","mw":"-.-","location":"AKTARLI-PUTURGE (MALATYA)"},{"date":"2020.09.15","time":"06:47:49","latitude":"36.9182","longitude":"27.4458","depth":"3.0","md":"-.-","ml":"1.7","mw":"-.-","location":"GOKOVA KORFEZI (AKDENIZ)"},{"date":"2020.09.15","time":"05:34:29","latitude":"40.1772","longitude":"25.1592","depth":"5.4","md":"-.-","ml":"2.1","mw":"-.-","location":"EGE DENIZI"},{"date":"2020.09.15","time":"04:43:48","latitude":"39.8537","longitude":"40.4468","depth":"5.0","md":"-.-","ml":"2.0","mw":"-.-","location":"DOLUCA-TERCAN (ERZINCAN)"},{"date":"2020.09.15","time":"03:51:17","latitude":"40.7030","longitude":"30.6020","depth":"6.0","md":"-.-","ml":"2.2","mw":"-.-","location":"AKYAZI (SAKARYA)"},{"date":"2020.09.15","time":"02:36:17","latitude":"34.1308","longitude":"25.7267","depth":"13.3","md":"-.-","ml":"3.1","mw":"-.-","location":"GIRIT ADASI ACIKLARI (AKDENIZ)"},{"date":"2020.09.14","time":"23:47:11","latitude":"37.7388","longitude":"32.5118","depth":"24.4","md":"-.-","ml":"1.2","mw":"-.-","location":"BAYAT-MERAM (KONYA)"},{"date":"2020.09.14","time":"22:37:03","latitude":"37.2500","longitude":"26.7853","depth":"5.0","md":"-.-","ml":"2.9","mw":"-.-","location":"ONIKI ADALAR (AKDENIZ)"},{"date":"2020.09.14","time":"21:14:48","latitude":"38.0588","longitude":"37.9542","depth":"9.6","md":"-.-","ml":"2.0","mw":"-.-","location":"GUROBASI-DOGANSEHIR (MALATYA)"},{"date":"2020.09.14","time":"19:32:31","latitude":"39.1015","longitude":"23.7595","depth":"11.4","md":"-.-","ml":"2.7","mw":"-.-","location":"YUNANISTAN"},{"date":"2020.09.14","time":"19:26:29","latitude":"39.0180","longitude":"24.0448","depth":"25.8","md":"-.-","ml":"2.9","mw":"-.-","location":"YUNANISTAN"},{"date":"2020.09.14","time":"18:00:54","latitude":"38.9363","longitude":"25.9623","depth":"7.9","md":"-.-","ml":"2.7","mw":"-.-","location":"EGE DENIZI"},{"date":"2020.09.14","time":"17:37:34","latitude":"38.7135","longitude":"31.6070","depth":"7.3","md":"-.-","ml":"2.3","mw":"-.-","location":"SIRAM-YUNAK (KONYA)"},{"date":"2020.09.14","time":"17:36:41","latitude":"37.8667","longitude":"29.1163","depth":"0.0","md":"-.-","ml":"1.8","mw":"-.-","location":"CELTIKCI-(DENIZLI)"},{"date":"2020.09.14","time":"16:32:01","latitude":"39.0472","longitude":"27.8458","depth":"7.4","md":"-.-","ml":"1.7","mw":"-.-","location":"MUSALAR-AKHISAR (MANISA)"},{"date":"2020.09.14","time":"14:58:40","latitude":"37.0228","longitude":"28.5412","depth":"28.3","md":"-.-","ml":"0.9","mw":"-.-","location":"KARABOGURTLEN-ULA (MUGLA)"},{"date":"2020.09.14","time":"14:08:21","latitude":"37.0163","longitude":"28.8162","depth":"7.4","md":"-.-","ml":"2.0","mw":"-.-","location":"CAYHISAR-KOYCEGIZ (MUGLA)"},{"date":"2020.09.14","time":"13:49:40","latitude":"39.1612","longitude":"29.0845","depth":"8.0","md":"-.-","ml":"2.0","mw":"-.-","location":"SOGUT-SIMAV (KUTAHYA)"},{"date":"2020.09.14","time":"12:47:37","latitude":"37.8265","longitude":"29.6772","depth":"8.0","md":"-.-","ml":"1.3","mw":"-.-","location":"CARDAK (DENIZLI)"},{"date":"2020.09.14","time":"12:17:04","latitude":"38.1877","longitude":"38.0003","depth":"0.0","md":"-.-","ml":"1.6","mw":"-.-","location":"SUCATI-DOGANSEHIR (MALATYA)"},{"date":"2020.09.14","time":"12:15:49","latitude":"39.1112","longitude":"23.9245","depth":"9.1","md":"-.-","ml":"3.4","mw":"-.-","location":"YUNANISTAN"},{"date":"2020.09.14","time":"11:48:09","latitude":"37.5478","longitude":"29.1415","depth":"2.9","md":"-.-","ml":"1.6","mw":"-.-","location":"AYDOGDU-TAVAS (DENIZLI)"},{"date":"2020.09.14","time":"11:10:56","latitude":"39.9243","longitude":"28.9277","depth":"0.0","md":"-.-","ml":"1.3","mw":"-.-","location":"KUSUMLAR-ORHANELI (BURSA)"},{"date":"2020.09.14","time":"10:48:01","latitude":"40.2838","longitude":"27.4512","depth":"5.0","md":"-.-","ml":"1.7","mw":"-.-","location":"GUVEMALANI-BIGA (CANAKKALE)"},{"date":"2020.09.14","time":"08:50:42","latitude":"36.9810","longitude":"28.4982","depth":"13.6","md":"-.-","ml":"1.7","mw":"-.-","location":"CORUS-ULA (MUGLA)"},{"date":"2020.09.14","time":"08:29:31","latitude":"36.9878","longitude":"27.5012","depth":"22.6","md":"-.-","ml":"1.5","mw":"-.-","location":"GOKOVA KORFEZI (AKDENIZ)"},{"date":"2020.09.14","time":"08:20:37","latitude":"39.3835","longitude":"40.8150","depth":"18.8","md":"-.-","ml":"2.1","mw":"-.-","location":"SARIKUSAK-KARLIOVA (BINGOL)"},{"date":"2020.09.14","time":"07:54:45","latitude":"35.5523","longitude":"26.1658","depth":"8.8","md":"-.-","ml":"2.3","mw":"-.-","location":"GIRIT ADASI (AKDENIZ)"},{"date":"2020.09.14","time":"07:28:05","latitude":"34.2813","longitude":"25.1712","depth":"5.9","md":"-.-","ml":"3.0","mw":"-.-","location":"GIRIT ADASI ACIKLARI (AKDENIZ)"},{"date":"2020.09.14","time":"07:17:02","latitude":"38.5060","longitude":"43.9513","depth":"6.4","md":"-.-","ml":"2.6","mw":"-.-","location":"BAGRIACIK-OZALP (VAN)"},{"date":"2020.09.14","time":"07:01:13","latitude":"40.1012","longitude":"33.3920","depth":"28.0","md":"-.-","ml":"1.4","mw":"-.-","location":"KALECIK (ANKARA)"},{"date":"2020.09.14","time":"07:00:40","latitude":"35.3580","longitude":"29.9838","depth":"36.9","md":"-.-","ml":"2.2","mw":"-.-","location":"AKDENIZ"},{"date":"2020.09.14","time":"05:59:12","latitude":"38.7145","longitude":"38.2060","depth":"8.9","md":"-.-","ml":"1.7","mw":"-.-","location":"ASAR-ARGUVAN (MALATYA)"},{"date":"2020.09.14","time":"05:46:31","latitude":"39.4543","longitude":"33.0753","depth":"8.5","md":"-.-","ml":"1.4","mw":"-.-","location":"AFSAR-BALA (ANKARA)"},{"date":"2020.09.14","time":"05:32:00","latitude":"37.5495","longitude":"35.9795","depth":"19.7","md":"-.-","ml":"1.8","mw":"-.-","location":"KARAHAMZALI-KOZAN (ADANA)"},{"date":"2020.09.14","time":"04:54:30","latitude":"38.8827","longitude":"43.6080","depth":"28.2","md":"-.-","ml":"1.4","mw":"-.-","location":"SAGLAMTAS-(VAN)"},{"date":"2020.09.14","time":"04:52:56","latitude":"34.7752","longitude":"24.8673","depth":"7.5","md":"-.-","ml":"3.3","mw":"3.4","location":"GIRIT ADASI ACIKLARI (AKDENIZ)"},{"date":"2020.09.14","time":"04:46:08","latitude":"38.4447","longitude":"31.3098","depth":"19.1","md":"-.-","ml":"1.1","mw":"-.-","location":"DEGIRMENKOY-AKSEHIR (KONYA)"},{"date":"2020.09.14","time":"04:43:17","latitude":"40.9913","longitude":"36.0413","depth":"10.8","md":"-.-","ml":"1.8","mw":"-.-","location":"DOGANKAS-LADIK (SAMSUN)"},{"date":"2020.09.14","time":"04:24:03","latitude":"39.0673","longitude":"27.5548","depth":"1.8","md":"-.-","ml":"1.6","mw":"-.-","location":"EGNEZ-SOMA (MANISA)"},{"date":"2020.09.14","time":"03:53:02","latitude":"36.7607","longitude":"26.5760","depth":"5.0","md":"-.-","ml":"1.8","mw":"-.-","location":"AKDENIZ"},{"date":"2020.09.14","time":"03:31:08","latitude":"38.1495","longitude":"38.6768","depth":"5.0","md":"-.-","ml":"1.4","mw":"-.-","location":"BASMEZRA-PUTURGE (MALATYA)"},{"date":"2020.09.14","time":"03:06:47","latitude":"38.8718","longitude":"43.5892","depth":"5.0","md":"-.-","ml":"3.3","mw":"3.4","location":"SAGLAMTAS-(VAN)"},{"date":"2020.09.14","time":"02:06:04","latitude":"40.3932","longitude":"28.6870","depth":"6.6","md":"-.-","ml":"2.9","mw":"-.-","location":"YALICIFTLIK-MUDANYA (BURSA)"},{"date":"2020.09.13","time":"23:12:36","latitude":"36.7132","longitude":"41.2873","depth":"5.0","md":"-.-","ml":"3.0","mw":"-.-","location":"SURIYE"},{"date":"2020.09.13","time":"21:23:41","latitude":"39.0247","longitude":"23.9797","depth":"10.1","md":"-.-","ml":"3.0","mw":"-.-","location":"YUNANISTAN"},{"date":"2020.09.13","time":"19:24:58","latitude":"38.0295","longitude":"29.0043","depth":"5.0","md":"-.-","ml":"2.2","mw":"-.-","location":"MAHMUTLU-BULDAN (DENIZLI)"},{"date":"2020.09.13","time":"18:55:59","latitude":"40.6990","longitude":"27.4217","depth":"7.9","md":"-.-","ml":"1.7","mw":"-.-","location":"GUZELKOY ACIKLARI-TEKIRDAG (MARMARA DENIZI)"},{"date":"2020.09.13","time":"18:28:22","latitude":"35.9915","longitude":"31.1795","depth":"9.9","md":"-.-","ml":"2.1","mw":"-.-","location":"AKDENIZ"},{"date":"2020.09.13","time":"18:24:39","latitude":"38.7343","longitude":"27.5900","depth":"6.9","md":"-.-","ml":"1.4","mw":"-.-","location":"SARUHANLI (MANISA)"},{"date":"2020.09.13","time":"17:08:30","latitude":"36.9655","longitude":"27.7742","depth":"7.6","md":"-.-","ml":"1.9","mw":"-.-","location":"GOKOVA KORFEZI (AKDENIZ)"},{"date":"2020.09.13","time":"13:10:44","latitude":"38.2147","longitude":"38.5907","depth":"8.5","md":"-.-","ml":"1.7","mw":"-.-","location":"SOGUTLU-PUTURGE (MALATYA)"},{"date":"2020.09.13","time":"11:54:29","latitude":"37.1825","longitude":"27.8527","depth":"0.0","md":"-.-","ml":"1.4","mw":"-.-","location":"IKIZKOY-MILAS (MUGLA)"},{"date":"2020.09.13","time":"11:51:59","latitude":"37.1647","longitude":"27.8445","depth":"0.0","md":"-.-","ml":"1.5","mw":"-.-","location":"IKIZKOY-MILAS (MUGLA)"},{"date":"2020.09.13","time":"10:38:22","latitude":"38.4367","longitude":"39.1480","depth":"12.6","md":"-.-","ml":"1.7","mw":"-.-","location":"KAVAKKOY-SIVRICE (ELAZIG)"},{"date":"2020.09.13","time":"10:13:15","latitude":"35.5577","longitude":"27.3703","depth":"3.2","md":"-.-","ml":"2.1","mw":"-.-","location":"AKDENIZ"},{"date":"2020.09.13","time":"10:06:54","latitude":"38.3823","longitude":"39.1502","depth":"9.9","md":"-.-","ml":"1.5","mw":"-.-","location":"USLU-SIVRICE (ELAZIG)"},{"date":"2020.09.13","time":"08:41:00","latitude":"38.5617","longitude":"39.5073","depth":"17.0","md":"-.-","ml":"1.5","mw":"-.-","location":"KORUCU-(ELAZIG)"},{"date":"2020.09.13","time":"03:34:30","latitude":"36.9880","longitude":"29.6555","depth":"16.0","md":"-.-","ml":"1.6","mw":"-.-","location":"COBANISA-FETHIYE (MUGLA)"},{"date":"2020.09.13","time":"02:37:05","latitude":"37.8693","longitude":"30.5988","depth":"3.8","md":"-.-","ml":"2.1","mw":"-.-","location":"KULEONU-(ISPARTA)"},{"date":"2020.09.13","time":"00:06:11","latitude":"38.1525","longitude":"38.6462","depth":"5.0","md":"-.-","ml":"3.6","mw":"3.9","location":"BASMEZRA-PUTURGE (MALATYA)"},{"date":"2020.09.12","time":"23:21:57","latitude":"36.6977","longitude":"28.2790","depth":"61.9","md":"-.-","ml":"2.9","mw":"-.-","location":"OSMANIYE-MARMARIS (MUGLA)"},{"date":"2020.09.12","time":"16:29:40","latitude":"36.9460","longitude":"27.6078","depth":"17.6","md":"-.-","ml":"1.8","mw":"-.-","location":"GOKOVA KORFEZI (AKDENIZ)"},{"date":"2020.09.12","time":"16:27:01","latitude":"35.9527","longitude":"27.4927","depth":"9.9","md":"-.-","ml":"2.1","mw":"-.-","location":"AKDENIZ"},{"date":"2020.09.12","time":"10:41:26","latitude":"38.3248","longitude":"29.4832","depth":"14.1","md":"-.-","ml":"2.0","mw":"-.-","location":"KAYKILLI-KARAHALLI (USAK)"},{"date":"2020.09.12","time":"10:27:10","latitude":"38.1403","longitude":"38.8013","depth":"27.5","md":"-.-","ml":"1.0","mw":"-.-","location":"GOKCELI-PUTURGE (MALATYA)"},{"date":"2020.09.12","time":"10:20:23","latitude":"34.4320","longitude":"32.0610","depth":"6.1","md":"-.-","ml":"3.0","mw":"3.0","location":"AKDENIZ"},{"date":"2020.09.12","time":"10:05:28","latitude":"39.2115","longitude":"27.6362","depth":"0.0","md":"-.-","ml":"1.6","mw":"-.-","location":"BUYUKGUNEY-SOMA (MANISA)"},{"date":"2020.09.12","time":"09:38:19","latitude":"40.7030","longitude":"27.4118","depth":"10.6","md":"-.-","ml":"2.5","mw":"-.-","location":"GUZELKOY ACIKLARI-TEKIRDAG (MARMARA DENIZI)"},{"date":"2020.09.12","time":"08:19:51","latitude":"38.7055","longitude":"26.4752","depth":"3.6","md":"-.-","ml":"2.4","mw":"-.-","location":"BOZKOY-KARABURUN (IZMIR)"},{"date":"2020.09.12","time":"06:11:55","latitude":"37.9853","longitude":"38.2567","depth":"5.0","md":"-.-","ml":"2.0","mw":"-.-","location":"MESTAN-(ADIYAMAN)"},{"date":"2020.09.12","time":"05:50:42","latitude":"38.4472","longitude":"29.4185","depth":"19.4","md":"-.-","ml":"1.7","mw":"-.-","location":"SUKRANIYE-(USAK)"},{"date":"2020.09.12","time":"05:36:47","latitude":"39.1808","longitude":"27.6177","depth":"6.9","md":"-.-","ml":"1.8","mw":"-.-","location":"SOMA (MANISA)"},{"date":"2020.09.12","time":"05:30:08","latitude":"38.2585","longitude":"38.7567","depth":"5.3","md":"-.-","ml":"1.8","mw":"-.-","location":"BALPINARI-PUTURGE (MALATYA)"},{"date":"2020.09.12","time":"05:29:40","latitude":"38.2210","longitude":"38.7410","depth":"4.2","md":"-.-","ml":"1.9","mw":"-.-","location":"PAZARCIK-PUTURGE (MALATYA)"},{"date":"2020.09.12","time":"04:25:01","latitude":"37.9212","longitude":"27.0985","depth":"12.1","md":"-.-","ml":"1.8","mw":"-.-","location":"KUSADASI KORFEZI (EGE DENIZI)"},{"date":"2020.09.12","time":"04:11:54","latitude":"38.3670","longitude":"39.1775","depth":"9.7","md":"-.-","ml":"1.7","mw":"-.-","location":"DOGANSU-SIVRICE (ELAZIG)"},{"date":"2020.09.12","time":"01:06:05","latitude":"38.7565","longitude":"43.1977","depth":"5.0","md":"-.-","ml":"3.4","mw":"3.3","location":"OZYURT-(VAN)"},{"date":"2020.09.12","time":"00:35:02","latitude":"36.6542","longitude":"28.1285","depth":"9.3","md":"-.-","ml":"1.3","mw":"-.-","location":"SOGUTKOY-MARMARIS (MUGLA)"},{"date":"2020.09.11","time":"23:38:11","latitude":"39.1742","longitude":"28.8913","depth":"6.7","md":"-.-","ml":"1.8","mw":"-.-","location":"GOLKOY-SIMAV (KUTAHYA)"},{"date":"2020.09.11","time":"22:57:15","latitude":"40.4460","longitude":"27.4660","depth":"5.9","md":"-.-","ml":"1.9","mw":"-.-","location":"AVSA-MARMARA (BALIKESIR)"},{"date":"2020.09.11","time":"22:54:09","latitude":"40.4252","longitude":"27.4655","depth":"7.8","md":"-.-","ml":"2.3","mw":"-.-","location":"AVSA-MARMARA (BALIKESIR)"},{"date":"2020.09.11","time":"22:42:14","latitude":"40.6767","longitude":"27.4510","depth":"6.3","md":"-.-","ml":"1.9","mw":"-.-","location":"GUZELKOY ACIKLARI-TEKIRDAG (MARMARA DENIZI)"},{"date":"2020.09.11","time":"22:31:26","latitude":"38.7722","longitude":"27.7758","depth":"4.1","md":"-.-","ml":"2.0","mw":"-.-","location":"SAZOBA-AKHISAR (MANISA)"},{"date":"2020.09.11","time":"22:29:14","latitude":"40.4785","longitude":"27.4808","depth":"3.1","md":"-.-","ml":"2.1","mw":"-.-","location":"AVSA-MARMARA (BALIKESIR)"},{"date":"2020.09.11","time":"21:33:51","latitude":"39.4340","longitude":"37.9490","depth":"5.3","md":"-.-","ml":"2.1","mw":"-.-","location":"KEKLIKTEPE-DIVRIGI (SIVAS)"},{"date":"2020.09.11","time":"21:25:14","latitude":"39.4758","longitude":"38.0517","depth":"18.8","md":"-.-","ml":"2.0","mw":"-.-","location":"AKMESE-DIVRIGI (SIVAS)"},{"date":"2020.09.11","time":"21:08:51","latitude":"38.9218","longitude":"43.4707","depth":"5.4","md":"-.-","ml":"1.8","mw":"-.-","location":"VAN GOLU"},{"date":"2020.09.11","time":"20:55:25","latitude":"38.4017","longitude":"39.2247","depth":"5.1","md":"-.-","ml":"2.4","mw":"-.-","location":"DORTBOLUK-SIVRICE (ELAZIG)"},{"date":"2020.09.11","time":"20:43:48","latitude":"38.6015","longitude":"44.4370","depth":"5.0","md":"-.-","ml":"2.7","mw":"-.-","location":"KURUCAN-SARAY (VAN)"},{"date":"2020.09.11","time":"20:35:38","latitude":"38.8068","longitude":"26.9997","depth":"8.1","md":"-.-","ml":"2.4","mw":"-.-","location":"ALIAGA (IZMIR)"},{"date":"2020.09.11","time":"19:25:56","latitude":"38.7117","longitude":"26.5825","depth":"5.5","md":"-.-","ml":"3.2","mw":"3.3","location":"IZMIR KORFEZI (EGE DENIZI)"},{"date":"2020.09.11","time":"18:01:37","latitude":"36.4712","longitude":"28.7378","depth":"4.1","md":"-.-","ml":"2.0","mw":"-.-","location":"AKDENIZ"},{"date":"2020.09.11","time":"17:22:04","latitude":"39.2785","longitude":"27.6685","depth":"0.0","md":"-.-","ml":"1.5","mw":"-.-","location":"GOKTAS-SOMA (MANISA)"},{"date":"2020.09.11","time":"17:11:47","latitude":"36.9705","longitude":"28.5053","depth":"21.6","md":"-.-","ml":"0.8","mw":"-.-","location":"CORUS-ULA (MUGLA)"},{"date":"2020.09.11","time":"12:50:42","latitude":"37.2428","longitude":"28.1850","depth":"0.0","md":"-.-","ml":"1.5","mw":"-.-","location":"PASAPINARI-(MUGLA)"},{"date":"2020.09.11","time":"12:42:57","latitude":"37.0375","longitude":"28.4680","depth":"0.0","md":"-.-","ml":"1.1","mw":"-.-","location":"PORTAKALLIK-ULA (MUGLA)"},{"date":"2020.09.11","time":"11:53:13","latitude":"38.9608","longitude":"26.1752","depth":"12.8","md":"-.-","ml":"2.4","mw":"-.-","location":"MIDILLI ADASI (EGE DENIZI)"},{"date":"2020.09.11","time":"11:47:15","latitude":"39.6432","longitude":"29.4335","depth":"0.0","md":"-.-","ml":"1.7","mw":"-.-","location":"TUNCBILEK-TAVSANLI (KUTAHYA)"},{"date":"2020.09.11","time":"11:33:55","latitude":"36.2363","longitude":"33.6825","depth":"0.0","md":"-.-","ml":"0.8","mw":"-.-","location":"ISIKLI-SILIFKE (MERSIN)"},{"date":"2020.09.11","time":"10:44:12","latitude":"38.6438","longitude":"37.3867","depth":"3.4","md":"-.-","ml":"1.8","mw":"-.-","location":"TEPECIK-GURUN (SIVAS)"},{"date":"2020.09.11","time":"10:07:55","latitude":"37.8617","longitude":"29.5805","depth":"10.0","md":"-.-","ml":"1.4","mw":"-.-","location":"TUTLUCA-BOZKURT (DENIZLI)"},{"date":"2020.09.11","time":"09:44:12","latitude":"39.0472","longitude":"27.8105","depth":"3.2","md":"-.-","ml":"0.8","mw":"-.-","location":"TUTENLI-AKHISAR (MANISA)"},{"date":"2020.09.11","time":"09:26:18","latitude":"39.4453","longitude":"33.0840","depth":"6.7","md":"-.-","ml":"1.8","mw":"-.-","location":"AFSAR-BALA (ANKARA)"},{"date":"2020.09.11","time":"08:01:05","latitude":"34.2650","longitude":"25.6567","depth":"21.0","md":"-.-","ml":"2.8","mw":"-.-","location":"GIRIT ADASI ACIKLARI (AKDENIZ)"},{"date":"2020.09.11","time":"06:39:55","latitude":"39.1430","longitude":"28.1790","depth":"5.0","md":"-.-","ml":"2.2","mw":"-.-","location":"AKTAS-SINDIRGI (BALIKESIR)"},{"date":"2020.09.11","time":"06:00:54","latitude":"38.2228","longitude":"23.1065","depth":"2.1","md":"-.-","ml":"4.2","mw":"4.2","location":"YUNANISTAN"},{"date":"2020.09.11","time":"05:51:59","latitude":"38.0993","longitude":"38.5577","depth":"5.4","md":"-.-","ml":"1.8","mw":"-.-","location":"ARIKONAK-SINCIK (ADIYAMAN)"},{"date":"2020.09.11","time":"05:24:22","latitude":"37.1045","longitude":"28.5465","depth":"26.1","md":"-.-","ml":"1.2","mw":"-.-","location":"KIYRA-ULA (MUGLA)"},{"date":"2020.09.11","time":"04:52:23","latitude":"36.4533","longitude":"28.7198","depth":"15.5","md":"-.-","ml":"1.4","mw":"-.-","location":"AKDENIZ"},{"date":"2020.09.11","time":"04:36:29","latitude":"38.3792","longitude":"39.3960","depth":"6.0","md":"-.-","ml":"2.1","mw":"-.-","location":"YILDIZHAN-MADEN (ELAZIG)"},{"date":"2020.09.11","time":"03:35:28","latitude":"38.9665","longitude":"28.9532","depth":"5.4","md":"-.-","ml":"2.0","mw":"-.-","location":"KARAPINAR-SIMAV (KUTAHYA)"},{"date":"2020.09.11","time":"03:17:13","latitude":"38.2373","longitude":"38.7960","depth":"4.9","md":"-.-","ml":"1.2","mw":"-.-","location":"ORMANICI-PUTURGE (MALATYA)"},{"date":"2020.09.11","time":"02:50:41","latitude":"36.8857","longitude":"27.6095","depth":"6.7","md":"-.-","ml":"2.1","mw":"-.-","location":"GOKOVA KORFEZI (AKDENIZ)"},{"date":"2020.09.11","time":"01:49:19","latitude":"36.4877","longitude":"28.7673","depth":"5.1","md":"-.-","ml":"1.5","mw":"-.-","location":"AKDENIZ"},{"date":"2020.09.11","time":"01:42:16","latitude":"40.1543","longitude":"31.6425","depth":"9.4","md":"-.-","ml":"1.8","mw":"-.-","location":"ULUKOY-NALLIHAN (ANKARA)"},{"date":"2020.09.11","time":"01:25:39","latitude":"36.5415","longitude":"26.7183","depth":"9.6","md":"-.-","ml":"2.0","mw":"-.-","location":"AKDENIZ"},{"date":"2020.09.11","time":"00:39:55","latitude":"38.6785","longitude":"43.5323","depth":"17.7","md":"-.-","ml":"2.0","mw":"-.-","location":"KOZLUCA-(VAN)"},{"date":"2020.09.11","time":"00:12:50","latitude":"37.6917","longitude":"26.6930","depth":"7.5","md":"-.-","ml":"2.1","mw":"-.-","location":"SISAM ADASI (EGE DENIZI)"},{"date":"2020.09.11","time":"00:12:00","latitude":"40.7458","longitude":"31.6815","depth":"5.3","md":"-.-","ml":"1.9","mw":"-.-","location":"YENIAKCAKAVAK-(BOLU)"},{"date":"2020.09.10","time":"23:51:15","latitude":"38.8743","longitude":"43.5983","depth":"17.1","md":"-.-","ml":"1.4","mw":"-.-","location":"SAGLAMTAS-(VAN)"},{"date":"2020.09.10","time":"23:46:05","latitude":"38.8300","longitude":"43.5727","depth":"25.5","md":"-.-","ml":"1.4","mw":"-.-","location":"AKCIFT-(VAN)"},{"date":"2020.09.10","time":"23:29:31","latitude":"39.3580","longitude":"40.6545","depth":"8.3","md":"-.-","ml":"1.6","mw":"-.-","location":"DINARBEY-YEDISU (BINGOL)"},{"date":"2020.09.10","time":"23:27:22","latitude":"38.4487","longitude":"39.5035","depth":"16.5","md":"-.-","ml":"1.2","mw":"-.-","location":"BAHCEDERE-MADEN (ELAZIG)"},{"date":"2020.09.10","time":"23:25:11","latitude":"38.0725","longitude":"38.7080","depth":"4.4","md":"-.-","ml":"1.6","mw":"-.-","location":"KORUCAK-PUTURGE (MALATYA)"},{"date":"2020.09.10","time":"23:19:17","latitude":"38.1168","longitude":"38.6452","depth":"5.0","md":"-.-","ml":"3.4","mw":"3.4","location":"CAMLIDERE-PUTURGE (MALATYA)"},{"date":"2020.09.10","time":"23:17:04","latitude":"39.1852","longitude":"28.8773","depth":"3.8","md":"-.-","ml":"2.4","mw":"-.-","location":"AKDAG-SIMAV (KUTAHYA)"},{"date":"2020.09.10","time":"23:15:10","latitude":"38.4310","longitude":"39.4132","depth":"25.9","md":"-.-","ml":"1.4","mw":"-.-","location":"AKBUGDAY-SIVRICE (ELAZIG)"},{"date":"2020.09.10","time":"21:52:25","latitude":"38.9038","longitude":"43.4955","depth":"7.3","md":"-.-","ml":"2.2","mw":"-.-","location":"VAN GOLU"},{"date":"2020.09.10","time":"21:49:14","latitude":"38.4263","longitude":"39.2757","depth":"2.9","md":"-.-","ml":"1.9","mw":"-.-","location":"YEDIKARDES-SIVRICE (ELAZIG)"},{"date":"2020.09.10","time":"20:51:14","latitude":"38.6087","longitude":"28.0477","depth":"6.0","md":"-.-","ml":"1.8","mw":"-.-","location":"PAZARKOY-SALIHLI (MANISA)"},{"date":"2020.09.10","time":"20:39:06","latitude":"37.4398","longitude":"35.7987","depth":"22.0","md":"-.-","ml":"1.1","mw":"-.-","location":"KOZAN (ADANA)"},{"date":"2020.09.10","time":"19:45:33","latitude":"35.9747","longitude":"27.2945","depth":"5.0","md":"-.-","ml":"2.0","mw":"-.-","location":"AKDENIZ"},{"date":"2020.09.10","time":"15:27:25","latitude":"39.4595","longitude":"28.2328","depth":"5.0","md":"-.-","ml":"2.1","mw":"-.-","location":"EMIRLER-BIGADIC (BALIKESIR)"},{"date":"2020.09.10","time":"15:24:05","latitude":"37.4575","longitude":"38.8033","depth":"5.0","md":"-.-","ml":"2.1","mw":"-.-","location":"APAYDIN-(SANLIURFA)"},{"date":"2020.09.10","time":"15:02:02","latitude":"39.6757","longitude":"24.7668","depth":"1.2","md":"-.-","ml":"2.9","mw":"-.-","location":"EGE DENIZI"},{"date":"2020.09.10","time":"14:56:38","latitude":"37.1242","longitude":"30.5287","depth":"19.4","md":"-.-","ml":"1.6","mw":"-.-","location":"KOVANLIK-DOSEMEALTI (ANTALYA)"},{"date":"2020.09.10","time":"14:05:13","latitude":"39.3177","longitude":"40.6130","depth":"5.6","md":"-.-","ml":"1.7","mw":"-.-","location":"AKTAS-ADAKLI (BINGOL)"},{"date":"2020.09.10","time":"13:38:11","latitude":"35.7545","longitude":"26.2617","depth":"20.3","md":"-.-","ml":"2.6","mw":"-.-","location":"AKDENIZ"},{"date":"2020.09.10","time":"13:30:26","latitude":"34.1778","longitude":"25.1843","depth":"5.7","md":"-.-","ml":"4.0","mw":"4.2","location":"GIRIT ADASI ACIKLARI (AKDENIZ)"},{"date":"2020.09.10","time":"13:13:26","latitude":"39.2770","longitude":"29.2132","depth":"0.0","md":"-.-","ml":"1.3","mw":"-.-","location":"HASANLAR-HISARCIK (KUTAHYA)"},{"date":"2020.09.10","time":"13:12:58","latitude":"40.7022","longitude":"27.4593","depth":"13.9","md":"-.-","ml":"2.5","mw":"-.-","location":"GUZELKOY ACIKLARI-TEKIRDAG (MARMARA DENIZI)"},{"date":"2020.09.10","time":"12:52:52","latitude":"40.2327","longitude":"30.7792","depth":"10.3","md":"-.-","ml":"1.7","mw":"-.-","location":"HIMMETOGLU-GOYNUK (BOLU)"},{"date":"2020.09.10","time":"12:48:48","latitude":"40.2648","longitude":"30.7455","depth":"13.7","md":"-.-","ml":"1.9","mw":"-.-","location":"CAYKOY-GOYNUK (BOLU)"},{"date":"2020.09.10","time":"12:46:07","latitude":"39.4498","longitude":"40.2467","depth":"5.0","md":"-.-","ml":"2.4","mw":"-.-","location":"SAMPASAKARADERBENDI-PULUMUR (TUNCELI)"},{"date":"2020.09.10","time":"12:14:02","latitude":"35.2885","longitude":"33.4555","depth":"0.0","md":"-.-","ml":"1.7","mw":"-.-","location":"KIBRIS-BESPARMAK"},{"date":"2020.09.10","time":"12:13:09","latitude":"39.8675","longitude":"28.8455","depth":"0.0","md":"-.-","ml":"2.0","mw":"-.-","location":"ALTINTAS-ORHANELI (BURSA)"},{"date":"2020.09.10","time":"12:12:35","latitude":"37.3745","longitude":"36.8632","depth":"5.0","md":"-.-","ml":"1.3","mw":"-.-","location":"TURKOGLU (KAHRAMANMARAS)"},{"date":"2020.09.10","time":"12:11:17","latitude":"38.4968","longitude":"39.7857","depth":"15.5","md":"-.-","ml":"1.9","mw":"-.-","location":"INCEBAYIR-ALACAKAYA (ELAZIG)"},{"date":"2020.09.10","time":"11:56:04","latitude":"37.2393","longitude":"28.1655","depth":"0.0","md":"-.-","ml":"1.8","mw":"-.-","location":"CAYBUKU-(MUGLA)"},{"date":"2020.09.10","time":"11:50:09","latitude":"36.9882","longitude":"37.1705","depth":"0.0","md":"-.-","ml":"1.9","mw":"-.-","location":"UFACIK-SAHINBEY (GAZIANTEP)"},{"date":"2020.09.10","time":"11:16:47","latitude":"40.7172","longitude":"27.4560","depth":"7.6","md":"-.-","ml":"2.4","mw":"-.-","location":"GUZELKOY ACIKLARI-TEKIRDAG (MARMARA DENIZI)"},{"date":"2020.09.10","time":"11:09:56","latitude":"38.5487","longitude":"27.6632","depth":"9.6","md":"-.-","ml":"1.6","mw":"-.-","location":"IZZETTIN-TURGUTLU (MANISA)"},{"date":"2020.09.10","time":"10:13:08","latitude":"37.2162","longitude":"30.4335","depth":"5.0","md":"-.-","ml":"2.4","mw":"-.-","location":"KARAKUYU-KORKUTELI (ANTALYA)"},{"date":"2020.09.10","time":"09:30:07","latitude":"38.2647","longitude":"26.5630","depth":"4.6","md":"-.-","ml":"1.7","mw":"-.-","location":"ZEYTINLER-URLA (IZMIR)"},{"date":"2020.09.10","time":"09:09:40","latitude":"40.0757","longitude":"41.7812","depth":"26.3","md":"-.-","ml":"1.5","mw":"-.-","location":"YENIKOY-PASINLER (ERZURUM)"},{"date":"2020.09.10","time":"07:04:42","latitude":"36.4512","longitude":"28.7112","depth":"5.0","md":"-.-","ml":"2.7","mw":"-.-","location":"AKDENIZ"},{"date":"2020.09.10","time":"06:28:12","latitude":"38.4935","longitude":"39.1500","depth":"13.8","md":"-.-","ml":"1.3","mw":"-.-","location":"DEDEPINARI-(ELAZIG)"},{"date":"2020.09.10","time":"06:17:17","latitude":"40.6638","longitude":"27.4203","depth":"6.6","md":"-.-","ml":"1.5","mw":"-.-","location":"GUZELKOY ACIKLARI-TEKIRDAG (MARMARA DENIZI)"},{"date":"2020.09.10","time":"05:31:06","latitude":"36.8965","longitude":"27.5825","depth":"7.2","md":"-.-","ml":"2.0","mw":"-.-","location":"GOKOVA KORFEZI (AKDENIZ)"},{"date":"2020.09.10","time":"05:26:15","latitude":"40.6772","longitude":"31.6562","depth":"11.6","md":"-.-","ml":"1.6","mw":"-.-","location":"CAMYAYLA-(BOLU)"},{"date":"2020.09.10","time":"04:55:04","latitude":"37.9338","longitude":"27.0820","depth":"8.1","md":"-.-","ml":"1.9","mw":"-.-","location":"KUSADASI KORFEZI (EGE DENIZI)"},{"date":"2020.09.10","time":"03:33:03","latitude":"40.6802","longitude":"27.4215","depth":"12.3","md":"-.-","ml":"1.3","mw":"-.-","location":"GUZELKOY ACIKLARI-TEKIRDAG (MARMARA DENIZI)"},{"date":"2020.09.10","time":"03:31:20","latitude":"40.7137","longitude":"27.4263","depth":"15.0","md":"-.-","ml":"2.2","mw":"-.-","location":"GUZELKOY ACIKLARI-TEKIRDAG (MARMARA DENIZI)"},{"date":"2020.09.10","time":"03:23:43","latitude":"40.7408","longitude":"27.4427","depth":"16.2","md":"-.-","ml":"1.9","mw":"-.-","location":"GUZELKOY ACIKLARI-TEKIRDAG (MARMARA DENIZI)"},{"date":"2020.09.10","time":"03:19:35","latitude":"40.6792","longitude":"27.4012","depth":"11.6","md":"-.-","ml":"1.3","mw":"-.-","location":"GUZELKOY ACIKLARI-TEKIRDAG (MARMARA DENIZI)"},{"date":"2020.09.10","time":"03:13:06","latitude":"38.2908","longitude":"39.0240","depth":"11.1","md":"-.-","ml":"1.2","mw":"-.-","location":"GOKCE-DOGANYOL (MALATYA)"},{"date":"2020.09.10","time":"03:03:31","latitude":"40.6545","longitude":"27.4182","depth":"3.2","md":"-.-","ml":"1.7","mw":"-.-","location":"GUZELKOY ACIKLARI-TEKIRDAG (MARMARA DENIZI)"},{"date":"2020.09.10","time":"02:35:32","latitude":"39.0467","longitude":"40.7405","depth":"6.8","md":"-.-","ml":"1.7","mw":"-.-","location":"ALATEPE-(BINGOL)"},{"date":"2020.09.10","time":"02:26:15","latitude":"39.1242","longitude":"27.8085","depth":"8.9","md":"-.-","ml":"1.8","mw":"-.-","location":"KARAKURT-KIRKAGAC (MANISA)"},{"date":"2020.09.10","time":"02:12:45","latitude":"38.4825","longitude":"26.2867","depth":"4.6","md":"-.-","ml":"2.1","mw":"-.-","location":"KUCUKBAHCE ACIKLARI-IZMIR (EGE DENIZI)"},{"date":"2020.09.10","time":"01:56:39","latitude":"38.8825","longitude":"43.5000","depth":"2.1","md":"-.-","ml":"1.5","mw":"-.-","location":"ERMISLER-(VAN)"},{"date":"2020.09.10","time":"01:42:26","latitude":"40.7110","longitude":"27.4017","depth":"15.2","md":"-.-","ml":"1.8","mw":"-.-","location":"GUZELKOY ACIKLARI-TEKIRDAG (MARMARA DENIZI)"},{"date":"2020.09.10","time":"01:38:16","latitude":"40.6700","longitude":"27.4493","depth":"10.9","md":"-.-","ml":"1.5","mw":"-.-","location":"GUZELKOY ACIKLARI-TEKIRDAG (MARMARA DENIZI)"},{"date":"2020.09.10","time":"01:35:03","latitude":"40.7495","longitude":"27.4870","depth":"2.4","md":"-.-","ml":"1.8","mw":"-.-","location":"GUZELKOY ACIKLARI-TEKIRDAG (MARMARA DENIZI)"},{"date":"2020.09.10","time":"01:31:38","latitude":"40.7023","longitude":"27.4030","depth":"14.8","md":"-.-","ml":"1.9","mw":"-.-","location":"GUZELKOY ACIKLARI-TEKIRDAG (MARMARA DENIZI)"},{"date":"2020.09.10","time":"01:31:18","latitude":"38.7143","longitude":"43.3623","depth":"16.3","md":"-.-","ml":"1.9","mw":"-.-","location":"OTLUCA-(VAN)"},{"date":"2020.09.10","time":"01:24:46","latitude":"40.7053","longitude":"27.4375","depth":"6.9","md":"-.-","ml":"1.5","mw":"-.-","location":"GUZELKOY ACIKLARI-TEKIRDAG (MARMARA DENIZI)"},{"date":"2020.09.10","time":"01:10:40","latitude":"39.3137","longitude":"41.0447","depth":"4.9","md":"-.-","ml":"3.0","mw":"2.7","location":"KARLIOVA (BINGOL)"},{"date":"2020.09.10","time":"00:29:18","latitude":"40.6908","longitude":"27.4240","depth":"8.3","md":"-.-","ml":"2.0","mw":"-.-","location":"GUZELKOY ACIKLARI-TEKIRDAG (MARMARA DENIZI)"},{"date":"2020.09.10","time":"00:06:50","latitude":"40.6998","longitude":"27.4092","depth":"11.9","md":"-.-","ml":"1.8","mw":"-.-","location":"GUZELKOY ACIKLARI-TEKIRDAG (MARMARA DENIZI)"},{"date":"2020.09.09","time":"23:41:11","latitude":"40.7000","longitude":"27.4338","depth":"10.3","md":"-.-","ml":"1.8","mw":"-.-","location":"GUZELKOY ACIKLARI-TEKIRDAG (MARMARA DENIZI)"},{"date":"2020.09.09","time":"23:36:18","latitude":"39.3168","longitude":"41.0158","depth":"4.9","md":"-.-","ml":"2.0","mw":"-.-","location":"KARLIOVA (BINGOL)"},{"date":"2020.09.09","time":"23:24:42","latitude":"40.7273","longitude":"27.4213","depth":"5.4","md":"-.-","ml":"2.0","mw":"-.-","location":"GUZELKOY ACIKLARI-TEKIRDAG (MARMARA DENIZI)"},{"date":"2020.09.09","time":"23:20:31","latitude":"40.7030","longitude":"27.4177","depth":"12.8","md":"-.-","ml":"1.8","mw":"-.-","location":"GUZELKOY ACIKLARI-TEKIRDAG (MARMARA DENIZI)"},{"date":"2020.09.09","time":"22:54:22","latitude":"39.3730","longitude":"41.0078","depth":"5.4","md":"-.-","ml":"1.9","mw":"-.-","location":"DORTYOL-KARLIOVA (BINGOL)"},{"date":"2020.09.09","time":"22:54:12","latitude":"40.6972","longitude":"27.4300","depth":"9.0","md":"-.-","ml":"1.7","mw":"-.-","location":"GUZELKOY ACIKLARI-TEKIRDAG (MARMARA DENIZI)"},{"date":"2020.09.09","time":"22:53:11","latitude":"38.8765","longitude":"43.5622","depth":"8.7","md":"-.-","ml":"2.4","mw":"-.-","location":"CAKIRBEY-(VAN)"},{"date":"2020.09.09","time":"22:46:56","latitude":"40.7023","longitude":"27.4213","depth":"12.5","md":"-.-","ml":"3.0","mw":"-.-","location":"GUZELKOY ACIKLARI-TEKIRDAG (MARMARA DENIZI)"},{"date":"2020.09.09","time":"22:39:11","latitude":"40.6940","longitude":"27.4257","depth":"10.3","md":"-.-","ml":"1.5","mw":"-.-","location":"GUZELKOY ACIKLARI-TEKIRDAG (MARMARA DENIZI)"},{"date":"2020.09.09","time":"22:32:32","latitude":"39.3302","longitude":"41.0182","depth":"4.8","md":"-.-","ml":"4.1","mw":"4.2","location":"KANTARKAYA-KARLIOVA (BINGOL)"},{"date":"2020.09.09","time":"22:23:07","latitude":"39.3353","longitude":"41.0130","depth":"4.9","md":"-.-","ml":"3.3","mw":"3.3","location":"KANTARKAYA-KARLIOVA (BINGOL)"},{"date":"2020.09.09","time":"22:11:58","latitude":"38.7000","longitude":"42.0098","depth":"6.4","md":"-.-","ml":"2.1","mw":"-.-","location":"YUNOREN-KORKUT (MUS)"},{"date":"2020.09.09","time":"20:51:39","latitude":"40.6598","longitude":"27.3945","depth":"9.8","md":"-.-","ml":"1.4","mw":"-.-","location":"GUZELKOY ACIKLARI-TEKIRDAG (MARMARA DENIZI)"},{"date":"2020.09.09","time":"20:45:53","latitude":"40.7052","longitude":"27.4202","depth":"12.3","md":"-.-","ml":"1.6","mw":"-.-","location":"GUZELKOY ACIKLARI-TEKIRDAG (MARMARA DENIZI)"},{"date":"2020.09.09","time":"20:28:47","latitude":"38.9248","longitude":"27.9228","depth":"0.0","md":"-.-","ml":"1.8","mw":"-.-","location":"HASKOY-AKHISAR (MANISA)"},{"date":"2020.09.09","time":"19:31:35","latitude":"40.6865","longitude":"27.3937","depth":"10.9","md":"-.-","ml":"2.2","mw":"-.-","location":"GUZELKOY ACIKLARI-TEKIRDAG (MARMARA DENIZI)"},{"date":"2020.09.09","time":"19:25:05","latitude":"40.7012","longitude":"27.4245","depth":"14.6","md":"-.-","ml":"1.5","mw":"-.-","location":"GUZELKOY ACIKLARI-TEKIRDAG (MARMARA DENIZI)"},{"date":"2020.09.09","time":"19:23:16","latitude":"40.5360","longitude":"34.9478","depth":"3.6","md":"-.-","ml":"2.8","mw":"-.-","location":"CORUM (CORUM)"},{"date":"2020.09.09","time":"18:06:17","latitude":"40.6988","longitude":"27.4275","depth":"11.2","md":"-.-","ml":"1.4","mw":"-.-","location":"GUZELKOY ACIKLARI-TEKIRDAG (MARMARA DENIZI)"},{"date":"2020.09.09","time":"17:35:22","latitude":"37.0832","longitude":"28.4850","depth":"0.0","md":"-.-","ml":"1.6","mw":"-.-","location":"CICEKLI-ULA (MUGLA)"},{"date":"2020.09.09","time":"16:57:20","latitude":"39.4597","longitude":"39.1415","depth":"5.0","md":"-.-","ml":"2.1","mw":"-.-","location":"KOSELER-OVACIK (TUNCELI)"},{"date":"2020.09.09","time":"16:14:04","latitude":"40.7052","longitude":"27.3878","depth":"4.9","md":"-.-","ml":"2.1","mw":"-.-","location":"GUZELKOY ACIKLARI-TEKIRDAG (MARMARA DENIZI)"},{"date":"2020.09.09","time":"15:44:27","latitude":"36.6577","longitude":"28.0037","depth":"18.1","md":"-.-","ml":"1.7","mw":"-.-","location":"BOZBURUN-MARMARIS (MUGLA)"},{"date":"2020.09.09","time":"15:36:51","latitude":"40.2838","longitude":"28.9475","depth":"15.9","md":"-.-","ml":"1.5","mw":"-.-","location":"NILUFER-OSMANGAZI (BURSA)"},{"date":"2020.09.09","time":"15:29:08","latitude":"40.6745","longitude":"27.4600","depth":"4.4","md":"-.-","ml":"1.5","mw":"-.-","location":"GUZELKOY ACIKLARI-TEKIRDAG (MARMARA DENIZI)"},{"date":"2020.09.09","time":"14:58:05","latitude":"40.6875","longitude":"27.2702","depth":"5.0","md":"-.-","ml":"1.9","mw":"-.-","location":"KIRAZLI-SARKOY (TEKIRDAG)"},{"date":"2020.09.09","time":"14:25:42","latitude":"38.6248","longitude":"39.0997","depth":"2.3","md":"-.-","ml":"1.6","mw":"-.-","location":"ASAGIDEMIRTAS-(ELAZIG)"},{"date":"2020.09.09","time":"14:16:06","latitude":"36.2135","longitude":"33.6915","depth":"0.0","md":"-.-","ml":"1.4","mw":"-.-","location":"ISIKLI-SILIFKE (MERSIN)"},{"date":"2020.09.09","time":"13:43:21","latitude":"37.2437","longitude":"28.1902","depth":"0.0","md":"-.-","ml":"2.0","mw":"-.-","location":"PASAPINARI-(MUGLA)"},{"date":"2020.09.09","time":"13:26:43","latitude":"37.0038","longitude":"27.4042","depth":"12.8","md":"-.-","ml":"1.7","mw":"-.-","location":"BODRUM (MUGLA)"},{"date":"2020.09.09","time":"13:24:39","latitude":"39.7332","longitude":"42.4710","depth":"5.0","md":"-.-","ml":"1.5","mw":"-.-","location":"CETINSU-ELESKIRT (AGRI)"},{"date":"2020.09.09","time":"13:03:54","latitude":"37.4838","longitude":"36.9358","depth":"5.0","md":"-.-","ml":"1.8","mw":"-.-","location":"SEREFOGLU-(KAHRAMANMARAS)"},{"date":"2020.09.09","time":"12:15:10","latitude":"39.2165","longitude":"28.1023","depth":"5.1","md":"-.-","ml":"1.8","mw":"-.-","location":"KERTIL-SINDIRGI (BALIKESIR)"},{"date":"2020.09.09","time":"12:07:09","latitude":"37.3383","longitude":"28.1105","depth":"0.0","md":"-.-","ml":"1.4","mw":"-.-","location":"YENIKOY-YATAGAN (MUGLA)"},{"date":"2020.09.09","time":"12:02:50","latitude":"37.2030","longitude":"27.8575","depth":"0.0","md":"-.-","ml":"1.6","mw":"-.-","location":"CAMKOY-MILAS (MUGLA)"},{"date":"2020.09.09","time":"12:01:50","latitude":"39.8627","longitude":"26.2620","depth":"5.0","md":"-.-","ml":"1.4","mw":"-.-","location":"BOZALAN-EZINE (CANAKKALE)"},{"date":"2020.09.09","time":"11:45:20","latitude":"38.7700","longitude":"42.0190","depth":"5.5","md":"-.-","ml":"2.1","mw":"-.-","location":"DURUCAK-KORKUT (MUS)"},{"date":"2020.09.09","time":"11:43:18","latitude":"40.6722","longitude":"27.3565","depth":"5.1","md":"-.-","ml":"1.9","mw":"-.-","location":"HOSKOY-SARKOY (TEKIRDAG)"},{"date":"2020.09.09","time":"11:37:17","latitude":"36.2568","longitude":"33.7200","depth":"0.0","md":"-.-","ml":"1.3","mw":"-.-","location":"AKDERE-SILIFKE (MERSIN)"},{"date":"2020.09.09","time":"11:10:41","latitude":"40.7142","longitude":"27.2430","depth":"18.7","md":"-.-","ml":"1.5","mw":"-.-","location":"MURSALLI-SARKOY (TEKIRDAG)"},{"date":"2020.09.09","time":"11:00:21","latitude":"39.8962","longitude":"40.8962","depth":"8.8","md":"-.-","ml":"2.4","mw":"-.-","location":"ATLIKONAK-AZIZIYE (ERZURUM)"},{"date":"2020.09.09","time":"10:07:16","latitude":"38.3450","longitude":"38.9223","depth":"13.0","md":"-.-","ml":"1.4","mw":"-.-","location":"KARAHUSEYIN-KALE (MALATYA)"},{"date":"2020.09.09","time":"09:59:08","latitude":"38.1275","longitude":"38.5970","depth":"5.5","md":"-.-","ml":"2.4","mw":"-.-","location":"TEKEDERESI-PUTURGE (MALATYA)"},{"date":"2020.09.09","time":"09:19:29","latitude":"40.6080","longitude":"27.3578","depth":"5.0","md":"-.-","ml":"1.5","mw":"-.-","location":"MUREFTE ACIKLARI-TEKIRDAG (MARMARA DENIZI)"},{"date":"2020.09.09","time":"09:06:34","latitude":"40.6753","longitude":"27.4042","depth":"5.9","md":"-.-","ml":"1.7","mw":"-.-","location":"GUZELKOY ACIKLARI-TEKIRDAG (MARMARA DENIZI)"},{"date":"2020.09.09","time":"09:04:48","latitude":"37.5275","longitude":"29.9752","depth":"28.4","md":"-.-","ml":"1.4","mw":"-.-","location":"KOCAPINAR-(BURDUR)"},{"date":"2020.09.09","time":"08:56:13","latitude":"39.6715","longitude":"24.8240","depth":"5.7","md":"-.-","ml":"2.8","mw":"-.-","location":"EGE DENIZI"},{"date":"2020.09.09","time":"08:47:33","latitude":"38.8538","longitude":"26.5327","depth":"10.6","md":"-.-","ml":"2.4","mw":"-.-","location":"EGE DENIZI"},{"date":"2020.09.09","time":"08:46:28","latitude":"38.5792","longitude":"27.2153","depth":"17.5","md":"-.-","ml":"2.3","mw":"-.-","location":"ALANICI-MENEMEN (IZMIR)"},{"date":"2020.09.09","time":"07:55:09","latitude":"39.1492","longitude":"29.0698","depth":"9.9","md":"-.-","ml":"1.3","mw":"-.-","location":"SOGUT-SIMAV (KUTAHYA)"},{"date":"2020.09.09","time":"07:49:35","latitude":"40.6660","longitude":"27.4157","depth":"3.5","md":"-.-","ml":"1.3","mw":"-.-","location":"GUZELKOY ACIKLARI-TEKIRDAG (MARMARA DENIZI)"},{"date":"2020.09.09","time":"07:46:28","latitude":"38.9945","longitude":"29.1142","depth":"3.8","md":"-.-","ml":"2.0","mw":"-.-","location":"PAZARLAR (KUTAHYA)"},{"date":"2020.09.09","time":"07:39:41","latitude":"40.7162","longitude":"27.4345","depth":"9.1","md":"-.-","ml":"1.7","mw":"-.-","location":"GUZELKOY ACIKLARI-TEKIRDAG (MARMARA DENIZI)"},{"date":"2020.09.09","time":"06:36:12","latitude":"38.4387","longitude":"37.5195","depth":"5.0","md":"-.-","ml":"2.8","mw":"-.-","location":"SUGUL-DARENDE (MALATYA)"},{"date":"2020.09.09","time":"06:02:27","latitude":"40.6995","longitude":"27.4247","depth":"12.0","md":"-.-","ml":"2.9","mw":"-.-","location":"GUZELKOY ACIKLARI-TEKIRDAG (MARMARA DENIZI)"},{"date":"2020.09.09","time":"05:46:28","latitude":"40.7040","longitude":"27.4298","depth":"10.2","md":"-.-","ml":"1.6","mw":"-.-","location":"GUZELKOY ACIKLARI-TEKIRDAG (MARMARA DENIZI)"},{"date":"2020.09.09","time":"04:49:26","latitude":"38.8282","longitude":"26.9777","depth":"7.9","md":"-.-","ml":"1.9","mw":"-.-","location":"ALIAGA (IZMIR)"},{"date":"2020.09.09","time":"04:49:18","latitude":"38.0737","longitude":"38.6353","depth":"5.0","md":"-.-","ml":"1.5","mw":"-.-","location":"SAKIZ-SINCIK (ADIYAMAN)"},{"date":"2020.09.09","time":"04:43:14","latitude":"40.7073","longitude":"27.3890","depth":"12.5","md":"-.-","ml":"2.0","mw":"-.-","location":"GUZELKOY ACIKLARI-TEKIRDAG (MARMARA DENIZI)"},{"date":"2020.09.09","time":"04:18:32","latitude":"40.7178","longitude":"27.4242","depth":"13.1","md":"-.-","ml":"1.2","mw":"-.-","location":"GUZELKOY ACIKLARI-TEKIRDAG (MARMARA DENIZI)"},{"date":"2020.09.09","time":"03:46:47","latitude":"40.6960","longitude":"27.4473","depth":"11.0","md":"-.-","ml":"1.9","mw":"-.-","location":"GUZELKOY ACIKLARI-TEKIRDAG (MARMARA DENIZI)"},{"date":"2020.09.09","time":"03:18:31","latitude":"40.6858","longitude":"27.4315","depth":"6.3","md":"-.-","ml":"1.4","mw":"-.-","location":"GUZELKOY ACIKLARI-TEKIRDAG (MARMARA DENIZI)"},{"date":"2020.09.09","time":"03:15:56","latitude":"40.7343","longitude":"27.4473","depth":"17.6","md":"-.-","ml":"1.5","mw":"-.-","location":"GUZELKOY ACIKLARI-TEKIRDAG (MARMARA DENIZI)"},{"date":"2020.09.09","time":"03:14:32","latitude":"40.7002","longitude":"27.4437","depth":"9.9","md":"-.-","ml":"1.9","mw":"-.-","location":"GUZELKOY ACIKLARI-TEKIRDAG (MARMARA DENIZI)"},{"date":"2020.09.09","time":"03:09:36","latitude":"40.6965","longitude":"27.4283","depth":"11.0","md":"-.-","ml":"1.2","mw":"-.-","location":"GUZELKOY ACIKLARI-TEKIRDAG (MARMARA DENIZI)"},{"date":"2020.09.09","time":"03:00:19","latitude":"40.6807","longitude":"27.4062","depth":"9.8","md":"-.-","ml":"1.8","mw":"-.-","location":"GUZELKOY ACIKLARI-TEKIRDAG (MARMARA DENIZI)"},{"date":"2020.09.09","time":"02:54:46","latitude":"40.7638","longitude":"27.4800","depth":"10.1","md":"-.-","ml":"1.2","mw":"-.-","location":"GUZELKOY ACIKLARI-TEKIRDAG (MARMARA DENIZI)"},{"date":"2020.09.09","time":"02:52:30","latitude":"40.7010","longitude":"27.4405","depth":"6.2","md":"-.-","ml":"1.7","mw":"-.-","location":"GUZELKOY ACIKLARI-TEKIRDAG (MARMARA DENIZI)"},{"date":"2020.09.09","time":"02:39:50","latitude":"40.7137","longitude":"27.4205","depth":"13.2","md":"-.-","ml":"1.6","mw":"-.-","location":"GUZELKOY ACIKLARI-TEKIRDAG (MARMARA DENIZI)"},{"date":"2020.09.09","time":"02:39:03","latitude":"39.0108","longitude":"25.7947","depth":"5.4","md":"-.-","ml":"2.1","mw":"-.-","location":"EGE DENIZI"},{"date":"2020.09.09","time":"02:38:40","latitude":"39.8667","longitude":"26.8810","depth":"12.9","md":"-.-","ml":"1.7","mw":"-.-","location":"KARAKOY-BAYRAMIC (CANAKKALE)"},{"date":"2020.09.09","time":"02:21:48","latitude":"40.7152","longitude":"27.5013","depth":"5.4","md":"-.-","ml":"1.4","mw":"-.-","location":"GUZELKOY ACIKLARI-TEKIRDAG (MARMARA DENIZI)"},{"date":"2020.09.09","time":"02:17:50","latitude":"40.6992","longitude":"27.4272","depth":"12.1","md":"-.-","ml":"1.7","mw":"-.-","location":"GUZELKOY ACIKLARI-TEKIRDAG (MARMARA DENIZI)"},{"date":"2020.09.09","time":"02:15:52","latitude":"40.7182","longitude":"27.4555","depth":"17.4","md":"-.-","ml":"1.5","mw":"-.-","location":"GUZELKOY ACIKLARI-TEKIRDAG (MARMARA DENIZI)"},{"date":"2020.09.09","time":"02:15:28","latitude":"40.7120","longitude":"27.4570","depth":"7.7","md":"-.-","ml":"1.8","mw":"-.-","location":"GUZELKOY ACIKLARI-TEKIRDAG (MARMARA DENIZI)"},{"date":"2020.09.09","time":"02:12:12","latitude":"40.7043","longitude":"27.4415","depth":"8.6","md":"-.-","ml":"2.0","mw":"-.-","location":"GUZELKOY ACIKLARI-TEKIRDAG (MARMARA DENIZI)"},{"date":"2020.09.09","time":"02:03:46","latitude":"40.7010","longitude":"27.4342","depth":"12.1","md":"-.-","ml":"1.7","mw":"-.-","location":"GUZELKOY ACIKLARI-TEKIRDAG (MARMARA DENIZI)"},{"date":"2020.09.09","time":"01:59:13","latitude":"40.7102","longitude":"27.3823","depth":"9.9","md":"-.-","ml":"1.5","mw":"-.-","location":"GUZELKOY ACIKLARI-TEKIRDAG (MARMARA DENIZI)"},{"date":"2020.09.09","time":"01:55:56","latitude":"40.7188","longitude":"27.4193","depth":"5.4","md":"-.-","ml":"1.9","mw":"-.-","location":"GUZELKOY ACIKLARI-TEKIRDAG (MARMARA DENIZI)"},{"date":"2020.09.09","time":"01:41:09","latitude":"38.0793","longitude":"38.6945","depth":"3.7","md":"-.-","ml":"2.5","mw":"-.-","location":"ULUTAS-PUTURGE (MALATYA)"},{"date":"2020.09.09","time":"01:32:13","latitude":"40.7242","longitude":"27.4345","depth":"14.4","md":"-.-","ml":"1.8","mw":"-.-","location":"GUZELKOY ACIKLARI-TEKIRDAG (MARMARA DENIZI)"},{"date":"2020.09.09","time":"01:27:49","latitude":"40.7142","longitude":"27.4263","depth":"14.3","md":"-.-","ml":"1.8","mw":"-.-","location":"GUZELKOY ACIKLARI-TEKIRDAG (MARMARA DENIZI)"},{"date":"2020.09.09","time":"01:25:58","latitude":"40.7040","longitude":"27.4297","depth":"10.9","md":"-.-","ml":"1.4","mw":"-.-","location":"GUZELKOY ACIKLARI-TEKIRDAG (MARMARA DENIZI)"},{"date":"2020.09.09","time":"01:20:03","latitude":"38.1657","longitude":"38.6855","depth":"5.0","md":"-.-","ml":"3.9","mw":"4.0","location":"SAHILKOY-PUTURGE (MALATYA)"},{"date":"2020.09.09","time":"01:19:41","latitude":"40.6787","longitude":"27.4610","depth":"2.5","md":"-.-","ml":"1.6","mw":"-.-","location":"GUZELKOY ACIKLARI-TEKIRDAG (MARMARA DENIZI)"},{"date":"2020.09.09","time":"01:18:18","latitude":"40.7258","longitude":"27.4760","depth":"7.4","md":"-.-","ml":"1.6","mw":"-.-","location":"GUZELKOY ACIKLARI-TEKIRDAG (MARMARA DENIZI)"},{"date":"2020.09.09","time":"01:17:17","latitude":"40.7210","longitude":"27.4490","depth":"16.5","md":"-.-","ml":"1.7","mw":"-.-","location":"GUZELKOY ACIKLARI-TEKIRDAG (MARMARA DENIZI)"},{"date":"2020.09.09","time":"01:08:08","latitude":"40.7082","longitude":"27.4267","depth":"13.3","md":"-.-","ml":"2.7","mw":"-.-","location":"GUZELKOY ACIKLARI-TEKIRDAG (MARMARA DENIZI)"},{"date":"2020.09.09","time":"01:06:27","latitude":"40.7072","longitude":"27.4222","depth":"14.3","md":"-.-","ml":"3.3","mw":"3.2","location":"GUZELKOY ACIKLARI-TEKIRDAG (MARMARA DENIZI)"},{"date":"2020.09.09","time":"00:57:23","latitude":"40.7033","longitude":"27.4228","depth":"13.7","md":"-.-","ml":"4.6","mw":"4.3","location":"GUZELKOY ACIKLARI-TEKIRDAG (MARMARA DENIZI)"},{"date":"2020.09.09","time":"00:55:58","latitude":"40.6988","longitude":"27.4203","depth":"12.7","md":"-.-","ml":"3.0","mw":"-.-","location":"GUZELKOY ACIKLARI-TEKIRDAG (MARMARA DENIZI)"},{"date":"2020.09.09","time":"00:50:46","latitude":"40.7020","longitude":"27.4237","depth":"13.7","md":"-.-","ml":"2.2","mw":"-.-","location":"GUZELKOY ACIKLARI-TEKIRDAG (MARMARA DENIZI)"},{"date":"2020.09.08","time":"23:57:19","latitude":"38.5563","longitude":"39.2808","depth":"16.3","md":"-.-","ml":"1.6","mw":"-.-","location":"BAHCEKAPI-(ELAZIG)"},{"date":"2020.09.08","time":"23:34:30","latitude":"40.6995","longitude":"27.4160","depth":"12.4","md":"-.-","ml":"2.3","mw":"-.-","location":"GUZELKOY ACIKLARI-TEKIRDAG (MARMARA DENIZI)"},{"date":"2020.09.08","time":"23:28:06","latitude":"40.6955","longitude":"27.3900","depth":"13.7","md":"-.-","ml":"1.7","mw":"-.-","location":"GUZELKOY ACIKLARI-TEKIRDAG (MARMARA DENIZI)"},{"date":"2020.09.08","time":"21:47:16","latitude":"39.1777","longitude":"32.9512","depth":"12.4","md":"-.-","ml":"1.9","mw":"-.-","location":"ALTILAR-KULU (KONYA)"},{"date":"2020.09.08","time":"21:41:05","latitude":"38.1662","longitude":"38.6742","depth":"7.6","md":"-.-","ml":"3.2","mw":"3.2","location":"ESENLIK-PUTURGE (MALATYA)"},{"date":"2020.09.08","time":"21:22:31","latitude":"40.0715","longitude":"44.6595","depth":"5.0","md":"-.-","ml":"1.9","mw":"-.-","location":"TURKIYE-ERMENISTAN SINIR BOLGESI"},{"date":"2020.09.08","time":"20:20:16","latitude":"39.4227","longitude":"41.0003","depth":"22.6","md":"-.-","ml":"2.0","mw":"-.-","location":"KASIKCI-KARLIOVA (BINGOL)"},{"date":"2020.09.08","time":"20:09:02","latitude":"38.8810","longitude":"43.4438","depth":"15.7","md":"-.-","ml":"2.5","mw":"-.-","location":"GEDIKBULAK-(VAN)"},{"date":"2020.09.08","time":"19:33:41","latitude":"38.2002","longitude":"38.6507","depth":"5.0","md":"-.-","ml":"2.0","mw":"-.-","location":"SOGUTLU-PUTURGE (MALATYA)"},{"date":"2020.09.08","time":"18:15:33","latitude":"35.9045","longitude":"28.2143","depth":"69.4","md":"-.-","ml":"2.0","mw":"-.-","location":"AKDENIZ"},{"date":"2020.09.08","time":"18:10:29","latitude":"38.2822","longitude":"38.7033","depth":"21.9","md":"-.-","ml":"1.4","mw":"-.-","location":"KAMISTAS-(MALATYA)"},{"date":"2020.09.08","time":"18:09:38","latitude":"38.1920","longitude":"38.6620","depth":"7.8","md":"-.-","ml":"2.5","mw":"-.-","location":"ARITOPRAK-PUTURGE (MALATYA)"},{"date":"2020.09.08","time":"18:06:14","latitude":"38.1478","longitude":"38.6472","depth":"5.0","md":"-.-","ml":"4.3","mw":"4.3","location":"BASMEZRA-PUTURGE (MALATYA)"},{"date":"2020.09.08","time":"17:46:58","latitude":"38.2773","longitude":"38.7622","depth":"6.0","md":"-.-","ml":"2.0","mw":"-.-","location":"BALPINARI-PUTURGE (MALATYA)"},{"date":"2020.09.08","time":"16:54:55","latitude":"38.1560","longitude":"38.7187","depth":"5.0","md":"-.-","ml":"1.8","mw":"-.-","location":"YAZICA-PUTURGE (MALATYA)"},{"date":"2020.09.08","time":"16:50:33","latitude":"33.9040","longitude":"26.9023","depth":"8.0","md":"-.-","ml":"2.6","mw":"-.-","location":"GIRIT ADASI ACIKLARI (AKDENIZ)"},{"date":"2020.09.08","time":"16:21:02","latitude":"38.2130","longitude":"38.6962","depth":"5.0","md":"-.-","ml":"4.0","mw":"4.3","location":"KOKPINAR-PUTURGE (MALATYA)"},{"date":"2020.09.08","time":"16:19:50","latitude":"38.1207","longitude":"38.6907","depth":"5.0","md":"-.-","ml":"3.9","mw":"-.-","location":"ALICERI-PUTURGE (MALATYA)"},{"date":"2020.09.08","time":"15:38:59","latitude":"38.1455","longitude":"38.7080","depth":"5.0","md":"-.-","ml":"4.3","mw":"4.5","location":"YAZICA-PUTURGE (MALATYA)"},{"date":"2020.09.08","time":"15:24:46","latitude":"37.8462","longitude":"29.1358","depth":"0.0","md":"-.-","ml":"1.5","mw":"-.-","location":"ELDENIZLI-(DENIZLI)"},{"date":"2020.09.08","time":"15:23:25","latitude":"38.0692","longitude":"38.5805","depth":"4.0","md":"-.-","ml":"2.5","mw":"-.-","location":"BALKAYA-SINCIK (ADIYAMAN)"},{"date":"2020.09.08","time":"14:32:50","latitude":"37.0257","longitude":"27.7898","depth":"4.6","md":"-.-","ml":"1.5","mw":"-.-","location":"GOKBEL-MILAS (MUGLA)"},{"date":"2020.09.08","time":"14:23:00","latitude":"37.1387","longitude":"27.9782","depth":"0.0","md":"-.-","ml":"1.1","mw":"-.-","location":"YOGUNOLUK-MILAS (MUGLA)"},{"date":"2020.09.08","time":"14:02:54","latitude":"38.1550","longitude":"38.7398","depth":"7.6","md":"-.-","ml":"3.1","mw":"3.1","location":"YAZICA-PUTURGE (MALATYA)"},{"date":"2020.09.08","time":"13:44:06","latitude":"38.1635","longitude":"38.7020","depth":"5.0","md":"-.-","ml":"4.7","mw":"4.9","location":"SAHILKOY-PUTURGE (MALATYA)"},{"date":"2020.09.08","time":"13:35:23","latitude":"39.1580","longitude":"27.4913","depth":"0.0","md":"-.-","ml":"1.7","mw":"-.-","location":"CENKYERI-SOMA (MANISA)"},{"date":"2020.09.08","time":"13:14:42","latitude":"37.7998","longitude":"27.3257","depth":"10.8","md":"-.-","ml":"1.8","mw":"-.-","location":"YAYLAKOY-KUSADASI (AYDIN)"},{"date":"2020.09.08","time":"13:11:04","latitude":"36.5993","longitude":"28.0190","depth":"82.2","md":"-.-","ml":"2.4","mw":"-.-","location":"TASLICA-MARMARIS (MUGLA)"},{"date":"2020.09.08","time":"12:36:07","latitude":"39.4937","longitude":"28.8048","depth":"20.6","md":"-.-","ml":"2.0","mw":"-.-","location":"BOYALICA-DURSUNBEY (BALIKESIR)"},{"date":"2020.09.08","time":"12:30:38","latitude":"39.3982","longitude":"25.9907","depth":"1.7","md":"-.-","ml":"2.1","mw":"-.-","location":"BADEMLI ACIKLARI-CANAKKALE (EGE DENIZI)"},{"date":"2020.09.08","time":"12:23:29","latitude":"36.8648","longitude":"37.6043","depth":"5.0","md":"-.-","ml":"2.4","mw":"-.-","location":"KASYOLU-OGUZELI (GAZIANTEP)"},{"date":"2020.09.08","time":"12:19:52","latitude":"40.0478","longitude":"26.3107","depth":"5.0","md":"-.-","ml":"1.7","mw":"-.-","location":"GUZELYALI-(CANAKKALE)"},{"date":"2020.09.08","time":"12:00:26","latitude":"37.2823","longitude":"31.9350","depth":"1.2","md":"-.-","ml":"1.8","mw":"-.-","location":"SUSUZ-SEYDISEHIR (KONYA)"},{"date":"2020.09.08","time":"11:57:39","latitude":"37.2892","longitude":"28.3302","depth":"4.7","md":"-.-","ml":"1.7","mw":"-.-","location":"KOZAGAC-(MUGLA)"},{"date":"2020.09.08","time":"11:57:29","latitude":"37.1890","longitude":"37.3245","depth":"0.0","md":"-.-","ml":"2.1","mw":"-.-","location":"INCESU-SEHITKAMIL (GAZIANTEP)"},{"date":"2020.09.08","time":"11:54:53","latitude":"37.2630","longitude":"28.2843","depth":"0.0","md":"-.-","ml":"1.8","mw":"-.-","location":"AKCAOVA-(MUGLA)"},{"date":"2020.09.08","time":"11:51:17","latitude":"37.1658","longitude":"27.8387","depth":"0.0","md":"-.-","ml":"1.4","mw":"-.-","location":"IKIZKOY-MILAS (MUGLA)"},{"date":"2020.09.08","time":"11:45:03","latitude":"38.2477","longitude":"38.8272","depth":"18.9","md":"-.-","ml":"1.7","mw":"-.-","location":"ORMELI-PUTURGE (MALATYA)"},{"date":"2020.09.08","time":"11:43:28","latitude":"36.2743","longitude":"33.7357","depth":"0.0","md":"-.-","ml":"1.0","mw":"-.-","location":"AKDERE-SILIFKE (MERSIN)"},{"date":"2020.09.08","time":"11:33:32","latitude":"39.6138","longitude":"29.6403","depth":"0.0","md":"-.-","ml":"1.7","mw":"-.-","location":"GUMUSGOLCUK-TAVSANLI (KUTAHYA)"},{"date":"2020.09.08","time":"11:30:37","latitude":"40.4985","longitude":"29.2853","depth":"0.0","md":"-.-","ml":"1.7","mw":"-.-","location":"FINDIKLI-ORHANGAZI (BURSA)"},{"date":"2020.09.08","time":"10:30:44","latitude":"39.8363","longitude":"28.9775","depth":"3.7","md":"-.-","ml":"1.5","mw":"-.-","location":"KARAOGLANLAR-ORHANELI (BURSA)"},{"date":"2020.09.08","time":"10:16:28","latitude":"37.7225","longitude":"32.3382","depth":"0.0","md":"-.-","ml":"1.3","mw":"-.-","location":"KARADIGINDERESI-MERAM (KONYA)"},{"date":"2020.09.08","time":"09:47:26","latitude":"38.8635","longitude":"41.9925","depth":"3.4","md":"-.-","ml":"2.1","mw":"-.-","location":"DEMIRCI-KORKUT (MUS)"},{"date":"2020.09.08","time":"09:09:31","latitude":"37.4160","longitude":"31.5008","depth":"5.0","md":"-.-","ml":"2.8","mw":"-.-","location":"DEREBUCAK (KONYA)"},{"date":"2020.09.08","time":"08:43:29","latitude":"37.0958","longitude":"27.6608","depth":"5.0","md":"-.-","ml":"1.4","mw":"-.-","location":"MUMCULAR-BODRUM (MUGLA)"},{"date":"2020.09.08","time":"08:00:00","latitude":"38.4280","longitude":"39.2165","depth":"10.6","md":"-.-","ml":"1.0","mw":"-.-","location":"YEDIPINAR-SIVRICE (ELAZIG)"},{"date":"2020.09.08","time":"07:07:17","latitude":"39.4237","longitude":"25.6933","depth":"6.7","md":"-.-","ml":"2.2","mw":"-.-","location":"EGE DENIZI"},{"date":"2020.09.08","time":"06:53:37","latitude":"38.9293","longitude":"27.9218","depth":"5.9","md":"-.-","ml":"2.3","mw":"-.-","location":"HASKOY-AKHISAR (MANISA)"},{"date":"2020.09.08","time":"04:33:02","latitude":"40.2245","longitude":"31.7707","depth":"9.1","md":"-.-","ml":"1.8","mw":"-.-","location":"KOZAGAC-BEYPAZARI (ANKARA)"},{"date":"2020.09.08","time":"03:32:55","latitude":"37.3780","longitude":"31.4803","depth":"5.0","md":"-.-","ml":"2.4","mw":"-.-","location":"DEREBUCAK (KONYA)"},{"date":"2020.09.08","time":"01:43:39","latitude":"37.3988","longitude":"31.4767","depth":"5.0","md":"-.-","ml":"2.6","mw":"-.-","location":"DEREBUCAK (KONYA)"},{"date":"2020.09.08","time":"01:41:19","latitude":"37.3825","longitude":"31.5047","depth":"5.5","md":"-.-","ml":"1.9","mw":"-.-","location":"DEREBUCAK (KONYA)"},{"date":"2020.09.08","time":"01:41:01","latitude":"38.6755","longitude":"42.0288","depth":"11.7","md":"-.-","ml":"1.3","mw":"-.-","location":"OZKAVAK-GUROYMAK (BITLIS)"},{"date":"2020.09.08","time":"01:35:19","latitude":"38.6527","longitude":"43.4748","depth":"7.6","md":"-.-","ml":"2.1","mw":"-.-","location":"DILIMLI-(VAN)"},{"date":"2020.09.08","time":"01:33:09","latitude":"37.8705","longitude":"27.5577","depth":"6.1","md":"-.-","ml":"1.5","mw":"-.-","location":"KIZILCAPINAR-GERMENCIK (AYDIN)"},{"date":"2020.09.08","time":"00:07:58","latitude":"35.5135","longitude":"27.6188","depth":"14.8","md":"-.-","ml":"1.8","mw":"-.-","location":"AKDENIZ"},{"date":"2020.09.07","time":"22:55:29","latitude":"40.0838","longitude":"41.3653","depth":"12.4","md":"-.-","ml":"1.5","mw":"-.-","location":"GOKCEYAMAC-YAKUTIYE (ERZURUM)"},{"date":"2020.09.07","time":"19:51:19","latitude":"35.6197","longitude":"26.7372","depth":"8.5","md":"-.-","ml":"2.5","mw":"-.-","location":"AKDENIZ"},{"date":"2020.09.07","time":"18:02:11","latitude":"39.5028","longitude":"44.5008","depth":"6.7","md":"-.-","ml":"3.0","mw":"3.0","location":"TURKIYE-IRAN SINIR BOLGESI"},{"date":"2020.09.07","time":"17:33:38","latitude":"38.0020","longitude":"34.0428","depth":"5.0","md":"-.-","ml":"2.6","mw":"-.-","location":"OBRUK-BOR (NIGDE)"},{"date":"2020.09.07","time":"15:45:40","latitude":"40.8365","longitude":"36.0315","depth":"6.3","md":"-.-","ml":"2.4","mw":"-.-","location":"AKTAS-(AMASYA)"},{"date":"2020.09.07","time":"15:26:13","latitude":"38.2057","longitude":"38.7352","depth":"18.1","md":"-.-","ml":"2.0","mw":"-.-","location":"PAZARCIK-PUTURGE (MALATYA)"},{"date":"2020.09.07","time":"14:11:20","latitude":"37.1852","longitude":"36.7040","depth":"9.0","md":"-.-","ml":"2.0","mw":"-.-","location":"OLUCAK-NURDAGI (GAZIANTEP)"},{"date":"2020.09.07","time":"12:57:14","latitude":"38.6872","longitude":"42.0152","depth":"13.1","md":"-.-","ml":"1.8","mw":"-.-","location":"SAZLIKBASI-KORKUT (MUS)"},{"date":"2020.09.07","time":"12:54:26","latitude":"38.7355","longitude":"42.0372","depth":"7.9","md":"-.-","ml":"1.8","mw":"-.-","location":"YUNOREN-KORKUT (MUS)"},{"date":"2020.09.07","time":"12:43:02","latitude":"39.2575","longitude":"29.0590","depth":"3.5","md":"-.-","ml":"2.0","mw":"-.-","location":"KATRANDAGI-EMET (KUTAHYA)"},{"date":"2020.09.07","time":"12:37:25","latitude":"37.7740","longitude":"38.4978","depth":"8.1","md":"-.-","ml":"2.4","mw":"-.-","location":"ALIBEY-(ADIYAMAN)"},{"date":"2020.09.07","time":"12:31:02","latitude":"37.1438","longitude":"27.8625","depth":"0.0","md":"-.-","ml":"1.6","mw":"-.-","location":"BAGDAMLARI-MILAS (MUGLA)"},{"date":"2020.09.07","time":"12:29:37","latitude":"37.2363","longitude":"27.8937","depth":"0.0","md":"-.-","ml":"1.3","mw":"-.-","location":"CAMLIBELEN-MILAS (MUGLA)"},{"date":"2020.09.07","time":"12:01:34","latitude":"37.6360","longitude":"29.3288","depth":"0.0","md":"-.-","ml":"1.6","mw":"-.-","location":"KOCAPINAR-SERINHISAR (DENIZLI)"},{"date":"2020.09.07","time":"12:00:16","latitude":"37.2388","longitude":"27.8607","depth":"17.4","md":"-.-","ml":"1.4","mw":"-.-","location":"KALINAGIL-MILAS (MUGLA)"},{"date":"2020.09.07","time":"11:52:48","latitude":"37.5935","longitude":"29.1597","depth":"0.0","md":"-.-","ml":"1.7","mw":"-.-","location":"TEKKEKOY-TAVAS (DENIZLI)"},{"date":"2020.09.07","time":"11:47:46","latitude":"38.7273","longitude":"41.9683","depth":"5.0","md":"-.-","ml":"3.9","mw":"-.-","location":"SARMASIK-KORKUT (MUS)"},{"date":"2020.09.07","time":"11:23:56","latitude":"37.9693","longitude":"42.9405","depth":"5.0","md":"-.-","ml":"2.9","mw":"-.-","location":"KORULU-CATAK (VAN)"},{"date":"2020.09.07","time":"10:55:06","latitude":"37.2955","longitude":"38.7230","depth":"0.0","md":"-.-","ml":"2.3","mw":"-.-","location":"KORUKEZEN-(SANLIURFA)"},{"date":"2020.09.07","time":"10:30:24","latitude":"39.7005","longitude":"27.8120","depth":"5.1","md":"-.-","ml":"1.8","mw":"-.-","location":"BEYKOY-(BALIKESIR)"},{"date":"2020.09.07","time":"08:07:00","latitude":"38.2723","longitude":"31.1598","depth":"26.7","md":"-.-","ml":"1.2","mw":"-.-","location":"YAGCILAR-YALVAC (ISPARTA)"},{"date":"2020.09.07","time":"06:52:00","latitude":"39.3755","longitude":"27.6450","depth":"3.0","md":"-.-","ml":"1.2","mw":"-.-","location":"SAVASTEPE (BALIKESIR)"},{"date":"2020.09.07","time":"05:41:37","latitude":"39.4357","longitude":"40.7245","depth":"5.5","md":"-.-","ml":"1.5","mw":"-.-","location":"SOBECAYIR-CAT (ERZURUM)"},{"date":"2020.09.07","time":"04:47:51","latitude":"39.3640","longitude":"40.3653","depth":"3.8","md":"-.-","ml":"1.6","mw":"-.-","location":"KIGI (BINGOL)"},{"date":"2020.09.07","time":"04:36:59","latitude":"38.1897","longitude":"27.2170","depth":"4.9","md":"-.-","ml":"1.3","mw":"-.-","location":"DEVELI-MENDERES (IZMIR)"},{"date":"2020.09.07","time":"04:19:57","latitude":"34.1050","longitude":"25.6803","depth":"10.9","md":"-.-","ml":"2.7","mw":"-.-","location":"GIRIT ADASI ACIKLARI (AKDENIZ)"},{"date":"2020.09.07","time":"04:19:26","latitude":"39.8900","longitude":"27.9073","depth":"5.6","md":"-.-","ml":"1.3","mw":"-.-","location":"ALACABAYIR-(BALIKESIR)"},{"date":"2020.09.07","time":"04:13:02","latitude":"39.3158","longitude":"34.0218","depth":"9.1","md":"-.-","ml":"1.5","mw":"-.-","location":"CIFTLIKMEHMETAGA-AKPINAR (KIRSEHIR)"},{"date":"2020.09.07","time":"03:56:25","latitude":"37.2177","longitude":"28.2875","depth":"5.4","md":"-.-","ml":"2.0","mw":"-.-","location":"AKCAOVA-(MUGLA)"},{"date":"2020.09.07","time":"03:20:08","latitude":"37.8072","longitude":"29.2100","depth":"10.4","md":"-.-","ml":"1.3","mw":"-.-","location":"PINARKENT-(DENIZLI)"},{"date":"2020.09.07","time":"03:19:43","latitude":"39.8967","longitude":"27.8965","depth":"7.9","md":"-.-","ml":"1.5","mw":"-.-","location":"YEROLUK-(BALIKESIR)"},{"date":"2020.09.07","time":"02:50:55","latitude":"40.7055","longitude":"27.4732","depth":"13.7","md":"-.-","ml":"1.6","mw":"-.-","location":"GUZELKOY ACIKLARI-TEKIRDAG (MARMARA DENIZI)"},{"date":"2020.09.07","time":"02:40:17","latitude":"38.6388","longitude":"38.0457","depth":"5.0","md":"-.-","ml":"1.4","mw":"-.-","location":"ALICAN-YAZIHAN (MALATYA)"},{"date":"2020.09.07","time":"02:25:36","latitude":"40.8878","longitude":"28.2067","depth":"12.1","md":"-.-","ml":"2.8","mw":"-.-","location":"MARMARA DENIZI"},{"date":"2020.09.07","time":"01:48:45","latitude":"38.7033","longitude":"43.0905","depth":"3.8","md":"-.-","ml":"1.0","mw":"-.-","location":"VAN GOLU"},{"date":"2020.09.07","time":"01:39:27","latitude":"38.4295","longitude":"39.2920","depth":"11.4","md":"-.-","ml":"1.2","mw":"-.-","location":"YEDIKARDES-SIVRICE (ELAZIG)"},{"date":"2020.09.07","time":"01:33:20","latitude":"38.6128","longitude":"43.3133","depth":"23.6","md":"-.-","ml":"1.5","mw":"-.-","location":"YESILKOY-(VAN)"},{"date":"2020.09.07","time":"01:06:39","latitude":"38.4603","longitude":"39.1802","depth":"8.6","md":"-.-","ml":"1.0","mw":"-.-","location":"DEDEYOLU-SIVRICE (ELAZIG)"},{"date":"2020.09.07","time":"00:20:58","latitude":"34.8588","longitude":"33.7682","depth":"46.4","md":"-.-","ml":"2.3","mw":"-.-","location":"AKDENIZ"},{"date":"2020.09.06","time":"23:29:18","latitude":"39.5755","longitude":"39.7987","depth":"13.3","md":"-.-","ml":"1.7","mw":"-.-","location":"DEREKOYU-PULUMUR (TUNCELI)"},{"date":"2020.09.06","time":"23:00:59","latitude":"39.8323","longitude":"30.1603","depth":"20.9","md":"-.-","ml":"1.5","mw":"-.-","location":"INONU (ESKISEHIR)"},{"date":"2020.09.06","time":"22:06:21","latitude":"36.9943","longitude":"35.7357","depth":"8.2","md":"-.-","ml":"2.4","mw":"-.-","location":"SIRKELI-CEYHAN (ADANA)"},{"date":"2020.09.06","time":"20:58:13","latitude":"36.4523","longitude":"28.7187","depth":"8.3","md":"-.-","ml":"2.0","mw":"-.-","location":"AKDENIZ"},{"date":"2020.09.06","time":"19:48:27","latitude":"38.4330","longitude":"42.8450","depth":"7.8","md":"-.-","ml":"1.9","mw":"-.-","location":"INKOY-GEVAS (VAN)"},{"date":"2020.09.06","time":"14:59:02","latitude":"39.1135","longitude":"41.0155","depth":"2.8","md":"-.-","ml":"2.0","mw":"-.-","location":"HASANOVA-KARLIOVA (BINGOL)"},{"date":"2020.09.06","time":"13:52:31","latitude":"38.3792","longitude":"39.0323","depth":"11.5","md":"-.-","ml":"1.7","mw":"-.-","location":"DUYGULU-SIVRICE (ELAZIG)"},{"date":"2020.09.06","time":"13:38:11","latitude":"39.2942","longitude":"40.2232","depth":"6.6","md":"-.-","ml":"2.4","mw":"-.-","location":"SABIRTASI-KIGI (BINGOL)"},{"date":"2020.09.06","time":"13:35:19","latitude":"36.7717","longitude":"26.5455","depth":"4.3","md":"-.-","ml":"2.1","mw":"-.-","location":"AKDENIZ"},{"date":"2020.09.06","time":"12:45:50","latitude":"39.4383","longitude":"27.6168","depth":"13.7","md":"-.-","ml":"1.2","mw":"-.-","location":"KURUDERE-SAVASTEPE (BALIKESIR)"},{"date":"2020.09.06","time":"12:45:05","latitude":"36.8408","longitude":"26.5938","depth":"7.0","md":"-.-","ml":"2.1","mw":"-.-","location":"AKDENIZ"},{"date":"2020.09.06","time":"12:13:11","latitude":"37.0588","longitude":"27.8692","depth":"0.0","md":"-.-","ml":"1.1","mw":"-.-","location":"GURCEGIZ-MILAS (MUGLA)"},{"date":"2020.09.06","time":"12:06:24","latitude":"37.8638","longitude":"27.2345","depth":"5.9","md":"-.-","ml":"2.8","mw":"-.-","location":"KUSADASI KORFEZI (EGE DENIZI)"},{"date":"2020.09.06","time":"11:54:32","latitude":"37.1207","longitude":"27.8098","depth":"0.0","md":"-.-","ml":"1.5","mw":"-.-","location":"CIFTLIKKOY-MILAS (MUGLA)"},{"date":"2020.09.06","time":"11:51:13","latitude":"37.6500","longitude":"36.4172","depth":"9.3","md":"-.-","ml":"2.2","mw":"-.-","location":"EMIRLER-ANDIRIN (KAHRAMANMARAS)"},{"date":"2020.09.06","time":"11:50:48","latitude":"37.1027","longitude":"27.8810","depth":"0.0","md":"-.-","ml":"1.2","mw":"-.-","location":"BAYIRKOY-MILAS (MUGLA)"},{"date":"2020.09.06","time":"11:48:39","latitude":"37.1815","longitude":"27.8538","depth":"0.0","md":"-.-","ml":"1.6","mw":"-.-","location":"IKIZKOY-MILAS (MUGLA)"},{"date":"2020.09.06","time":"10:26:05","latitude":"38.0297","longitude":"34.0408","depth":"5.0","md":"-.-","ml":"2.7","mw":"-.-","location":"OBRUK-BOR (NIGDE)"},{"date":"2020.09.06","time":"10:25:04","latitude":"38.0295","longitude":"34.0942","depth":"7.6","md":"-.-","ml":"2.8","mw":"-.-","location":"KECIKALESI-ALTUNHISAR (NIGDE)"},{"date":"2020.09.06","time":"09:12:06","latitude":"40.3410","longitude":"27.4115","depth":"4.5","md":"-.-","ml":"1.6","mw":"-.-","location":"BOZLAR-BIGA (CANAKKALE)"},{"date":"2020.09.06","time":"08:51:11","latitude":"39.6838","longitude":"25.6083","depth":"4.3","md":"-.-","ml":"2.8","mw":"-.-","location":"EGE DENIZI"},{"date":"2020.09.06","time":"08:42:44","latitude":"38.4502","longitude":"39.2883","depth":"8.1","md":"-.-","ml":"2.3","mw":"-.-","location":"SIVRICE (ELAZIG)"},{"date":"2020.09.06","time":"07:42:13","latitude":"40.9737","longitude":"40.0577","depth":"6.2","md":"-.-","ml":"2.3","mw":"-.-","location":"ARAKLI (TRABZON)"},{"date":"2020.09.06","time":"07:12:23","latitude":"36.6873","longitude":"28.1930","depth":"61.5","md":"-.-","ml":"1.9","mw":"-.-","location":"BAYIR-MARMARIS (MUGLA)"},{"date":"2020.09.06","time":"05:52:56","latitude":"40.6125","longitude":"33.5038","depth":"5.0","md":"-.-","ml":"3.6","mw":"3.8","location":"SARITARLA-ELDIVAN (CANKIRI)"},{"date":"2020.09.06","time":"05:45:47","latitude":"40.3650","longitude":"29.6223","depth":"11.1","md":"-.-","ml":"2.4","mw":"-.-","location":"AYDINLAR-IZNIK (BURSA)"},{"date":"2020.09.06","time":"05:42:46","latitude":"38.4853","longitude":"25.7210","depth":"5.0","md":"-.-","ml":"2.5","mw":"-.-","location":"EGE DENIZI"},{"date":"2020.09.06","time":"05:06:00","latitude":"38.8940","longitude":"25.2463","depth":"2.6","md":"-.-","ml":"2.2","mw":"-.-","location":"EGE DENIZI"},{"date":"2020.09.06","time":"04:08:04","latitude":"38.1692","longitude":"29.6857","depth":"7.3","md":"-.-","ml":"1.6","mw":"-.-","location":"SARIBEYLI-CIVRIL (DENIZLI)"},{"date":"2020.09.06","time":"03:10:56","latitude":"38.3595","longitude":"39.1225","depth":"5.2","md":"-.-","ml":"2.4","mw":"-.-","location":"AKSEKI-SIVRICE (ELAZIG)"},{"date":"2020.09.06","time":"02:25:59","latitude":"38.9905","longitude":"26.9993","depth":"6.2","md":"-.-","ml":"2.0","mw":"-.-","location":"DEMIRTAS-DIKILI (IZMIR)"},{"date":"2020.09.06","time":"02:10:23","latitude":"36.6578","longitude":"30.5558","depth":"9.9","md":"-.-","ml":"1.9","mw":"-.-","location":"GOYNUK-KEMER (ANTALYA)"},{"date":"2020.09.06","time":"02:06:56","latitude":"37.1773","longitude":"35.4562","depth":"2.6","md":"-.-","ml":"2.1","mw":"-.-","location":"TURUNCLU-SARICAM (ADANA)"},{"date":"2020.09.06","time":"01:24:32","latitude":"37.3825","longitude":"38.6910","depth":"3.1","md":"-.-","ml":"2.9","mw":"-.-","location":"BUYUKORDEK-(SANLIURFA)"},{"date":"2020.09.06","time":"00:57:10","latitude":"38.8878","longitude":"41.3427","depth":"2.2","md":"-.-","ml":"1.5","mw":"-.-","location":"KONUKBEKLER-(MUS)"},{"date":"2020.09.05","time":"22:13:32","latitude":"37.2397","longitude":"35.4218","depth":"5.0","md":"-.-","ml":"2.2","mw":"-.-","location":"MALIHIDIRLI-IMAMOGLU (ADANA)"},{"date":"2020.09.05","time":"20:52:36","latitude":"38.2040","longitude":"29.6538","depth":"1.2","md":"-.-","ml":"2.2","mw":"-.-","location":"YASSIHUYUK-CIVRIL (DENIZLI)"},{"date":"2020.09.05","time":"20:03:10","latitude":"39.2588","longitude":"41.7403","depth":"6.0","md":"-.-","ml":"2.6","mw":"-.-","location":"TELLITEPE-HINIS (ERZURUM)"},{"date":"2020.09.05","time":"19:47:33","latitude":"35.2433","longitude":"33.2095","depth":"62.3","md":"-.-","ml":"3.3","mw":"3.4","location":"KIBRIS-TURKELI"},{"date":"2020.09.05","time":"17:55:17","latitude":"40.5212","longitude":"30.5155","depth":"13.3","md":"-.-","ml":"1.7","mw":"-.-","location":"BELPINAR-GEYVE (SAKARYA)"},{"date":"2020.09.05","time":"17:54:43","latitude":"36.4650","longitude":"28.7073","depth":"4.6","md":"-.-","ml":"1.8","mw":"-.-","location":"AKDENIZ"},{"date":"2020.09.05","time":"17:12:07","latitude":"39.3962","longitude":"24.9275","depth":"5.0","md":"-.-","ml":"2.3","mw":"-.-","location":"EGE DENIZI"},{"date":"2020.09.05","time":"15:33:48","latitude":"35.4052","longitude":"27.7158","depth":"18.8","md":"-.-","ml":"2.8","mw":"-.-","location":"AKDENIZ"},{"date":"2020.09.05","time":"15:18:47","latitude":"38.4223","longitude":"39.2872","depth":"18.8","md":"-.-","ml":"1.3","mw":"-.-","location":"YEDIKARDES-SIVRICE (ELAZIG)"},{"date":"2020.09.05","time":"15:01:14","latitude":"40.0128","longitude":"42.5562","depth":"5.7","md":"-.-","ml":"2.9","mw":"-.-","location":"BALIKLI-SARIKAMIS (KARS)"},{"date":"2020.09.05","time":"13:11:02","latitude":"37.2263","longitude":"28.1862","depth":"0.0","md":"-.-","ml":"1.9","mw":"-.-","location":"CAYBUKU-(MUGLA)"},{"date":"2020.09.05","time":"12:44:40","latitude":"37.2908","longitude":"28.1763","depth":"0.0","md":"-.-","ml":"2.2","mw":"-.-","location":"GOKPINAR-YATAGAN (MUGLA)"},{"date":"2020.09.05","time":"11:51:00","latitude":"37.3263","longitude":"27.8665","depth":"0.0","md":"-.-","ml":"1.7","mw":"-.-","location":"YUSUFCA-MILAS (MUGLA)"},{"date":"2020.09.05","time":"11:49:55","latitude":"39.0620","longitude":"27.4870","depth":"0.0","md":"-.-","ml":"1.7","mw":"-.-","location":"KALEMKOY-KINIK (IZMIR)"},{"date":"2020.09.05","time":"10:09:57","latitude":"39.5332","longitude":"26.2005","depth":"5.0","md":"-.-","ml":"1.7","mw":"-.-","location":"YUKARIKOY-AYVACIK (CANAKKALE)"},{"date":"2020.09.05","time":"09:18:22","latitude":"38.1317","longitude":"42.6217","depth":"3.5","md":"-.-","ml":"2.9","mw":"-.-","location":"DERINCE-HIZAN (BITLIS)"},{"date":"2020.09.05","time":"08:38:34","latitude":"39.0158","longitude":"27.8652","depth":"6.6","md":"-.-","ml":"2.0","mw":"-.-","location":"GOKCEAHMET-AKHISAR (MANISA)"},{"date":"2020.09.05","time":"07:27:08","latitude":"37.9542","longitude":"28.7820","depth":"3.1","md":"-.-","ml":"1.5","mw":"-.-","location":"SAVCILI-BUHARKENT (AYDIN)"},{"date":"2020.09.05","time":"06:38:59","latitude":"40.2077","longitude":"31.7408","depth":"10.4","md":"-.-","ml":"2.0","mw":"-.-","location":"HIRKATEPE-BEYPAZARI (ANKARA)"},{"date":"2020.09.05","time":"05:50:12","latitude":"37.2323","longitude":"27.8375","depth":"9.6","md":"-.-","ml":"1.7","mw":"-.-","location":"ASLANYAKA-MILAS (MUGLA)"},{"date":"2020.09.05","time":"04:01:19","latitude":"40.5605","longitude":"23.8358","depth":"5.5","md":"-.-","ml":"2.2","mw":"-.-","location":"YUNANISTAN"},{"date":"2020.09.05","time":"03:55:56","latitude":"38.2650","longitude":"38.6892","depth":"12.1","md":"-.-","ml":"1.7","mw":"-.-","location":"CAYKOY-PUTURGE (MALATYA)"},{"date":"2020.09.05","time":"03:46:03","latitude":"36.9198","longitude":"27.7880","depth":"16.0","md":"-.-","ml":"1.4","mw":"-.-","location":"GOKOVA KORFEZI (AKDENIZ)"},{"date":"2020.09.05","time":"02:52:54","latitude":"37.8202","longitude":"32.1115","depth":"5.2","md":"-.-","ml":"1.1","mw":"-.-","location":"SEFAKOY-MERAM (KONYA)"},{"date":"2020.09.05","time":"02:41:33","latitude":"38.0720","longitude":"39.9013","depth":"17.4","md":"-.-","ml":"1.7","mw":"-.-","location":"BAYKARA-KAYAPINAR (DIYARBAKIR)"},{"date":"2020.09.05","time":"02:17:56","latitude":"35.6090","longitude":"27.6235","depth":"5.0","md":"-.-","ml":"2.6","mw":"-.-","location":"AKDENIZ"},{"date":"2020.09.05","time":"01:57:36","latitude":"40.3478","longitude":"27.4055","depth":"6.2","md":"-.-","ml":"1.8","mw":"-.-","location":"BOZLAR-BIGA (CANAKKALE)"},{"date":"2020.09.05","time":"01:27:02","latitude":"34.8775","longitude":"25.2893","depth":"7.0","md":"-.-","ml":"2.9","mw":"-.-","location":"GIRIT ADASI (AKDENIZ)"},{"date":"2020.09.04","time":"23:18:02","latitude":"38.9173","longitude":"38.9872","depth":"5.0","md":"-.-","ml":"2.6","mw":"-.-","location":"YEMISDERE-CEMISGEZEK (TUNCELI)"},{"date":"2020.09.04","time":"21:59:04","latitude":"39.3683","longitude":"40.7525","depth":"14.2","md":"-.-","ml":"1.5","mw":"-.-","location":"KAYNARPINAR-KARLIOVA (BINGOL)"},{"date":"2020.09.04","time":"19:54:36","latitude":"38.4622","longitude":"39.2713","depth":"8.9","md":"-.-","ml":"1.2","mw":"-.-","location":"ALINCIK-SIVRICE (ELAZIG)"},{"date":"2020.09.04","time":"19:02:54","latitude":"38.4433","longitude":"39.2617","depth":"5.4","md":"-.-","ml":"3.5","mw":"3.5","location":"DUZBAHCE-SIVRICE (ELAZIG)"},{"date":"2020.09.04","time":"16:27:08","latitude":"39.0152","longitude":"30.1993","depth":"6.3","md":"-.-","ml":"2.6","mw":"-.-","location":"YOLCATI-ALTINTAS (KUTAHYA)"},{"date":"2020.09.04","time":"15:38:13","latitude":"36.8857","longitude":"27.5848","depth":"11.0","md":"-.-","ml":"1.9","mw":"-.-","location":"GOKOVA KORFEZI (AKDENIZ)"},{"date":"2020.09.04","time":"13:54:57","latitude":"35.7787","longitude":"28.2515","depth":"6.2","md":"-.-","ml":"2.0","mw":"-.-","location":"AKDENIZ"},{"date":"2020.09.04","time":"13:09:33","latitude":"38.5268","longitude":"26.5943","depth":"6.6","md":"-.-","ml":"1.3","mw":"-.-","location":"MORDOGAN-KARABURUN (IZMIR)"},{"date":"2020.09.04","time":"12:57:17","latitude":"39.8580","longitude":"28.8107","depth":"0.0","md":"-.-","ml":"1.5","mw":"-.-","location":"ALTINTAS-ORHANELI (BURSA)"},{"date":"2020.09.04","time":"12:55:08","latitude":"37.2258","longitude":"28.2202","depth":"0.0","md":"-.-","ml":"1.8","mw":"-.-","location":"KAFACA-(MUGLA)"},{"date":"2020.09.04","time":"12:38:48","latitude":"35.7568","longitude":"28.2260","depth":"4.8","md":"-.-","ml":"2.1","mw":"-.-","location":"AKDENIZ"},{"date":"2020.09.04","time":"11:57:39","latitude":"37.1893","longitude":"27.9082","depth":"0.0","md":"-.-","ml":"1.7","mw":"-.-","location":"KAYADERE-MILAS (MUGLA)"},{"date":"2020.09.04","time":"11:56:34","latitude":"35.2507","longitude":"33.6100","depth":"5.0","md":"-.-","ml":"1.4","mw":"-.-","location":"KIBRIS-DEGIRMENLIK"},{"date":"2020.09.04","time":"11:53:13","latitude":"37.1840","longitude":"27.8108","depth":"0.0","md":"-.-","ml":"1.6","mw":"-.-","location":"CAMKOY-MILAS (MUGLA)"},{"date":"2020.09.04","time":"11:37:06","latitude":"35.2023","longitude":"33.6005","depth":"5.1","md":"-.-","ml":"1.3","mw":"-.-","location":"KIBRIS-DEGIRMENLIK"},{"date":"2020.09.04","time":"10:55:06","latitude":"39.4558","longitude":"27.6860","depth":"40.4","md":"-.-","ml":"1.5","mw":"-.-","location":"CAMURLU-SAVASTEPE (BALIKESIR)"},{"date":"2020.09.04","time":"10:29:34","latitude":"39.2525","longitude":"27.5353","depth":"9.0","md":"-.-","ml":"2.0","mw":"-.-","location":"URUZLAR-SOMA (MANISA)"},{"date":"2020.09.04","time":"10:00:24","latitude":"37.2212","longitude":"28.1788","depth":"0.0","md":"-.-","ml":"2.2","mw":"-.-","location":"CAYBUKU-(MUGLA)"},{"date":"2020.09.04","time":"08:48:58","latitude":"35.3153","longitude":"26.7605","depth":"4.6","md":"-.-","ml":"2.3","mw":"-.-","location":"GIRIT ADASI (AKDENIZ)"},{"date":"2020.09.04","time":"06:59:08","latitude":"39.4862","longitude":"26.2402","depth":"6.1","md":"-.-","ml":"1.8","mw":"-.-","location":"BEKTAS-AYVACIK (CANAKKALE)"},{"date":"2020.09.04","time":"06:34:11","latitude":"40.3990","longitude":"28.8018","depth":"6.1","md":"-.-","ml":"1.4","mw":"-.-","location":"ZEYTINBAGI-MUDANYA (BURSA)"},{"date":"2020.09.04","time":"06:27:48","latitude":"36.9372","longitude":"27.3533","depth":"17.1","md":"-.-","ml":"1.1","mw":"-.-","location":"GOKOVA KORFEZI (AKDENIZ)"},{"date":"2020.09.04","time":"05:43:32","latitude":"37.0365","longitude":"30.3390","depth":"5.0","md":"-.-","ml":"1.8","mw":"-.-","location":"ESENYURT-KORKUTELI (ANTALYA)"},{"date":"2020.09.04","time":"05:39:29","latitude":"38.4713","longitude":"25.8227","depth":"5.0","md":"-.-","ml":"1.9","mw":"-.-","location":"SAKIZ ADASI (EGE DENIZI)"},{"date":"2020.09.04","time":"05:26:55","latitude":"35.2017","longitude":"25.9203","depth":"1.2","md":"-.-","ml":"2.3","mw":"-.-","location":"GIRIT ADASI (AKDENIZ)"},{"date":"2020.09.04","time":"05:15:49","latitude":"36.9227","longitude":"27.3440","depth":"8.7","md":"-.-","ml":"2.4","mw":"-.-","location":"GOKOVA KORFEZI (AKDENIZ)"},{"date":"2020.09.04","time":"05:15:30","latitude":"35.3840","longitude":"27.7128","depth":"19.2","md":"-.-","ml":"2.8","mw":"-.-","location":"AKDENIZ"},{"date":"2020.09.04","time":"05:01:08","latitude":"38.4442","longitude":"39.2580","depth":"14.1","md":"-.-","ml":"1.4","mw":"-.-","location":"DUZBAHCE-SIVRICE (ELAZIG)"},{"date":"2020.09.04","time":"04:54:44","latitude":"36.6510","longitude":"26.2257","depth":"9.1","md":"-.-","ml":"1.6","mw":"-.-","location":"AKDENIZ"},{"date":"2020.09.04","time":"04:38:07","latitude":"38.4608","longitude":"39.1532","depth":"12.6","md":"-.-","ml":"1.4","mw":"-.-","location":"KAVALLI-SIVRICE (ELAZIG)"},{"date":"2020.09.04","time":"02:47:08","latitude":"40.7088","longitude":"31.6633","depth":"5.0","md":"-.-","ml":"1.8","mw":"-.-","location":"ORENCIK-(BOLU)"},{"date":"2020.09.04","time":"01:41:14","latitude":"35.5497","longitude":"27.6053","depth":"6.3","md":"-.-","ml":"4.0","mw":"4.1","location":"AKDENIZ"},{"date":"2020.09.04","time":"00:54:09","latitude":"36.9388","longitude":"27.3442","depth":"3.5","md":"-.-","ml":"2.2","mw":"-.-","location":"GOKOVA KORFEZI (AKDENIZ)"},{"date":"2020.09.04","time":"00:42:52","latitude":"39.4392","longitude":"41.0953","depth":"23.5","md":"-.-","ml":"1.1","mw":"-.-","location":"BAYINDIR-CAT (ERZURUM)"},{"date":"2020.09.04","time":"00:38:58","latitude":"38.7030","longitude":"42.0450","depth":"6.2","md":"-.-","ml":"1.8","mw":"-.-","location":"YOLGOZLER-KORKUT (MUS)"},{"date":"2020.09.04","time":"00:26:04","latitude":"39.6578","longitude":"38.8383","depth":"5.0","md":"-.-","ml":"1.8","mw":"-.-","location":"GEDIKTEPE-KEMAH (ERZINCAN)"},{"date":"2020.09.04","time":"00:25:09","latitude":"39.6040","longitude":"44.0793","depth":"9.0","md":"-.-","ml":"2.1","mw":"-.-","location":"KARACA-DOGUBAYAZIT (AGRI)"},{"date":"2020.09.03","time":"23:56:53","latitude":"38.0672","longitude":"38.6010","depth":"5.2","md":"-.-","ml":"2.9","mw":"-.-","location":"SAKIZ-SINCIK (ADIYAMAN)"},{"date":"2020.09.03","time":"23:49:40","latitude":"35.7452","longitude":"28.1385","depth":"5.0","md":"-.-","ml":"1.6","mw":"-.-","location":"AKDENIZ"},{"date":"2020.09.03","time":"23:14:43","latitude":"34.3377","longitude":"26.1633","depth":"22.3","md":"-.-","ml":"2.7","mw":"-.-","location":"GIRIT ADASI ACIKLARI (AKDENIZ)"},{"date":"2020.09.03","time":"22:14:19","latitude":"37.3565","longitude":"29.6338","depth":"10.8","md":"-.-","ml":"1.8","mw":"-.-","location":"BELKAYA-TEFENNI (BURDUR)"},{"date":"2020.09.03","time":"21:41:08","latitude":"36.3148","longitude":"30.8528","depth":"6.5","md":"-.-","ml":"1.7","mw":"-.-","location":"ANTALYA KORFEZI (AKDENIZ)"},{"date":"2020.09.03","time":"21:25:44","latitude":"40.3287","longitude":"27.4487","depth":"3.7","md":"-.-","ml":"1.7","mw":"-.-","location":"GERLENGEC-BIGA (CANAKKALE)"},{"date":"2020.09.03","time":"21:18:19","latitude":"37.5240","longitude":"43.7810","depth":"8.5","md":"-.-","ml":"2.4","mw":"-.-","location":"AGACDIBI-(HAKKARI)"},{"date":"2020.09.03","time":"20:37:10","latitude":"35.5237","longitude":"27.8507","depth":"9.0","md":"-.-","ml":"2.6","mw":"-.-","location":"AKDENIZ"},{"date":"2020.09.03","time":"20:27:53","latitude":"36.7060","longitude":"27.3102","depth":"12.0","md":"-.-","ml":"2.8","mw":"-.-","location":"DATCA ACIKLARI-MUGLA (AKDENIZ)"},{"date":"2020.09.03","time":"18:55:29","latitude":"39.9287","longitude":"42.3950","depth":"15.3","md":"-.-","ml":"2.2","mw":"-.-","location":"HACIHALIL-HORASAN (ERZURUM)"},{"date":"2020.09.03","time":"18:54:35","latitude":"35.7333","longitude":"27.0570","depth":"2.0","md":"-.-","ml":"1.9","mw":"-.-","location":"AKDENIZ"},{"date":"2020.09.03","time":"18:46:14","latitude":"35.3015","longitude":"27.7605","depth":"9.7","md":"-.-","ml":"2.2","mw":"-.-","location":"AKDENIZ"},{"date":"2020.09.03","time":"18:07:34","latitude":"38.1448","longitude":"23.8682","depth":"5.0","md":"-.-","ml":"4.1","mw":"4.3","location":"YUNANISTAN"}]
