[{"date":"2020.12.27","time":"07:17:24","latitude":"37.8958","longitude":"26.6493","depth":"8.1","md":"-.-","ml":"1.7","mw":"-.-","location":"EGE DENIZI"},{"date":"2020.12.27","time":"06:37:35","latitude":"39.7253","longitude":"27.7180","depth":"8.4","md":"-.-","ml":"3.0","mw":"-.-","location":"TURPLU-(BALIKESIR)"},{"date":"2020.12.27","time":"06:34:46","latitude":"39.7257","longitude":"27.7137","depth":"6.4","md":"-.-","ml":"3.4","mw":"-.-","location":"TURPLU-(BALIKESIR)"},{"date":"2020.12.27","time":"06:27:18","latitude":"40.7675","longitude":"27.2733","depth":"17.6","md":"-.-","ml":"1.7","mw":"-.-","location":"GUZELKOY-SARKOY (TEKIRDAG)"},{"date":"2020.12.27","time":"06:01:44","latitude":"37.9305","longitude":"27.0240","depth":"5.9","md":"-.-","ml":"1.4","mw":"-.-","location":"KUSADASI KORFEZI (EGE DENIZI)"},{"date":"2020.12.27","time":"05:33:11","latitude":"37.8238","longitude":"27.0325","depth":"23.3","md":"-.-","ml":"1.1","mw":"-.-","location":"KUSADASI KORFEZI (EGE DENIZI)"},{"date":"2020.12.27","time":"04:59:19","latitude":"35.4572","longitude":"23.4545","depth":"7.1","md":"-.-","ml":"3.9","mw":"-.-","location":"GIRIT ADASI (AKDENIZ)"},{"date":"2020.12.27","time":"04:58:55","latitude":"37.9443","longitude":"27.1380","depth":"6.1","md":"-.-","ml":"1.8","mw":"-.-","location":"KUSADASI KORFEZI (EGE DENIZI)"},{"date":"2020.12.27","time":"04:57:21","latitude":"37.9563","longitude":"27.1617","depth":"6.9","md":"-.-","ml":"2.1","mw":"-.-","location":"KUSADASI KORFEZI (EGE DENIZI)"},{"date":"2020.12.27","time":"04:55:57","latitude":"37.9555","longitude":"27.1680","depth":"7.1","md":"-.-","ml":"1.7","mw":"-.-","location":"KUSADASI KORFEZI (EGE DENIZI)"},{"date":"2020.12.27","time":"04:51:18","latitude":"37.9553","longitude":"27.1172","depth":"9.1","md":"-.-","ml":"1.3","mw":"-.-","location":"KUSADASI KORFEZI (EGE DENIZI)"},{"date":"2020.12.27","time":"04:50:37","latitude":"37.9302","longitude":"27.0638","depth":"5.2","md":"-.-","ml":"1.5","mw":"-.-","location":"KUSADASI KORFEZI (EGE DENIZI)"},{"date":"2020.12.27","time":"04:47:27","latitude":"37.9250","longitude":"27.0783","depth":"7.4","md":"-.-","ml":"1.4","mw":"-.-","location":"KUSADASI KORFEZI (EGE DENIZI)"},{"date":"2020.12.27","time":"04:43:40","latitude":"40.6383","longitude":"29.0745","depth":"7.0","md":"-.-","ml":"1.7","mw":"-.-","location":"TESVIKIYE-CINARCIK (YALOVA)"},{"date":"2020.12.27","time":"04:02:48","latitude":"36.6063","longitude":"28.7193","depth":"8.4","md":"-.-","ml":"1.2","mw":"-.-","location":"DALAMAN ACIKLARI-MUGLA (AKDENIZ)"},{"date":"2020.12.27","time":"03:57:24","latitude":"37.9160","longitude":"27.0898","depth":"5.0","md":"-.-","ml":"3.1","mw":"3.2","location":"KUSADASI KORFEZI (EGE DENIZI)"},{"date":"2020.12.27","time":"03:32:15","latitude":"38.6523","longitude":"38.1435","depth":"6.3","md":"-.-","ml":"2.0","mw":"-.-","location":"FETHIYE-YAZIHAN (MALATYA)"},{"date":"2020.12.27","time":"03:05:41","latitude":"37.9262","longitude":"27.2193","depth":"6.4","md":"-.-","ml":"1.7","mw":"-.-","location":"KUSADASI KORFEZI (EGE DENIZI)"},{"date":"2020.12.27","time":"02:57:58","latitude":"38.6278","longitude":"38.1650","depth":"5.6","md":"-.-","ml":"2.5","mw":"-.-","location":"FETHIYE-YAZIHAN (MALATYA)"},{"date":"2020.12.27","time":"02:55:57","latitude":"37.9247","longitude":"27.1317","depth":"3.0","md":"-.-","ml":"1.4","mw":"-.-","location":"KUSADASI KORFEZI (EGE DENIZI)"},{"date":"2020.12.27","time":"02:53:19","latitude":"37.9072","longitude":"27.2163","depth":"8.7","md":"-.-","ml":"1.4","mw":"-.-","location":"KUSADASI KORFEZI (EGE DENIZI)"},{"date":"2020.12.27","time":"02:19:04","latitude":"40.1343","longitude":"31.7202","depth":"7.8","md":"-.-","ml":"1.9","mw":"-.-","location":"CAYIRHAN-NALLIHAN (ANKARA)"},{"date":"2020.12.27","time":"01:50:53","latitude":"37.8325","longitude":"26.9332","depth":"5.0","md":"-.-","ml":"2.9","mw":"-.-","location":"KUSADASI KORFEZI (EGE DENIZI)"},{"date":"2020.12.27","time":"01:39:32","latitude":"40.6273","longitude":"29.0937","depth":"15.9","md":"-.-","ml":"1.3","mw":"-.-","location":"TESVIKIYE-CINARCIK (YALOVA)"},{"date":"2020.12.27","time":"01:05:56","latitude":"37.7830","longitude":"29.3697","depth":"15.5","md":"-.-","ml":"1.7","mw":"-.-","location":"DERECIFTLIK-HONAZ (DENIZLI)"},{"date":"2020.12.27","time":"01:04:11","latitude":"37.6818","longitude":"26.7903","depth":"15.6","md":"-.-","ml":"1.7","mw":"-.-","location":"SISAM ADASI (EGE DENIZI)"},{"date":"2020.12.27","time":"00:48:13","latitude":"37.8908","longitude":"27.2352","depth":"12.3","md":"-.-","ml":"1.2","mw":"-.-","location":"KUSADASI KORFEZI (EGE DENIZI)"},{"date":"2020.12.27","time":"00:34:35","latitude":"37.8380","longitude":"26.7482","depth":"4.9","md":"-.-","ml":"1.8","mw":"-.-","location":"EGE DENIZI"},{"date":"2020.12.27","time":"00:23:29","latitude":"37.8413","longitude":"27.0128","depth":"8.1","md":"-.-","ml":"1.6","mw":"-.-","location":"KUSADASI KORFEZI (EGE DENIZI)"},{"date":"2020.12.27","time":"00:00:17","latitude":"37.8550","longitude":"27.0390","depth":"6.7","md":"-.-","ml":"1.4","mw":"-.-","location":"KUSADASI KORFEZI (EGE DENIZI)"},{"date":"2020.12.26","time":"23:14:46","latitude":"37.8820","longitude":"26.7993","depth":"6.2","md":"-.-","ml":"1.7","mw":"-.-","location":"EGE DENIZI"},{"date":"2020.12.26","time":"22:33:29","latitude":"34.3868","longitude":"25.9395","depth":"5.0","md":"-.-","ml":"2.7","mw":"-.-","location":"GIRIT ADASI ACIKLARI (AKDENIZ)"},{"date":"2020.12.26","time":"22:27:51","latitude":"37.4108","longitude":"30.5037","depth":"5.1","md":"-.-","ml":"1.5","mw":"-.-","location":"UZUMLUBEL-BUCAK (BURDUR)"},{"date":"2020.12.26","time":"22:10:59","latitude":"37.9197","longitude":"26.9292","depth":"7.2","md":"-.-","ml":"2.2","mw":"-.-","location":"KUSADASI KORFEZI (EGE DENIZI)"},{"date":"2020.12.26","time":"22:05:42","latitude":"38.1255","longitude":"35.8160","depth":"5.0","md":"-.-","ml":"2.4","mw":"-.-","location":"KUCUKKUNYE-DEVELI (KAYSERI)"},{"date":"2020.12.26","time":"21:48:44","latitude":"39.4485","longitude":"32.9843","depth":"8.5","md":"-.-","ml":"1.1","mw":"-.-","location":"KOCYAYLA-BALA (ANKARA)"},{"date":"2020.12.26","time":"21:44:16","latitude":"39.4567","longitude":"32.9100","depth":"5.5","md":"-.-","ml":"2.4","mw":"-.-","location":"CIMSIT-GOLBASI (ANKARA)"},{"date":"2020.12.26","time":"21:04:49","latitude":"38.4222","longitude":"44.0728","depth":"10.8","md":"-.-","ml":"1.9","mw":"-.-","location":"KARGALI-SARAY (VAN)"},{"date":"2020.12.26","time":"20:58:47","latitude":"37.8972","longitude":"27.1895","depth":"5.1","md":"-.-","ml":"1.3","mw":"-.-","location":"KUSADASI KORFEZI (EGE DENIZI)"},{"date":"2020.12.26","time":"20:35:05","latitude":"37.8237","longitude":"26.4360","depth":"12.1","md":"-.-","ml":"2.5","mw":"-.-","location":"ONIKI ADALAR (AKDENIZ)"},{"date":"2020.12.26","time":"20:31:51","latitude":"39.2835","longitude":"40.9388","depth":"6.6","md":"-.-","ml":"1.4","mw":"-.-","location":"TASLICAY-KARLIOVA (BINGOL)"},{"date":"2020.12.26","time":"20:17:39","latitude":"40.5082","longitude":"34.3455","depth":"10.5","md":"-.-","ml":"1.3","mw":"-.-","location":"YARIMCA-UGURLUDAG (CORUM)"},{"date":"2020.12.26","time":"19:57:06","latitude":"37.0418","longitude":"28.2568","depth":"9.8","md":"-.-","ml":"1.9","mw":"-.-","location":"GOKOVA KORFEZI (AKDENIZ)"},{"date":"2020.12.26","time":"19:53:23","latitude":"38.3015","longitude":"38.6292","depth":"8.8","md":"-.-","ml":"2.2","mw":"-.-","location":"ALHANUSAGI-(MALATYA)"},{"date":"2020.12.26","time":"19:52:23","latitude":"38.4878","longitude":"39.1985","depth":"5.4","md":"-.-","ml":"1.8","mw":"-.-","location":"DEDEYOLU-SIVRICE (ELAZIG)"},{"date":"2020.12.26","time":"19:36:06","latitude":"38.3055","longitude":"38.6298","depth":"1.0","md":"-.-","ml":"1.9","mw":"-.-","location":"ALHANUSAGI-(MALATYA)"},{"date":"2020.12.26","time":"19:00:24","latitude":"36.8783","longitude":"30.6127","depth":"67.7","md":"-.-","ml":"2.2","mw":"-.-","location":"KONYAALTI (ANTALYA)"},{"date":"2020.12.26","time":"18:53:55","latitude":"37.0378","longitude":"28.2472","depth":"5.0","md":"-.-","ml":"1.8","mw":"-.-","location":"GOKOVA KORFEZI (AKDENIZ)"},{"date":"2020.12.26","time":"17:03:38","latitude":"39.1337","longitude":"29.1172","depth":"11.6","md":"-.-","ml":"1.6","mw":"-.-","location":"SOGUT-SIMAV (KUTAHYA)"},{"date":"2020.12.26","time":"17:02:20","latitude":"39.0950","longitude":"27.8218","depth":"5.2","md":"-.-","ml":"2.4","mw":"-.-","location":"KARAKURT-KIRKAGAC (MANISA)"},{"date":"2020.12.26","time":"15:39:21","latitude":"38.4810","longitude":"39.1548","depth":"5.4","md":"-.-","ml":"1.8","mw":"-.-","location":"KAVALLI-SIVRICE (ELAZIG)"},{"date":"2020.12.26","time":"15:18:22","latitude":"37.8792","longitude":"26.8763","depth":"16.8","md":"-.-","ml":"1.8","mw":"-.-","location":"KUSADASI KORFEZI (EGE DENIZI)"},{"date":"2020.12.26","time":"14:44:50","latitude":"37.8673","longitude":"27.0017","depth":"6.0","md":"-.-","ml":"1.7","mw":"-.-","location":"KUSADASI KORFEZI (EGE DENIZI)"},{"date":"2020.12.26","time":"14:09:18","latitude":"38.5243","longitude":"39.2000","depth":"5.0","md":"-.-","ml":"4.0","mw":"4.1","location":"KAVAKTEPE-(ELAZIG)"},{"date":"2020.12.26","time":"13:23:35","latitude":"37.8460","longitude":"27.0315","depth":"5.2","md":"-.-","ml":"2.3","mw":"-.-","location":"KUSADASI KORFEZI (EGE DENIZI)"},{"date":"2020.12.26","time":"13:04:37","latitude":"37.9943","longitude":"42.9190","depth":"5.0","md":"-.-","ml":"2.8","mw":"-.-","location":"KORULU-CATAK (VAN)"},{"date":"2020.12.26","time":"12:31:18","latitude":"38.0033","longitude":"42.9655","depth":"5.0","md":"-.-","ml":"3.8","mw":"3.9","location":"KORULU-CATAK (VAN)"},{"date":"2020.12.26","time":"10:15:57","latitude":"36.9543","longitude":"28.0360","depth":"12.9","md":"-.-","ml":"1.8","mw":"-.-","location":"GOKOVA KORFEZI (AKDENIZ)"},{"date":"2020.12.26","time":"09:13:56","latitude":"37.9245","longitude":"29.1473","depth":"0.0","md":"-.-","ml":"2.1","mw":"-.-","location":"YENIKOY-(DENIZLI)"},{"date":"2020.12.26","time":"09:02:31","latitude":"37.8218","longitude":"26.9903","depth":"15.0","md":"-.-","ml":"1.9","mw":"-.-","location":"KUSADASI KORFEZI (EGE DENIZI)"},{"date":"2020.12.26","time":"08:11:58","latitude":"38.4883","longitude":"39.1558","depth":"5.0","md":"-.-","ml":"1.5","mw":"-.-","location":"KAVALLI-SIVRICE (ELAZIG)"},{"date":"2020.12.26","time":"07:12:19","latitude":"38.3382","longitude":"38.8737","depth":"6.7","md":"-.-","ml":"1.4","mw":"-.-","location":"AKCA-KALE (MALATYA)"},{"date":"2020.12.26","time":"07:11:11","latitude":"37.8805","longitude":"27.1477","depth":"5.6","md":"-.-","ml":"1.8","mw":"-.-","location":"KUSADASI KORFEZI (EGE DENIZI)"},{"date":"2020.12.26","time":"07:02:30","latitude":"36.6958","longitude":"26.8642","depth":"136.2","md":"-.-","ml":"2.7","mw":"-.-","location":"KOS ADASI (AKDENIZ)"},{"date":"2020.12.26","time":"06:57:46","latitude":"37.9532","longitude":"26.9760","depth":"5.4","md":"-.-","ml":"1.5","mw":"-.-","location":"KUSADASI KORFEZI (EGE DENIZI)"},{"date":"2020.12.26","time":"06:52:58","latitude":"36.9360","longitude":"28.0518","depth":"11.9","md":"-.-","ml":"1.4","mw":"-.-","location":"GOKOVA KORFEZI (AKDENIZ)"},{"date":"2020.12.26","time":"06:48:44","latitude":"38.1147","longitude":"42.8457","depth":"5.0","md":"-.-","ml":"1.9","mw":"-.-","location":"UNLUCE-BAHCESARAY (VAN)"},{"date":"2020.12.26","time":"06:30:20","latitude":"37.2573","longitude":"30.9155","depth":"96.0","md":"-.-","ml":"1.7","mw":"-.-","location":"BOZDOGAN-SERIK (ANTALYA)"},{"date":"2020.12.26","time":"05:21:55","latitude":"39.0907","longitude":"35.9443","depth":"5.4","md":"-.-","ml":"2.2","mw":"-.-","location":"SARIOGLAN (KAYSERI)"},{"date":"2020.12.26","time":"05:17:57","latitude":"37.8608","longitude":"26.9092","depth":"6.6","md":"-.-","ml":"1.7","mw":"-.-","location":"KUSADASI KORFEZI (EGE DENIZI)"},{"date":"2020.12.26","time":"05:17:29","latitude":"38.0942","longitude":"42.8730","depth":"5.0","md":"-.-","ml":"2.5","mw":"-.-","location":"UNLUCE-BAHCESARAY (VAN)"},{"date":"2020.12.26","time":"05:13:51","latitude":"38.0783","longitude":"42.8903","depth":"5.0","md":"-.-","ml":"2.2","mw":"-.-","location":"ALTINDERE-BAHCESARAY (VAN)"},{"date":"2020.12.26","time":"04:54:43","latitude":"37.8643","longitude":"26.9470","depth":"6.5","md":"-.-","ml":"2.1","mw":"-.-","location":"KUSADASI KORFEZI (EGE DENIZI)"},{"date":"2020.12.26","time":"03:52:06","latitude":"38.2435","longitude":"29.7962","depth":"5.2","md":"-.-","ml":"1.7","mw":"-.-","location":"INCEKOY-CIVRIL (DENIZLI)"},{"date":"2020.12.26","time":"03:37:47","latitude":"37.7970","longitude":"27.1408","depth":"7.0","md":"-.-","ml":"1.8","mw":"-.-","location":"KUSADASI KORFEZI (EGE DENIZI)"},{"date":"2020.12.26","time":"03:31:05","latitude":"37.8182","longitude":"26.9472","depth":"7.9","md":"-.-","ml":"1.5","mw":"-.-","location":"KUSADASI KORFEZI (EGE DENIZI)"},{"date":"2020.12.26","time":"03:23:21","latitude":"38.9788","longitude":"42.7252","depth":"28.7","md":"-.-","ml":"1.7","mw":"-.-","location":"ONBASILAR-PATNOS (AGRI)"},{"date":"2020.12.26","time":"02:48:56","latitude":"37.8872","longitude":"26.8595","depth":"2.2","md":"-.-","ml":"1.7","mw":"-.-","location":"KUSADASI KORFEZI (EGE DENIZI)"},{"date":"2020.12.26","time":"02:47:46","latitude":"39.0530","longitude":"27.8617","depth":"7.7","md":"-.-","ml":"1.8","mw":"-.-","location":"MUSALAR-AKHISAR (MANISA)"},{"date":"2020.12.26","time":"01:48:03","latitude":"37.6935","longitude":"26.9500","depth":"11.1","md":"-.-","ml":"1.7","mw":"-.-","location":"SISAM ADASI (EGE DENIZI)"},{"date":"2020.12.26","time":"01:41:27","latitude":"37.9365","longitude":"26.6870","depth":"7.0","md":"-.-","ml":"2.9","mw":"-.-","location":"EGE DENIZI"},{"date":"2020.12.26","time":"01:35:24","latitude":"37.6138","longitude":"30.6610","depth":"5.0","md":"-.-","ml":"3.1","mw":"3.3","location":"YUMRUTAS-AGLASUN (BURDUR)"},{"date":"2020.12.26","time":"01:07:33","latitude":"38.3690","longitude":"39.2207","depth":"11.7","md":"-.-","ml":"1.0","mw":"-.-","location":"DOGANSU-SIVRICE (ELAZIG)"},{"date":"2020.12.26","time":"01:06:35","latitude":"37.8567","longitude":"26.9598","depth":"3.7","md":"-.-","ml":"3.0","mw":"3.0","location":"KUSADASI KORFEZI (EGE DENIZI)"},{"date":"2020.12.26","time":"00:38:55","latitude":"38.0410","longitude":"26.1655","depth":"5.0","md":"-.-","ml":"2.5","mw":"-.-","location":"EGE DENIZI"},{"date":"2020.12.26","time":"00:35:16","latitude":"37.8073","longitude":"26.3805","depth":"9.6","md":"-.-","ml":"1.8","mw":"-.-","location":"ONIKI ADALAR (AKDENIZ)"},{"date":"2020.12.26","time":"00:24:58","latitude":"38.2650","longitude":"38.7885","depth":"5.0","md":"-.-","ml":"1.9","mw":"-.-","location":"KARSIYAKA-PUTURGE (MALATYA)"},{"date":"2020.12.25","time":"23:11:55","latitude":"38.3552","longitude":"39.0775","depth":"14.2","md":"-.-","ml":"1.2","mw":"-.-","location":"DOGANBAGI-SIVRICE (ELAZIG)"},{"date":"2020.12.25","time":"22:41:51","latitude":"37.8870","longitude":"26.9353","depth":"9.5","md":"-.-","ml":"1.5","mw":"-.-","location":"KUSADASI KORFEZI (EGE DENIZI)"},{"date":"2020.12.25","time":"22:02:21","latitude":"38.2868","longitude":"38.9148","depth":"21.2","md":"-.-","ml":"1.3","mw":"-.-","location":"TOSUNLU-PUTURGE (MALATYA)"},{"date":"2020.12.25","time":"21:58:34","latitude":"39.0462","longitude":"29.6455","depth":"21.9","md":"-.-","ml":"1.7","mw":"-.-","location":"GOYNUK-GEDIZ (KUTAHYA)"},{"date":"2020.12.25","time":"21:42:45","latitude":"37.8667","longitude":"26.9532","depth":"9.4","md":"-.-","ml":"1.8","mw":"-.-","location":"KUSADASI KORFEZI (EGE DENIZI)"},{"date":"2020.12.25","time":"20:36:25","latitude":"38.9772","longitude":"37.9647","depth":"29.4","md":"-.-","ml":"1.2","mw":"-.-","location":"CIMENLIK-HEKIMHAN (MALATYA)"},{"date":"2020.12.25","time":"19:58:24","latitude":"38.2835","longitude":"38.5468","depth":"3.9","md":"-.-","ml":"1.7","mw":"-.-","location":"TOKLUCA (MALATYA)"},{"date":"2020.12.25","time":"19:46:49","latitude":"39.3155","longitude":"33.1548","depth":"2.2","md":"-.-","ml":"2.1","mw":"-.-","location":"SUYUGUZEL-BALA (ANKARA)"},{"date":"2020.12.25","time":"19:39:00","latitude":"37.9043","longitude":"26.9253","depth":"17.2","md":"-.-","ml":"1.7","mw":"-.-","location":"KUSADASI KORFEZI (EGE DENIZI)"},{"date":"2020.12.25","time":"19:34:59","latitude":"37.8627","longitude":"28.1565","depth":"37.4","md":"-.-","ml":"1.4","mw":"-.-","location":"KABACA-SULTANHISAR (AYDIN)"},{"date":"2020.12.25","time":"19:27:37","latitude":"37.8293","longitude":"26.8537","depth":"8.4","md":"-.-","ml":"1.7","mw":"-.-","location":"SISAM ADASI (EGE DENIZI)"},{"date":"2020.12.25","time":"18:01:48","latitude":"38.3438","longitude":"25.7470","depth":"10.4","md":"-.-","ml":"2.5","mw":"-.-","location":"EGE DENIZI"},{"date":"2020.12.25","time":"17:01:27","latitude":"40.8317","longitude":"31.1650","depth":"15.3","md":"-.-","ml":"1.6","mw":"-.-","location":"DUZCE"},{"date":"2020.12.25","time":"16:25:44","latitude":"40.1682","longitude":"28.8422","depth":"0.0","md":"-.-","ml":"1.4","mw":"-.-","location":"TAHTALI-NILUFER (BURSA)"},{"date":"2020.12.25","time":"16:24:30","latitude":"36.5667","longitude":"31.8445","depth":"8.7","md":"-.-","ml":"1.6","mw":"-.-","location":"PAYALLAR-ALANYA (ANTALYA)"},{"date":"2020.12.25","time":"15:25:51","latitude":"40.2083","longitude":"30.8545","depth":"7.0","md":"-.-","ml":"1.9","mw":"-.-","location":"AHMETBEYLER-GOYNUK (BOLU)"},{"date":"2020.12.25","time":"15:23:23","latitude":"40.2643","longitude":"30.7483","depth":"7.1","md":"-.-","ml":"1.7","mw":"-.-","location":"CAYKOY-GOYNUK (BOLU)"},{"date":"2020.12.25","time":"14:17:44","latitude":"38.3062","longitude":"38.8528","depth":"3.7","md":"-.-","ml":"2.0","mw":"-.-","location":"GUNDEGER-PUTURGE (MALATYA)"},{"date":"2020.12.25","time":"14:04:21","latitude":"38.3027","longitude":"38.9095","depth":"16.7","md":"-.-","ml":"1.8","mw":"-.-","location":"CIGIRLI-PUTURGE (MALATYA)"},{"date":"2020.12.25","time":"14:03:53","latitude":"37.6033","longitude":"31.9493","depth":"5.3","md":"-.-","ml":"2.0","mw":"-.-","location":"CAVUS-SEYDISEHIR (KONYA)"},{"date":"2020.12.25","time":"13:49:26","latitude":"38.2043","longitude":"38.4960","depth":"23.4","md":"-.-","ml":"1.8","mw":"-.-","location":"GULUMUSAGI (MALATYA)"},{"date":"2020.12.25","time":"13:40:44","latitude":"38.1780","longitude":"38.9168","depth":"7.9","md":"-.-","ml":"2.3","mw":"-.-","location":"ORNEKKOY-PUTURGE (MALATYA)"},{"date":"2020.12.25","time":"13:34:06","latitude":"37.9915","longitude":"27.0735","depth":"9.4","md":"-.-","ml":"2.3","mw":"-.-","location":"KUSADASI KORFEZI (EGE DENIZI)"},{"date":"2020.12.25","time":"13:32:37","latitude":"36.9137","longitude":"34.5765","depth":"0.0","md":"-.-","ml":"2.0","mw":"-.-","location":"DORUKLU-TOROSLAR (MERSIN)"},{"date":"2020.12.25","time":"12:59:41","latitude":"39.3027","longitude":"40.9838","depth":"4.5","md":"-.-","ml":"2.2","mw":"-.-","location":"KARLIOVA (BINGOL)"},{"date":"2020.12.25","time":"12:22:55","latitude":"37.2873","longitude":"33.5063","depth":"14.2","md":"-.-","ml":"1.6","mw":"-.-","location":"DOKUZYOL-AYRANCI (KARAMAN)"},{"date":"2020.12.25","time":"12:18:24","latitude":"39.0503","longitude":"27.5200","depth":"0.0","md":"-.-","ml":"1.1","mw":"-.-","location":"KALEMKOY-KINIK (IZMIR)"},{"date":"2020.12.25","time":"12:02:07","latitude":"36.9205","longitude":"37.3142","depth":"0.0","md":"-.-","ml":"1.8","mw":"-.-","location":"ALMALI-SAHINBEY (GAZIANTEP)"},{"date":"2020.12.25","time":"11:55:43","latitude":"39.6577","longitude":"35.0630","depth":"5.7","md":"-.-","ml":"1.4","mw":"-.-","location":"ALCI-SORGUN (YOZGAT)"},{"date":"2020.12.25","time":"11:53:35","latitude":"37.1873","longitude":"37.1203","depth":"0.0","md":"-.-","ml":"1.8","mw":"-.-","location":"ISKENDERLI-SEHITKAMIL (GAZIANTEP)"},{"date":"2020.12.25","time":"11:50:37","latitude":"37.2522","longitude":"37.1115","depth":"0.0","md":"-.-","ml":"1.9","mw":"-.-","location":"COCELLI-PAZARCIK (KAHRAMANMARAS)"},{"date":"2020.12.25","time":"11:36:13","latitude":"40.3887","longitude":"26.6095","depth":"26.9","md":"-.-","ml":"0.8","mw":"-.-","location":"CEVIZLI-GELIBOLU (CANAKKALE)"},{"date":"2020.12.25","time":"11:15:26","latitude":"38.2768","longitude":"39.9125","depth":"27.7","md":"-.-","ml":"1.7","mw":"-.-","location":"SOLEN-ERGANI (DIYARBAKIR)"},{"date":"2020.12.25","time":"10:44:11","latitude":"39.9278","longitude":"27.0440","depth":"15.2","md":"-.-","ml":"2.0","mw":"-.-","location":"OZANCIK-CAN (CANAKKALE)"},{"date":"2020.12.25","time":"09:05:13","latitude":"37.8917","longitude":"26.9135","depth":"7.6","md":"-.-","ml":"2.1","mw":"-.-","location":"KUSADASI KORFEZI (EGE DENIZI)"},{"date":"2020.12.25","time":"08:29:36","latitude":"37.9032","longitude":"26.9217","depth":"5.4","md":"-.-","ml":"1.5","mw":"-.-","location":"KUSADASI KORFEZI (EGE DENIZI)"},{"date":"2020.12.25","time":"07:41:56","latitude":"37.6817","longitude":"28.3667","depth":"22.3","md":"-.-","ml":"1.6","mw":"-.-","location":"YAZIKENT-BOZDOGAN (AYDIN)"},{"date":"2020.12.25","time":"07:30:25","latitude":"37.4258","longitude":"27.2102","depth":"16.5","md":"-.-","ml":"1.5","mw":"-.-","location":"YALIKOY-DIDIM (AYDIN)"},{"date":"2020.12.25","time":"07:08:44","latitude":"40.6310","longitude":"27.3460","depth":"11.4","md":"-.-","ml":"1.5","mw":"-.-","location":"MUREFTE ACIKLARI-TEKIRDAG (MARMARA DENIZI)"},{"date":"2020.12.25","time":"04:57:35","latitude":"37.8693","longitude":"26.8542","depth":"2.1","md":"-.-","ml":"2.2","mw":"-.-","location":"KUSADASI KORFEZI (EGE DENIZI)"},{"date":"2020.12.25","time":"04:51:27","latitude":"39.1198","longitude":"41.3937","depth":"5.4","md":"-.-","ml":"2.9","mw":"-.-","location":"KARAMESE-VARTO (MUS)"},{"date":"2020.12.25","time":"04:34:27","latitude":"37.4533","longitude":"27.0372","depth":"11.2","md":"-.-","ml":"1.6","mw":"-.-","location":"AKKOY ACIKLARI-AYDIN (EGE DENIZI)"},{"date":"2020.12.25","time":"04:19:30","latitude":"37.8838","longitude":"26.8632","depth":"14.8","md":"-.-","ml":"1.7","mw":"-.-","location":"KUSADASI KORFEZI (EGE DENIZI)"},{"date":"2020.12.25","time":"02:49:01","latitude":"37.8378","longitude":"26.9988","depth":"14.2","md":"-.-","ml":"1.5","mw":"-.-","location":"KUSADASI KORFEZI (EGE DENIZI)"},{"date":"2020.12.25","time":"02:19:42","latitude":"37.8143","longitude":"26.9160","depth":"10.5","md":"-.-","ml":"1.4","mw":"-.-","location":"SISAM ADASI (EGE DENIZI)"},{"date":"2020.12.25","time":"02:04:16","latitude":"37.8648","longitude":"26.9058","depth":"8.9","md":"-.-","ml":"2.4","mw":"-.-","location":"KUSADASI KORFEZI (EGE DENIZI)"},{"date":"2020.12.25","time":"01:46:49","latitude":"37.8980","longitude":"26.9357","depth":"10.2","md":"-.-","ml":"1.8","mw":"-.-","location":"KUSADASI KORFEZI (EGE DENIZI)"},{"date":"2020.12.25","time":"01:42:36","latitude":"37.8983","longitude":"26.9390","depth":"11.6","md":"-.-","ml":"1.5","mw":"-.-","location":"KUSADASI KORFEZI (EGE DENIZI)"},{"date":"2020.12.25","time":"01:31:24","latitude":"37.9330","longitude":"27.1168","depth":"9.8","md":"-.-","ml":"1.7","mw":"-.-","location":"KUSADASI KORFEZI (EGE DENIZI)"},{"date":"2020.12.25","time":"00:27:27","latitude":"38.2260","longitude":"38.8717","depth":"10.8","md":"-.-","ml":"2.3","mw":"-.-","location":"ORMELI-PUTURGE (MALATYA)"},{"date":"2020.12.25","time":"00:12:25","latitude":"37.4257","longitude":"27.2165","depth":"15.5","md":"-.-","ml":"1.4","mw":"-.-","location":"YALIKOY-DIDIM (AYDIN)"},{"date":"2020.12.25","time":"00:01:44","latitude":"37.8557","longitude":"27.0123","depth":"1.9","md":"-.-","ml":"1.2","mw":"-.-","location":"KUSADASI KORFEZI (EGE DENIZI)"},{"date":"2020.12.24","time":"23:18:47","latitude":"37.0343","longitude":"28.1033","depth":"9.2","md":"-.-","ml":"2.5","mw":"-.-","location":"SARNICKOY (MUGLA)"},{"date":"2020.12.24","time":"23:04:16","latitude":"37.9328","longitude":"27.7100","depth":"11.5","md":"-.-","ml":"1.7","mw":"-.-","location":"EGREK-INCIRLIOVA (AYDIN)"},{"date":"2020.12.24","time":"22:58:48","latitude":"40.3563","longitude":"28.9520","depth":"12.1","md":"-.-","ml":"1.8","mw":"-.-","location":"ALTINTAS-MUDANYA (BURSA)"},{"date":"2020.12.24","time":"22:57:01","latitude":"37.8527","longitude":"26.8758","depth":"20.3","md":"-.-","ml":"1.2","mw":"-.-","location":"KUSADASI KORFEZI (EGE DENIZI)"},{"date":"2020.12.24","time":"22:31:58","latitude":"38.9215","longitude":"43.5272","depth":"7.6","md":"-.-","ml":"1.9","mw":"-.-","location":"COLPAN (VAN)"},{"date":"2020.12.24","time":"22:12:19","latitude":"37.8435","longitude":"26.8472","depth":"11.7","md":"-.-","ml":"1.5","mw":"-.-","location":"SISAM ADASI (EGE DENIZI)"},{"date":"2020.12.24","time":"21:25:59","latitude":"35.6973","longitude":"26.2525","depth":"6.2","md":"-.-","ml":"2.7","mw":"-.-","location":"AKDENIZ"},{"date":"2020.12.24","time":"21:04:59","latitude":"36.4270","longitude":"23.5955","depth":"8.6","md":"-.-","ml":"2.7","mw":"-.-","location":"YUNANISTAN"},{"date":"2020.12.24","time":"20:12:30","latitude":"37.8352","longitude":"26.8300","depth":"5.0","md":"-.-","ml":"2.7","mw":"-.-","location":"SISAM ADASI (EGE DENIZI)"},{"date":"2020.12.24","time":"20:05:24","latitude":"34.4328","longitude":"25.1798","depth":"21.1","md":"-.-","ml":"2.8","mw":"-.-","location":"GIRIT ADASI ACIKLARI (AKDENIZ)"},{"date":"2020.12.24","time":"19:54:23","latitude":"37.7833","longitude":"26.8830","depth":"5.4","md":"-.-","ml":"1.5","mw":"-.-","location":"SISAM ADASI (EGE DENIZI)"},{"date":"2020.12.24","time":"17:38:08","latitude":"38.0212","longitude":"27.1425","depth":"16.9","md":"-.-","ml":"1.7","mw":"-.-","location":"CILE-MENDERES (IZMIR)"},{"date":"2020.12.24","time":"17:22:55","latitude":"40.2525","longitude":"36.4457","depth":"5.0","md":"-.-","ml":"1.3","mw":"-.-","location":"ALANKOY (TOKAT)"},{"date":"2020.12.24","time":"16:56:16","latitude":"40.3635","longitude":"27.4333","depth":"6.3","md":"-.-","ml":"2.4","mw":"-.-","location":"BOZLAR-BIGA (CANAKKALE)"},{"date":"2020.12.24","time":"16:09:10","latitude":"36.5407","longitude":"28.7030","depth":"18.7","md":"-.-","ml":"2.6","mw":"-.-","location":"AKDENIZ"},{"date":"2020.12.24","time":"16:08:15","latitude":"36.6105","longitude":"28.6845","depth":"15.0","md":"-.-","ml":"2.1","mw":"-.-","location":"DALAMAN ACIKLARI-MUGLA (AKDENIZ)"},{"date":"2020.12.24","time":"14:47:52","latitude":"38.3705","longitude":"31.7318","depth":"26.9","md":"-.-","ml":"1.2","mw":"-.-","location":"KOKLUCE-TUZLUKCU (KONYA)"},{"date":"2020.12.24","time":"14:23:51","latitude":"39.7958","longitude":"33.1763","depth":"12.1","md":"-.-","ml":"1.8","mw":"-.-","location":"TABURLAR-ELMADAG (ANKARA)"},{"date":"2020.12.24","time":"14:21:13","latitude":"37.5625","longitude":"26.9203","depth":"26.2","md":"-.-","ml":"1.8","mw":"-.-","location":"EGE DENIZI"},{"date":"2020.12.24","time":"14:11:13","latitude":"39.4347","longitude":"40.3450","depth":"7.1","md":"-.-","ml":"2.1","mw":"-.-","location":"KABAYEL-YEDISU (BINGOL)"},{"date":"2020.12.24","time":"14:03:44","latitude":"37.8020","longitude":"26.9920","depth":"17.7","md":"-.-","ml":"1.5","mw":"-.-","location":"KUSADASI KORFEZI (EGE DENIZI)"},{"date":"2020.12.24","time":"13:22:24","latitude":"36.5297","longitude":"28.6495","depth":"9.9","md":"-.-","ml":"2.8","mw":"-.-","location":"AKDENIZ"},{"date":"2020.12.24","time":"12:28:40","latitude":"37.3222","longitude":"31.9517","depth":"0.0","md":"-.-","ml":"1.9","mw":"-.-","location":"SUSUZ-SEYDISEHIR (KONYA)"},{"date":"2020.12.24","time":"12:09:08","latitude":"39.8137","longitude":"26.2397","depth":"0.0","md":"-.-","ml":"1.0","mw":"-.-","location":"MECIDIYE-EZINE (CANAKKALE)"},{"date":"2020.12.24","time":"11:46:50","latitude":"37.2318","longitude":"28.2302","depth":"0.0","md":"-.-","ml":"1.4","mw":"-.-","location":"KAFACA (MUGLA)"},{"date":"2020.12.24","time":"08:58:00","latitude":"37.7173","longitude":"27.0698","depth":"5.7","md":"-.-","ml":"2.1","mw":"-.-","location":"KUSADASI KORFEZI (EGE DENIZI)"},{"date":"2020.12.24","time":"08:37:23","latitude":"39.2030","longitude":"27.8355","depth":"6.7","md":"-.-","ml":"2.2","mw":"-.-","location":"ALACALAR-KIRKAGAC (MANISA)"},{"date":"2020.12.24","time":"08:07:14","latitude":"37.8845","longitude":"26.8382","depth":"7.9","md":"-.-","ml":"1.7","mw":"-.-","location":"EGE DENIZI"},{"date":"2020.12.24","time":"07:46:04","latitude":"37.8605","longitude":"26.9765","depth":"9.5","md":"-.-","ml":"1.7","mw":"-.-","location":"KUSADASI KORFEZI (EGE DENIZI)"},{"date":"2020.12.24","time":"07:20:24","latitude":"37.8923","longitude":"26.9110","depth":"6.9","md":"-.-","ml":"1.8","mw":"-.-","location":"KUSADASI KORFEZI (EGE DENIZI)"},{"date":"2020.12.24","time":"06:58:33","latitude":"39.3910","longitude":"40.2805","depth":"5.0","md":"-.-","ml":"2.9","mw":"-.-","location":"SAMPASAKARADERBENDI-PULUMUR (TUNCELI)"},{"date":"2020.12.24","time":"05:59:06","latitude":"37.8398","longitude":"27.0418","depth":"21.2","md":"-.-","ml":"1.2","mw":"-.-","location":"KUSADASI KORFEZI (EGE DENIZI)"},{"date":"2020.12.24","time":"05:55:32","latitude":"37.8960","longitude":"26.7362","depth":"4.9","md":"-.-","ml":"1.6","mw":"-.-","location":"EGE DENIZI"},{"date":"2020.12.24","time":"05:38:03","latitude":"37.8508","longitude":"27.0067","depth":"5.3","md":"-.-","ml":"1.9","mw":"-.-","location":"KUSADASI KORFEZI (EGE DENIZI)"},{"date":"2020.12.24","time":"05:19:10","latitude":"39.1880","longitude":"27.3570","depth":"5.8","md":"-.-","ml":"1.7","mw":"-.-","location":"ZAGNOS-BERGAMA (IZMIR)"},{"date":"2020.12.24","time":"04:37:00","latitude":"37.3075","longitude":"36.2692","depth":"5.1","md":"-.-","ml":"1.7","mw":"-.-","location":"CERCIOGLU-DUZICI (OSMANIYE)"},{"date":"2020.12.24","time":"03:43:41","latitude":"37.1448","longitude":"36.9825","depth":"7.9","md":"-.-","ml":"1.9","mw":"-.-","location":"IKIZKUYU-NURDAGI (GAZIANTEP)"},{"date":"2020.12.24","time":"03:39:51","latitude":"38.4453","longitude":"44.3583","depth":"5.0","md":"-.-","ml":"1.8","mw":"-.-","location":"TURKIYE-IRAN SINIR BOLGESI"},{"date":"2020.12.24","time":"03:11:01","latitude":"40.5757","longitude":"27.9997","depth":"8.0","md":"-.-","ml":"1.6","mw":"-.-","location":"ERDEK ACIKLARI-BALIKESIR (MARMARA DENIZI)"},{"date":"2020.12.24","time":"03:08:49","latitude":"37.9328","longitude":"27.1042","depth":"5.3","md":"-.-","ml":"1.7","mw":"-.-","location":"KUSADASI KORFEZI (EGE DENIZI)"},{"date":"2020.12.24","time":"02:58:38","latitude":"37.9200","longitude":"27.0783","depth":"5.3","md":"-.-","ml":"1.5","mw":"-.-","location":"KUSADASI KORFEZI (EGE DENIZI)"},{"date":"2020.12.24","time":"02:53:42","latitude":"37.9345","longitude":"27.1110","depth":"7.7","md":"-.-","ml":"3.2","mw":"3.0","location":"KUSADASI KORFEZI (EGE DENIZI)"},{"date":"2020.12.24","time":"02:29:00","latitude":"36.4970","longitude":"27.7795","depth":"10.5","md":"-.-","ml":"2.6","mw":"-.-","location":"AKDENIZ"},{"date":"2020.12.24","time":"01:46:34","latitude":"39.0078","longitude":"27.9015","depth":"8.0","md":"-.-","ml":"1.6","mw":"-.-","location":"YENICE-AKHISAR (MANISA)"},{"date":"2020.12.24","time":"01:34:27","latitude":"39.0097","longitude":"27.8785","depth":"6.5","md":"-.-","ml":"2.0","mw":"-.-","location":"DINGILLER-AKHISAR (MANISA)"},{"date":"2020.12.24","time":"00:47:06","latitude":"36.4952","longitude":"28.7158","depth":"12.7","md":"-.-","ml":"1.6","mw":"-.-","location":"AKDENIZ"},{"date":"2020.12.24","time":"00:45:20","latitude":"36.5642","longitude":"28.7453","depth":"15.1","md":"-.-","ml":"1.3","mw":"-.-","location":"DALAMAN ACIKLARI-MUGLA (AKDENIZ)"},{"date":"2020.12.24","time":"00:28:27","latitude":"36.5083","longitude":"28.7260","depth":"9.8","md":"-.-","ml":"1.4","mw":"-.-","location":"AKDENIZ"},{"date":"2020.12.24","time":"00:23:50","latitude":"36.4157","longitude":"28.6400","depth":"8.4","md":"-.-","ml":"1.9","mw":"-.-","location":"AKDENIZ"},{"date":"2020.12.24","time":"00:20:49","latitude":"36.5238","longitude":"28.7093","depth":"16.9","md":"-.-","ml":"1.5","mw":"-.-","location":"AKDENIZ"},{"date":"2020.12.24","time":"00:20:03","latitude":"37.7815","longitude":"26.8180","depth":"12.6","md":"-.-","ml":"1.7","mw":"-.-","location":"SISAM ADASI (EGE DENIZI)"},{"date":"2020.12.24","time":"00:14:48","latitude":"36.5075","longitude":"28.6750","depth":"15.3","md":"-.-","ml":"2.8","mw":"-.-","location":"AKDENIZ"},{"date":"2020.12.24","time":"00:13:42","latitude":"36.5157","longitude":"28.6877","depth":"14.0","md":"-.-","ml":"3.8","mw":"3.7","location":"AKDENIZ"},{"date":"2020.12.24","time":"00:09:18","latitude":"36.5405","longitude":"28.6725","depth":"9.0","md":"-.-","ml":"2.4","mw":"-.-","location":"AKDENIZ"},{"date":"2020.12.24","time":"00:08:07","latitude":"36.6515","longitude":"28.5108","depth":"8.8","md":"-.-","ml":"2.2","mw":"-.-","location":"DALYAN ACIKLARI-MUGLA (AKDENIZ)"},{"date":"2020.12.24","time":"00:07:15","latitude":"36.5338","longitude":"28.7005","depth":"12.2","md":"-.-","ml":"2.6","mw":"-.-","location":"AKDENIZ"},{"date":"2020.12.24","time":"00:06:55","latitude":"37.8012","longitude":"26.8475","depth":"15.5","md":"-.-","ml":"2.0","mw":"-.-","location":"SISAM ADASI (EGE DENIZI)"},{"date":"2020.12.24","time":"00:03:31","latitude":"36.5927","longitude":"28.7225","depth":"8.4","md":"-.-","ml":"1.8","mw":"-.-","location":"DALAMAN ACIKLARI-MUGLA (AKDENIZ)"},{"date":"2020.12.24","time":"00:01:39","latitude":"37.8547","longitude":"26.9500","depth":"3.0","md":"-.-","ml":"1.7","mw":"-.-","location":"KUSADASI KORFEZI (EGE DENIZI)"},{"date":"2020.12.23","time":"23:55:49","latitude":"37.8155","longitude":"26.8708","depth":"7.7","md":"-.-","ml":"2.3","mw":"-.-","location":"SISAM ADASI (EGE DENIZI)"},{"date":"2020.12.23","time":"23:46:54","latitude":"37.9098","longitude":"26.6078","depth":"5.7","md":"-.-","ml":"2.0","mw":"-.-","location":"EGE DENIZI"},{"date":"2020.12.23","time":"23:22:45","latitude":"37.9478","longitude":"26.3752","depth":"1.7","md":"-.-","ml":"2.9","mw":"-.-","location":"EGE DENIZI"},{"date":"2020.12.23","time":"22:42:04","latitude":"37.8260","longitude":"26.7217","depth":"5.0","md":"-.-","ml":"2.2","mw":"-.-","location":"EGE DENIZI"},{"date":"2020.12.23","time":"22:41:16","latitude":"37.9350","longitude":"27.1083","depth":"8.6","md":"-.-","ml":"1.8","mw":"-.-","location":"KUSADASI KORFEZI (EGE DENIZI)"},{"date":"2020.12.23","time":"22:37:27","latitude":"36.5570","longitude":"28.7110","depth":"16.1","md":"-.-","ml":"1.9","mw":"-.-","location":"AKDENIZ"},{"date":"2020.12.23","time":"22:25:15","latitude":"39.1032","longitude":"41.9838","depth":"8.5","md":"-.-","ml":"2.0","mw":"-.-","location":"BOSTANCILAR-BULANIK (MUS)"},{"date":"2020.12.23","time":"22:20:42","latitude":"37.9185","longitude":"27.1082","depth":"3.6","md":"-.-","ml":"1.5","mw":"-.-","location":"KUSADASI KORFEZI (EGE DENIZI)"},{"date":"2020.12.23","time":"22:09:08","latitude":"36.5572","longitude":"28.6952","depth":"10.0","md":"-.-","ml":"2.5","mw":"-.-","location":"AKDENIZ"},{"date":"2020.12.23","time":"22:07:54","latitude":"36.4820","longitude":"28.6258","depth":"6.9","md":"-.-","ml":"1.9","mw":"-.-","location":"AKDENIZ"},{"date":"2020.12.23","time":"21:52:46","latitude":"38.8223","longitude":"33.5928","depth":"9.2","md":"-.-","ml":"1.6","mw":"-.-","location":"KARANDERE-SEREFLIKOCHISAR (ANKARA)"},{"date":"2020.12.23","time":"21:25:37","latitude":"37.8168","longitude":"26.7720","depth":"5.0","md":"-.-","ml":"2.7","mw":"-.-","location":"EGE DENIZI"},{"date":"2020.12.23","time":"18:29:46","latitude":"39.4075","longitude":"31.5562","depth":"0.0","md":"-.-","ml":"1.6","mw":"-.-","location":"TEKOREN-SIVRIHISAR (ESKISEHIR)"},{"date":"2020.12.23","time":"17:25:10","latitude":"37.8303","longitude":"26.5827","depth":"13.3","md":"-.-","ml":"1.9","mw":"-.-","location":"SISAM ADASI (EGE DENIZI)"},{"date":"2020.12.23","time":"17:12:30","latitude":"38.7607","longitude":"39.5615","depth":"17.0","md":"-.-","ml":"1.7","mw":"-.-","location":"FAHRIBEYMEZREASI-KOVANCILAR (ELAZIG)"},{"date":"2020.12.23","time":"16:26:54","latitude":"37.8678","longitude":"27.0470","depth":"4.6","md":"-.-","ml":"2.1","mw":"-.-","location":"KUSADASI KORFEZI (EGE DENIZI)"},{"date":"2020.12.23","time":"15:50:10","latitude":"36.1530","longitude":"33.5612","depth":"0.0","md":"-.-","ml":"1.4","mw":"-.-","location":"BUYUKECELI-GULNAR (MERSIN)"},{"date":"2020.12.23","time":"15:45:42","latitude":"39.2842","longitude":"40.2227","depth":"19.0","md":"-.-","ml":"2.1","mw":"-.-","location":"ACIKGUNEY-KIGI (BINGOL)"},{"date":"2020.12.23","time":"15:39:46","latitude":"38.7152","longitude":"28.2088","depth":"5.0","md":"-.-","ml":"1.1","mw":"-.-","location":"HACIHIDIR-SALIHLI (MANISA)"},{"date":"2020.12.23","time":"14:46:37","latitude":"40.0950","longitude":"42.9070","depth":"5.0","md":"-.-","ml":"2.8","mw":"-.-","location":"DENIZGOLU-KAGIZMAN (KARS)"},{"date":"2020.12.23","time":"14:43:15","latitude":"37.8060","longitude":"26.9027","depth":"4.5","md":"-.-","ml":"1.9","mw":"-.-","location":"SISAM ADASI (EGE DENIZI)"},{"date":"2020.12.23","time":"14:40:34","latitude":"37.9152","longitude":"27.6153","depth":"2.6","md":"-.-","ml":"2.2","mw":"-.-","location":"DAGKARAAGAC-GERMENCIK (AYDIN)"},{"date":"2020.12.23","time":"14:22:37","latitude":"37.8492","longitude":"27.0210","depth":"10.4","md":"-.-","ml":"2.1","mw":"-.-","location":"KUSADASI KORFEZI (EGE DENIZI)"},{"date":"2020.12.23","time":"14:19:49","latitude":"36.1463","longitude":"33.5708","depth":"0.0","md":"-.-","ml":"1.3","mw":"-.-","location":"BUYUKECELI-GULNAR (MERSIN)"},{"date":"2020.12.23","time":"14:13:59","latitude":"37.9517","longitude":"27.5765","depth":"5.1","md":"-.-","ml":"1.9","mw":"-.-","location":"CAMKOY-GERMENCIK (AYDIN)"},{"date":"2020.12.23","time":"14:11:53","latitude":"40.8000","longitude":"27.8717","depth":"8.9","md":"-.-","ml":"2.2","mw":"-.-","location":"MARMARA DENIZI"},{"date":"2020.12.23","time":"14:06:29","latitude":"37.8863","longitude":"27.6083","depth":"1.6","md":"-.-","ml":"3.5","mw":"3.7","location":"DAGKARAAGAC-GERMENCIK (AYDIN)"},{"date":"2020.12.23","time":"13:33:52","latitude":"37.1355","longitude":"34.7298","depth":"17.0","md":"-.-","ml":"1.3","mw":"-.-","location":"DARIPINARI-CAMLIYAYLA (MERSIN)"},{"date":"2020.12.23","time":"12:56:17","latitude":"37.6557","longitude":"27.1532","depth":"5.2","md":"-.-","ml":"1.4","mw":"-.-","location":"DOGANBEY-SOKE (AYDIN)"},{"date":"2020.12.23","time":"12:55:59","latitude":"37.7303","longitude":"27.0883","depth":"2.5","md":"-.-","ml":"1.4","mw":"-.-","location":"KUSADASI KORFEZI (EGE DENIZI)"},{"date":"2020.12.23","time":"12:37:46","latitude":"37.0980","longitude":"27.8207","depth":"0.0","md":"-.-","ml":"1.6","mw":"-.-","location":"CIFTLIKKOY-MILAS (MUGLA)"},{"date":"2020.12.23","time":"12:33:27","latitude":"40.1988","longitude":"30.8132","depth":"8.0","md":"-.-","ml":"1.6","mw":"-.-","location":"SOGUKCAM-GOYNUK (BOLU)"},{"date":"2020.12.23","time":"12:31:42","latitude":"40.2133","longitude":"30.8268","depth":"6.8","md":"-.-","ml":"1.8","mw":"-.-","location":"AHMETBEYLER-GOYNUK (BOLU)"},{"date":"2020.12.23","time":"12:15:35","latitude":"39.9293","longitude":"28.7987","depth":"0.0","md":"-.-","ml":"1.6","mw":"-.-","location":"CIVILI-ORHANELI (BURSA)"},{"date":"2020.12.23","time":"12:00:13","latitude":"37.9318","longitude":"27.1103","depth":"5.0","md":"-.-","ml":"2.1","mw":"-.-","location":"KUSADASI KORFEZI (EGE DENIZI)"},{"date":"2020.12.23","time":"11:50:10","latitude":"40.3872","longitude":"26.4955","depth":"12.6","md":"-.-","ml":"0.9","mw":"-.-","location":"TAYFURKOY-GELIBOLU (CANAKKALE)"},{"date":"2020.12.23","time":"11:44:13","latitude":"37.6160","longitude":"29.2358","depth":"0.0","md":"-.-","ml":"1.2","mw":"-.-","location":"SARIABAT-TAVAS (DENIZLI)"},{"date":"2020.12.23","time":"11:43:57","latitude":"39.0320","longitude":"30.0740","depth":"14.3","md":"-.-","ml":"1.6","mw":"-.-","location":"KARAAGAC-ALTINTAS (KUTAHYA)"},{"date":"2020.12.23","time":"11:30:20","latitude":"39.1610","longitude":"27.4143","depth":"5.0","md":"-.-","ml":"2.2","mw":"-.-","location":"BOLCEK-BERGAMA (IZMIR)"},{"date":"2020.12.23","time":"11:14:55","latitude":"37.8072","longitude":"26.9412","depth":"9.2","md":"-.-","ml":"2.6","mw":"-.-","location":"SISAM ADASI (EGE DENIZI)"},{"date":"2020.12.23","time":"10:42:31","latitude":"37.1938","longitude":"37.2263","depth":"0.0","md":"-.-","ml":"1.1","mw":"-.-","location":"BOYNO-SEHITKAMIL (GAZIANTEP)"},{"date":"2020.12.23","time":"10:00:45","latitude":"37.1142","longitude":"28.4337","depth":"0.0","md":"-.-","ml":"1.5","mw":"-.-","location":"ULA (MUGLA)"},{"date":"2020.12.23","time":"09:56:35","latitude":"37.9492","longitude":"41.7487","depth":"6.8","md":"-.-","ml":"1.7","mw":"-.-","location":"OYACIK-KURTALAN (SIIRT)"},{"date":"2020.12.23","time":"09:03:47","latitude":"39.9792","longitude":"33.1342","depth":"10.8","md":"-.-","ml":"1.9","mw":"-.-","location":"ELMADAG (ANKARA)"},{"date":"2020.12.23","time":"09:00:40","latitude":"37.6552","longitude":"28.3537","depth":"20.9","md":"-.-","ml":"1.6","mw":"-.-","location":"YAKAKOY-BOZDOGAN (AYDIN)"},{"date":"2020.12.23","time":"08:59:38","latitude":"38.0558","longitude":"27.5707","depth":"5.2","md":"-.-","ml":"1.5","mw":"-.-","location":"ALAYLI-TIRE (IZMIR)"},{"date":"2020.12.23","time":"08:25:27","latitude":"38.4930","longitude":"39.2075","depth":"11.5","md":"-.-","ml":"1.6","mw":"-.-","location":"KAVAKTEPE (ELAZIG)"},{"date":"2020.12.23","time":"07:38:27","latitude":"37.9012","longitude":"26.8702","depth":"3.3","md":"-.-","ml":"2.0","mw":"-.-","location":"KUSADASI KORFEZI (EGE DENIZI)"},{"date":"2020.12.23","time":"07:36:41","latitude":"39.3397","longitude":"40.7048","depth":"5.0","md":"-.-","ml":"3.1","mw":"3.2","location":"DINARBEY-YEDISU (BINGOL)"},{"date":"2020.12.23","time":"07:33:12","latitude":"35.8455","longitude":"30.4175","depth":"20.2","md":"-.-","ml":"2.9","mw":"-.-","location":"AKDENIZ"},{"date":"2020.12.23","time":"06:08:09","latitude":"37.8163","longitude":"26.8772","depth":"13.9","md":"-.-","ml":"1.5","mw":"-.-","location":"SISAM ADASI (EGE DENIZI)"},{"date":"2020.12.23","time":"05:15:26","latitude":"37.6597","longitude":"28.3647","depth":"11.1","md":"-.-","ml":"2.4","mw":"-.-","location":"YAKAKOY-BOZDOGAN (AYDIN)"},{"date":"2020.12.23","time":"03:13:29","latitude":"38.7345","longitude":"39.1767","depth":"7.2","md":"-.-","ml":"1.6","mw":"-.-","location":"NURALI (ELAZIG)"},{"date":"2020.12.23","time":"02:45:49","latitude":"37.9133","longitude":"26.8970","depth":"13.3","md":"-.-","ml":"1.5","mw":"-.-","location":"KUSADASI KORFEZI (EGE DENIZI)"},{"date":"2020.12.23","time":"02:41:22","latitude":"37.9162","longitude":"26.8960","depth":"14.0","md":"-.-","ml":"1.5","mw":"-.-","location":"KUSADASI KORFEZI (EGE DENIZI)"},{"date":"2020.12.23","time":"02:30:56","latitude":"38.2913","longitude":"38.6575","depth":"5.0","md":"-.-","ml":"1.4","mw":"-.-","location":"ALHANUSAGI (MALATYA)"},{"date":"2020.12.23","time":"02:09:14","latitude":"37.7763","longitude":"27.2298","depth":"9.4","md":"-.-","ml":"1.2","mw":"-.-","location":"KUSADASI KORFEZI (EGE DENIZI)"},{"date":"2020.12.23","time":"01:29:18","latitude":"37.7197","longitude":"26.8315","depth":"12.9","md":"-.-","ml":"2.2","mw":"-.-","location":"SISAM ADASI (EGE DENIZI)"},{"date":"2020.12.23","time":"01:18:17","latitude":"37.6075","longitude":"26.9238","depth":"12.9","md":"-.-","ml":"1.4","mw":"-.-","location":"EGE DENIZI"},{"date":"2020.12.23","time":"01:13:33","latitude":"37.7747","longitude":"27.0220","depth":"9.7","md":"-.-","ml":"2.3","mw":"-.-","location":"KUSADASI KORFEZI (EGE DENIZI)"},{"date":"2020.12.23","time":"01:02:19","latitude":"37.7935","longitude":"27.0185","depth":"8.2","md":"-.-","ml":"2.1","mw":"-.-","location":"KUSADASI KORFEZI (EGE DENIZI)"},{"date":"2020.12.23","time":"01:00:40","latitude":"38.3073","longitude":"38.7372","depth":"25.3","md":"-.-","ml":"1.7","mw":"-.-","location":"SARIOT-KALE (MALATYA)"},{"date":"2020.12.23","time":"00:56:36","latitude":"38.1792","longitude":"27.7862","depth":"7.5","md":"-.-","ml":"1.9","mw":"-.-","location":"DEREBASI-TIRE (IZMIR)"},{"date":"2020.12.23","time":"00:51:15","latitude":"37.8770","longitude":"26.8243","depth":"9.5","md":"-.-","ml":"1.3","mw":"-.-","location":"EGE DENIZI"},{"date":"2020.12.23","time":"00:37:44","latitude":"38.0355","longitude":"26.1588","depth":"4.0","md":"-.-","ml":"1.9","mw":"-.-","location":"EGE DENIZI"},{"date":"2020.12.23","time":"00:28:03","latitude":"37.7918","longitude":"27.0410","depth":"5.4","md":"-.-","ml":"1.8","mw":"-.-","location":"KUSADASI KORFEZI (EGE DENIZI)"},{"date":"2020.12.23","time":"00:23:03","latitude":"37.7913","longitude":"26.8563","depth":"5.3","md":"-.-","ml":"1.5","mw":"-.-","location":"SISAM ADASI (EGE DENIZI)"},{"date":"2020.12.22","time":"23:42:04","latitude":"36.5440","longitude":"27.9017","depth":"5.9","md":"-.-","ml":"2.4","mw":"-.-","location":"BOZBURUN ACIKLARI-MUGLA (AKDENIZ)"},{"date":"2020.12.22","time":"23:36:50","latitude":"38.3167","longitude":"38.7862","depth":"3.2","md":"-.-","ml":"1.6","mw":"-.-","location":"CANAKCI-KALE (MALATYA)"},{"date":"2020.12.22","time":"23:16:52","latitude":"39.7790","longitude":"32.5717","depth":"5.5","md":"-.-","ml":"1.4","mw":"-.-","location":"DEVECI-HAYMANA (ANKARA)"},{"date":"2020.12.22","time":"23:06:39","latitude":"40.1048","longitude":"42.8622","depth":"5.3","md":"-.-","ml":"1.8","mw":"-.-","location":"URKER-KAGIZMAN (KARS)"},{"date":"2020.12.22","time":"21:54:34","latitude":"38.2510","longitude":"38.6942","depth":"5.0","md":"-.-","ml":"2.7","mw":"-.-","location":"CAYKOY-PUTURGE (MALATYA)"},{"date":"2020.12.22","time":"21:10:17","latitude":"36.7105","longitude":"36.4040","depth":"7.8","md":"-.-","ml":"1.2","mw":"-.-","location":"GUVENC-HASSA (HATAY)"},{"date":"2020.12.22","time":"21:06:21","latitude":"39.1012","longitude":"27.7913","depth":"5.0","md":"-.-","ml":"1.4","mw":"-.-","location":"ILYASLAR-KIRKAGAC (MANISA)"},{"date":"2020.12.22","time":"20:33:53","latitude":"40.0163","longitude":"42.6335","depth":"8.7","md":"-.-","ml":"2.0","mw":"-.-","location":"GULLUCE-SARIKAMIS (KARS)"},{"date":"2020.12.22","time":"20:29:15","latitude":"37.8087","longitude":"29.6782","depth":"5.0","md":"-.-","ml":"1.7","mw":"-.-","location":"CARDAK (DENIZLI)"},{"date":"2020.12.22","time":"19:57:03","latitude":"39.7088","longitude":"26.4672","depth":"4.8","md":"-.-","ml":"2.1","mw":"-.-","location":"ALIKABAKLAR-BAYRAMIC (CANAKKALE)"},{"date":"2020.12.22","time":"19:17:32","latitude":"38.2718","longitude":"25.7808","depth":"14.1","md":"-.-","ml":"2.1","mw":"-.-","location":"EGE DENIZI"},{"date":"2020.12.22","time":"19:07:44","latitude":"37.8328","longitude":"26.9962","depth":"24.6","md":"-.-","ml":"1.2","mw":"-.-","location":"KUSADASI KORFEZI (EGE DENIZI)"},{"date":"2020.12.22","time":"19:03:52","latitude":"38.8185","longitude":"41.8540","depth":"3.1","md":"-.-","ml":"1.9","mw":"-.-","location":"TANKOY-KORKUT (MUS)"},{"date":"2020.12.22","time":"18:00:55","latitude":"37.7810","longitude":"26.8925","depth":"6.6","md":"-.-","ml":"1.4","mw":"-.-","location":"SISAM ADASI (EGE DENIZI)"},{"date":"2020.12.22","time":"17:43:47","latitude":"37.1827","longitude":"37.1365","depth":"0.0","md":"-.-","ml":"1.7","mw":"-.-","location":"ACAROBA-SEHITKAMIL (GAZIANTEP)"},{"date":"2020.12.22","time":"17:40:32","latitude":"37.7630","longitude":"26.9088","depth":"17.5","md":"-.-","ml":"1.4","mw":"-.-","location":"SISAM ADASI (EGE DENIZI)"},{"date":"2020.12.22","time":"17:38:15","latitude":"38.7358","longitude":"43.1698","depth":"5.0","md":"-.-","ml":"2.4","mw":"-.-","location":"VAN GOLU"},{"date":"2020.12.22","time":"17:17:59","latitude":"37.8910","longitude":"26.9935","depth":"4.9","md":"-.-","ml":"2.1","mw":"-.-","location":"KUSADASI KORFEZI (EGE DENIZI)"},{"date":"2020.12.22","time":"16:34:34","latitude":"37.9070","longitude":"27.2480","depth":"8.4","md":"-.-","ml":"1.8","mw":"-.-","location":"KUSADASI KORFEZI (EGE DENIZI)"},{"date":"2020.12.22","time":"15:45:13","latitude":"35.7737","longitude":"36.4470","depth":"14.2","md":"-.-","ml":"3.9","mw":"3.9","location":"SURIYE"},{"date":"2020.12.22","time":"15:33:10","latitude":"38.6032","longitude":"38.0095","depth":"9.1","md":"-.-","ml":"1.8","mw":"-.-","location":"BOGURTLEN-YAZIHAN (MALATYA)"},{"date":"2020.12.22","time":"15:31:25","latitude":"37.9563","longitude":"26.9897","depth":"4.8","md":"-.-","ml":"1.9","mw":"-.-","location":"KUSADASI KORFEZI (EGE DENIZI)"},{"date":"2020.12.22","time":"14:46:11","latitude":"38.7840","longitude":"26.4847","depth":"3.8","md":"-.-","ml":"2.0","mw":"-.-","location":"EGE DENIZI"},{"date":"2020.12.22","time":"14:08:55","latitude":"37.2553","longitude":"37.4943","depth":"0.0","md":"-.-","ml":"1.6","mw":"-.-","location":"ORENLI-YAVUZELI (GAZIANTEP)"},{"date":"2020.12.22","time":"14:07:19","latitude":"37.8390","longitude":"27.0432","depth":"7.2","md":"-.-","ml":"1.9","mw":"-.-","location":"KUSADASI KORFEZI (EGE DENIZI)"},{"date":"2020.12.22","time":"12:58:32","latitude":"39.3088","longitude":"37.9277","depth":"1.3","md":"-.-","ml":"2.4","mw":"-.-","location":"KARAAGACLI-DIVRIGI (SIVAS)"},{"date":"2020.12.22","time":"12:38:04","latitude":"37.8913","longitude":"26.9480","depth":"5.5","md":"-.-","ml":"2.3","mw":"-.-","location":"KUSADASI KORFEZI (EGE DENIZI)"},{"date":"2020.12.22","time":"12:29:17","latitude":"37.2880","longitude":"31.8972","depth":"0.0","md":"-.-","ml":"2.2","mw":"-.-","location":"MADENLI-SEYDISEHIR (KONYA)"},{"date":"2020.12.22","time":"12:27:17","latitude":"36.9232","longitude":"28.6562","depth":"7.5","md":"-.-","ml":"1.2","mw":"-.-","location":"HAMITKOY-KOYCEGIZ (MUGLA)"},{"date":"2020.12.22","time":"12:22:13","latitude":"37.9208","longitude":"26.9882","depth":"5.4","md":"-.-","ml":"2.0","mw":"-.-","location":"KUSADASI KORFEZI (EGE DENIZI)"},{"date":"2020.12.22","time":"12:04:05","latitude":"37.8422","longitude":"27.2100","depth":"9.8","md":"-.-","ml":"2.1","mw":"-.-","location":"KUSADASI KORFEZI (EGE DENIZI)"},{"date":"2020.12.22","time":"11:32:05","latitude":"37.8652","longitude":"37.4383","depth":"13.0","md":"-.-","ml":"2.2","mw":"-.-","location":"BICIN-NURHAK (KAHRAMANMARAS)"},{"date":"2020.12.22","time":"10:53:33","latitude":"37.9382","longitude":"27.1063","depth":"2.1","md":"-.-","ml":"2.9","mw":"-.-","location":"KUSADASI KORFEZI (EGE DENIZI)"},{"date":"2020.12.22","time":"10:03:33","latitude":"37.8967","longitude":"27.2022","depth":"9.6","md":"-.-","ml":"1.9","mw":"-.-","location":"KUSADASI KORFEZI (EGE DENIZI)"},{"date":"2020.12.22","time":"09:30:04","latitude":"38.8032","longitude":"27.7750","depth":"0.0","md":"-.-","ml":"2.0","mw":"-.-","location":"BEYOBA-AKHISAR (MANISA)"},{"date":"2020.12.22","time":"09:12:52","latitude":"39.2740","longitude":"29.2393","depth":"0.0","md":"-.-","ml":"1.5","mw":"-.-","location":"IGDEKOY-EMET (KUTAHYA)"},{"date":"2020.12.22","time":"08:55:06","latitude":"34.6928","longitude":"24.3372","depth":"5.0","md":"-.-","ml":"2.6","mw":"-.-","location":"GIRIT ADASI ACIKLARI (AKDENIZ)"},{"date":"2020.12.22","time":"08:17:47","latitude":"37.9710","longitude":"43.7637","depth":"5.0","md":"-.-","ml":"1.9","mw":"-.-","location":"TUTAK-GURPINAR (VAN)"},{"date":"2020.12.22","time":"07:36:36","latitude":"37.8580","longitude":"26.8253","depth":"3.1","md":"-.-","ml":"2.6","mw":"-.-","location":"EGE DENIZI"},{"date":"2020.12.22","time":"06:43:28","latitude":"37.8385","longitude":"26.9490","depth":"9.4","md":"-.-","ml":"1.8","mw":"-.-","location":"KUSADASI KORFEZI (EGE DENIZI)"},{"date":"2020.12.22","time":"05:34:42","latitude":"37.9318","longitude":"27.1147","depth":"9.3","md":"-.-","ml":"1.6","mw":"-.-","location":"KUSADASI KORFEZI (EGE DENIZI)"},{"date":"2020.12.22","time":"04:27:26","latitude":"34.8937","longitude":"23.7937","depth":"26.0","md":"-.-","ml":"2.5","mw":"-.-","location":"GIRIT ADASI (AKDENIZ)"},{"date":"2020.12.22","time":"04:18:08","latitude":"37.9013","longitude":"26.9213","depth":"9.3","md":"-.-","ml":"1.6","mw":"-.-","location":"KUSADASI KORFEZI (EGE DENIZI)"},{"date":"2020.12.22","time":"04:03:14","latitude":"38.7545","longitude":"42.6052","depth":"6.7","md":"-.-","ml":"1.7","mw":"-.-","location":"SOGANLI-AHLAT (BITLIS)"},{"date":"2020.12.22","time":"03:44:11","latitude":"38.4308","longitude":"26.6628","depth":"13.0","md":"-.-","ml":"1.7","mw":"-.-","location":"IZMIR KORFEZI (EGE DENIZI)"},{"date":"2020.12.22","time":"03:38:42","latitude":"39.2427","longitude":"33.4735","depth":"9.7","md":"-.-","ml":"1.0","mw":"-.-","location":"BUYUKBIYIK-BALA (ANKARA)"},{"date":"2020.12.22","time":"02:55:16","latitude":"38.9423","longitude":"30.0442","depth":"16.1","md":"-.-","ml":"1.4","mw":"-.-","location":"ZAFERTEPECALKOY-ALTINTAS (KUTAHYA)"},{"date":"2020.12.22","time":"02:52:31","latitude":"37.9435","longitude":"26.7205","depth":"10.4","md":"-.-","ml":"1.4","mw":"-.-","location":"EGE DENIZI"},{"date":"2020.12.22","time":"02:13:54","latitude":"39.3780","longitude":"40.5560","depth":"6.0","md":"-.-","ml":"1.3","mw":"-.-","location":"SENKOY-YEDISU (BINGOL)"},{"date":"2020.12.22","time":"01:52:38","latitude":"38.3830","longitude":"38.7708","depth":"9.4","md":"-.-","ml":"1.9","mw":"-.-","location":"TEPEKOY-KALE (MALATYA)"},{"date":"2020.12.22","time":"01:52:23","latitude":"37.8015","longitude":"26.8968","depth":"9.9","md":"-.-","ml":"1.6","mw":"-.-","location":"SISAM ADASI (EGE DENIZI)"},{"date":"2020.12.22","time":"01:51:05","latitude":"37.7867","longitude":"26.8690","depth":"6.1","md":"-.-","ml":"2.2","mw":"-.-","location":"SISAM ADASI (EGE DENIZI)"},{"date":"2020.12.22","time":"01:24:11","latitude":"37.9243","longitude":"27.0273","depth":"7.9","md":"-.-","ml":"1.3","mw":"-.-","location":"KUSADASI KORFEZI (EGE DENIZI)"},{"date":"2020.12.22","time":"01:09:45","latitude":"37.7902","longitude":"26.7723","depth":"9.6","md":"-.-","ml":"1.4","mw":"-.-","location":"SISAM ADASI (EGE DENIZI)"},{"date":"2020.12.22","time":"01:07:21","latitude":"38.7402","longitude":"27.9633","depth":"5.8","md":"-.-","ml":"2.4","mw":"-.-","location":"HIROGLU-GOLMARMARA (MANISA)"},{"date":"2020.12.22","time":"01:04:46","latitude":"39.3968","longitude":"41.1640","depth":"5.3","md":"-.-","ml":"2.1","mw":"-.-","location":"CIMENOZU-CAT (ERZURUM)"},{"date":"2020.12.22","time":"00:51:35","latitude":"35.5313","longitude":"27.0365","depth":"25.3","md":"-.-","ml":"3.2","mw":"3.3","location":"AKDENIZ"},{"date":"2020.12.22","time":"00:41:59","latitude":"38.9597","longitude":"30.0380","depth":"5.5","md":"-.-","ml":"1.7","mw":"-.-","location":"EYIDEMIR-DUMLUPINAR (KUTAHYA)"},{"date":"2020.12.21","time":"23:57:24","latitude":"36.2942","longitude":"30.1045","depth":"11.4","md":"-.-","ml":"1.1","mw":"-.-","location":"BOLDAG-FINIKE (ANTALYA)"},{"date":"2020.12.21","time":"23:44:29","latitude":"38.2423","longitude":"38.7343","depth":"4.4","md":"-.-","ml":"1.3","mw":"-.-","location":"BALPINARI-PUTURGE (MALATYA)"},{"date":"2020.12.21","time":"23:27:10","latitude":"37.8193","longitude":"26.9297","depth":"20.3","md":"-.-","ml":"1.5","mw":"-.-","location":"SISAM ADASI (EGE DENIZI)"},{"date":"2020.12.21","time":"22:03:53","latitude":"37.0018","longitude":"27.7305","depth":"4.9","md":"-.-","ml":"1.5","mw":"-.-","location":"MAZIKOY-BODRUM (MUGLA)"},{"date":"2020.12.21","time":"21:58:07","latitude":"37.8885","longitude":"26.8775","depth":"20.7","md":"-.-","ml":"1.4","mw":"-.-","location":"KUSADASI KORFEZI (EGE DENIZI)"},{"date":"2020.12.21","time":"21:47:29","latitude":"37.8480","longitude":"26.9278","depth":"9.2","md":"-.-","ml":"1.5","mw":"-.-","location":"KUSADASI KORFEZI (EGE DENIZI)"},{"date":"2020.12.21","time":"21:29:56","latitude":"37.8448","longitude":"26.8458","depth":"5.0","md":"-.-","ml":"1.4","mw":"-.-","location":"SISAM ADASI (EGE DENIZI)"},{"date":"2020.12.21","time":"18:38:43","latitude":"37.6502","longitude":"26.7937","depth":"5.0","md":"-.-","ml":"1.9","mw":"-.-","location":"EGE DENIZI"},{"date":"2020.12.21","time":"18:31:47","latitude":"37.9247","longitude":"27.1002","depth":"5.1","md":"-.-","ml":"3.3","mw":"3.3","location":"KUSADASI KORFEZI (EGE DENIZI)"},{"date":"2020.12.21","time":"18:22:45","latitude":"37.6012","longitude":"26.7840","depth":"7.4","md":"-.-","ml":"1.8","mw":"-.-","location":"EGE DENIZI"},{"date":"2020.12.21","time":"18:15:07","latitude":"37.8928","longitude":"26.4785","depth":"5.0","md":"-.-","ml":"1.8","mw":"-.-","location":"EGE DENIZI"},{"date":"2020.12.21","time":"18:13:59","latitude":"37.7742","longitude":"26.9403","depth":"5.0","md":"-.-","ml":"1.7","mw":"-.-","location":"SISAM ADASI (EGE DENIZI)"},{"date":"2020.12.21","time":"16:56:01","latitude":"37.9388","longitude":"26.9410","depth":"5.1","md":"-.-","ml":"1.7","mw":"-.-","location":"KUSADASI KORFEZI (EGE DENIZI)"},{"date":"2020.12.21","time":"16:41:47","latitude":"37.9010","longitude":"26.9382","depth":"19.5","md":"-.-","ml":"1.7","mw":"-.-","location":"KUSADASI KORFEZI (EGE DENIZI)"},{"date":"2020.12.21","time":"16:37:34","latitude":"37.3092","longitude":"27.8882","depth":"0.0","md":"-.-","ml":"1.4","mw":"-.-","location":"TUZABAT-MILAS (MUGLA)"},{"date":"2020.12.21","time":"16:36:52","latitude":"37.2625","longitude":"27.8730","depth":"0.0","md":"-.-","ml":"1.2","mw":"-.-","location":"KALINAGIL-MILAS (MUGLA)"},{"date":"2020.12.21","time":"16:33:31","latitude":"37.8815","longitude":"27.4585","depth":"14.7","md":"-.-","ml":"1.5","mw":"-.-","location":"NAIPLI-GERMENCIK (AYDIN)"},{"date":"2020.12.21","time":"16:28:26","latitude":"37.8957","longitude":"27.5605","depth":"8.9","md":"-.-","ml":"2.2","mw":"-.-","location":"ABDURRAHMANLAR-GERMENCIK (AYDIN)"},{"date":"2020.12.21","time":"16:23:36","latitude":"37.8778","longitude":"26.9178","depth":"8.0","md":"-.-","ml":"1.8","mw":"-.-","location":"KUSADASI KORFEZI (EGE DENIZI)"},{"date":"2020.12.21","time":"15:50:33","latitude":"38.5398","longitude":"29.1445","depth":"14.0","md":"-.-","ml":"1.1","mw":"-.-","location":"KUCUKILYASLI-ULUBEY (USAK)"},{"date":"2020.12.21","time":"15:31:22","latitude":"37.9758","longitude":"26.7650","depth":"2.2","md":"-.-","ml":"1.8","mw":"-.-","location":"EGE DENIZI"},{"date":"2020.12.21","time":"15:11:10","latitude":"38.4748","longitude":"39.5760","depth":"54.9","md":"-.-","ml":"1.9","mw":"-.-","location":"CITLIKOY-MADEN (ELAZIG)"},{"date":"2020.12.21","time":"15:10:31","latitude":"40.6298","longitude":"29.0568","depth":"7.4","md":"-.-","ml":"1.8","mw":"-.-","location":"KOCADERE-CINARCIK (YALOVA)"},{"date":"2020.12.21","time":"14:45:18","latitude":"37.8452","longitude":"26.9935","depth":"9.6","md":"-.-","ml":"1.5","mw":"-.-","location":"KUSADASI KORFEZI (EGE DENIZI)"},{"date":"2020.12.21","time":"14:34:28","latitude":"40.6240","longitude":"29.0575","depth":"8.7","md":"-.-","ml":"1.4","mw":"-.-","location":"TESVIKIYE-CINARCIK (YALOVA)"},{"date":"2020.12.21","time":"14:01:15","latitude":"39.9252","longitude":"33.2812","depth":"0.0","md":"-.-","ml":"1.3","mw":"-.-","location":"ELMADAG (ANKARA)"},{"date":"2020.12.21","time":"13:41:58","latitude":"36.9800","longitude":"34.7882","depth":"0.0","md":"-.-","ml":"1.9","mw":"-.-","location":"ULAS-TARSUS (MERSIN)"},{"date":"2020.12.21","time":"13:30:37","latitude":"38.1110","longitude":"32.6657","depth":"0.0","md":"-.-","ml":"0.9","mw":"-.-","location":"KARAOMERLER-SELCUKLU (KONYA)"},{"date":"2020.12.21","time":"13:25:43","latitude":"40.1475","longitude":"27.1022","depth":"18.8","md":"-.-","ml":"1.6","mw":"-.-","location":"CELTIK-BIGA (CANAKKALE)"},{"date":"2020.12.21","time":"12:35:39","latitude":"37.8757","longitude":"26.9712","depth":"4.9","md":"-.-","ml":"1.6","mw":"-.-","location":"KUSADASI KORFEZI (EGE DENIZI)"},{"date":"2020.12.21","time":"12:15:45","latitude":"37.7920","longitude":"26.3910","depth":"5.0","md":"-.-","ml":"1.8","mw":"-.-","location":"ONIKI ADALAR (AKDENIZ)"},{"date":"2020.12.21","time":"11:48:35","latitude":"37.2400","longitude":"28.2107","depth":"0.0","md":"-.-","ml":"1.7","mw":"-.-","location":"PASAPINARI (MUGLA)"},{"date":"2020.12.21","time":"11:41:10","latitude":"37.2377","longitude":"36.4103","depth":"12.1","md":"-.-","ml":"1.6","mw":"-.-","location":"BOSTANLAR-DUZICI (OSMANIYE)"},{"date":"2020.12.21","time":"11:40:35","latitude":"37.9112","longitude":"26.9158","depth":"7.7","md":"-.-","ml":"2.3","mw":"-.-","location":"KUSADASI KORFEZI (EGE DENIZI)"},{"date":"2020.12.21","time":"11:32:46","latitude":"37.8415","longitude":"29.0548","depth":"0.0","md":"-.-","ml":"1.8","mw":"-.-","location":"KUMKISIK (DENIZLI)"},{"date":"2020.12.21","time":"11:19:01","latitude":"37.6620","longitude":"27.2658","depth":"2.4","md":"-.-","ml":"1.5","mw":"-.-","location":"YUVACA-SOKE (AYDIN)"},{"date":"2020.12.21","time":"10:49:20","latitude":"39.8818","longitude":"28.9075","depth":"0.0","md":"-.-","ml":"2.1","mw":"-.-","location":"YESILLER-ORHANELI (BURSA)"},{"date":"2020.12.21","time":"10:37:32","latitude":"38.3347","longitude":"38.9507","depth":"20.1","md":"-.-","ml":"1.5","mw":"-.-","location":"TOPALUSAGI-SIVRICE (ELAZIG)"},{"date":"2020.12.21","time":"10:07:56","latitude":"38.0135","longitude":"26.5712","depth":"4.9","md":"-.-","ml":"1.7","mw":"-.-","location":"EGE DENIZI"},{"date":"2020.12.21","time":"10:07:04","latitude":"39.5057","longitude":"28.0948","depth":"18.1","md":"-.-","ml":"1.8","mw":"-.-","location":"DEGIRMENLI-BIGADIC (BALIKESIR)"},{"date":"2020.12.21","time":"10:05:42","latitude":"37.8672","longitude":"26.5023","depth":"15.2","md":"-.-","ml":"1.8","mw":"-.-","location":"SISAM ADASI (EGE DENIZI)"},{"date":"2020.12.21","time":"09:53:54","latitude":"37.5618","longitude":"32.0952","depth":"22.3","md":"-.-","ml":"1.4","mw":"-.-","location":"MESUDIYE-SEYDISEHIR (KONYA)"},{"date":"2020.12.21","time":"09:29:30","latitude":"38.0580","longitude":"27.0400","depth":"12.6","md":"-.-","ml":"0.8","mw":"-.-","location":"KUSADASI KORFEZI (EGE DENIZI)"},{"date":"2020.12.21","time":"09:19:49","latitude":"38.4538","longitude":"39.0507","depth":"6.2","md":"-.-","ml":"1.9","mw":"-.-","location":"KULLUK (ELAZIG)"},{"date":"2020.12.21","time":"09:19:29","latitude":"38.5822","longitude":"31.8977","depth":"5.3","md":"-.-","ml":"1.7","mw":"-.-","location":"HURSUNLU-YUNAK (KONYA)"},{"date":"2020.12.21","time":"09:17:04","latitude":"37.8967","longitude":"26.8110","depth":"4.5","md":"-.-","ml":"1.5","mw":"-.-","location":"EGE DENIZI"},{"date":"2020.12.21","time":"08:39:18","latitude":"37.8208","longitude":"26.9467","depth":"5.2","md":"-.-","ml":"1.7","mw":"-.-","location":"KUSADASI KORFEZI (EGE DENIZI)"},{"date":"2020.12.21","time":"07:57:21","latitude":"37.8558","longitude":"26.9725","depth":"5.3","md":"-.-","ml":"2.2","mw":"-.-","location":"KUSADASI KORFEZI (EGE DENIZI)"},{"date":"2020.12.21","time":"07:37:05","latitude":"37.8322","longitude":"26.8615","depth":"9.0","md":"-.-","ml":"1.5","mw":"-.-","location":"SISAM ADASI (EGE DENIZI)"},{"date":"2020.12.21","time":"07:20:32","latitude":"38.4337","longitude":"45.1278","depth":"11.4","md":"-.-","ml":"2.9","mw":"2.9","location":"IRAN"},{"date":"2020.12.21","time":"07:12:03","latitude":"37.9300","longitude":"26.9303","depth":"15.1","md":"-.-","ml":"1.2","mw":"-.-","location":"KUSADASI KORFEZI (EGE DENIZI)"},{"date":"2020.12.21","time":"07:00:19","latitude":"37.9215","longitude":"26.5710","depth":"17.4","md":"-.-","ml":"1.4","mw":"-.-","location":"EGE DENIZI"},{"date":"2020.12.21","time":"06:35:34","latitude":"37.5835","longitude":"32.0867","depth":"8.8","md":"-.-","ml":"2.3","mw":"-.-","location":"MESUDIYE-SEYDISEHIR (KONYA)"},{"date":"2020.12.21","time":"06:33:25","latitude":"37.8490","longitude":"26.9757","depth":"14.9","md":"-.-","ml":"2.0","mw":"-.-","location":"KUSADASI KORFEZI (EGE DENIZI)"},{"date":"2020.12.21","time":"06:12:44","latitude":"37.8258","longitude":"26.8128","depth":"10.5","md":"-.-","ml":"1.7","mw":"-.-","location":"SISAM ADASI (EGE DENIZI)"},{"date":"2020.12.21","time":"06:10:41","latitude":"37.8193","longitude":"26.8065","depth":"1.5","md":"-.-","ml":"2.5","mw":"-.-","location":"SISAM ADASI (EGE DENIZI)"},{"date":"2020.12.21","time":"05:33:57","latitude":"37.7613","longitude":"27.0852","depth":"12.3","md":"-.-","ml":"2.1","mw":"-.-","location":"KUSADASI KORFEZI (EGE DENIZI)"},{"date":"2020.12.21","time":"04:47:19","latitude":"37.8082","longitude":"26.9490","depth":"12.4","md":"-.-","ml":"2.7","mw":"-.-","location":"SISAM ADASI (EGE DENIZI)"},{"date":"2020.12.21","time":"04:18:55","latitude":"37.8778","longitude":"26.5563","depth":"5.8","md":"-.-","ml":"1.3","mw":"-.-","location":"SISAM ADASI (EGE DENIZI)"},{"date":"2020.12.21","time":"04:13:03","latitude":"37.8642","longitude":"26.9887","depth":"12.3","md":"-.-","ml":"1.5","mw":"-.-","location":"KUSADASI KORFEZI (EGE DENIZI)"},{"date":"2020.12.21","time":"03:06:07","latitude":"38.3018","longitude":"25.3290","depth":"7.0","md":"-.-","ml":"2.9","mw":"-.-","location":"EGE DENIZI"},{"date":"2020.12.21","time":"02:58:20","latitude":"37.9298","longitude":"27.0735","depth":"5.0","md":"-.-","ml":"1.3","mw":"-.-","location":"KUSADASI KORFEZI (EGE DENIZI)"},{"date":"2020.12.21","time":"02:50:29","latitude":"37.8115","longitude":"26.9108","depth":"12.1","md":"-.-","ml":"1.4","mw":"-.-","location":"SISAM ADASI (EGE DENIZI)"},{"date":"2020.12.21","time":"02:39:42","latitude":"37.8608","longitude":"26.4905","depth":"13.7","md":"-.-","ml":"1.5","mw":"-.-","location":"SISAM ADASI (EGE DENIZI)"},{"date":"2020.12.21","time":"02:25:53","latitude":"37.8402","longitude":"26.9533","depth":"12.9","md":"-.-","ml":"1.7","mw":"-.-","location":"KUSADASI KORFEZI (EGE DENIZI)"},{"date":"2020.12.21","time":"02:21:20","latitude":"37.8377","longitude":"27.0167","depth":"11.6","md":"-.-","ml":"1.7","mw":"-.-","location":"KUSADASI KORFEZI (EGE DENIZI)"},{"date":"2020.12.21","time":"02:19:35","latitude":"38.3857","longitude":"44.4373","depth":"5.0","md":"-.-","ml":"2.5","mw":"-.-","location":"T\ufffdRKiYE - iRAN S\ufffdn\ufffdr B\ufffdlgesi"},{"date":"2020.12.21","time":"02:17:00","latitude":"38.0483","longitude":"27.0782","depth":"1.4","md":"-.-","ml":"1.2","mw":"-.-","location":"KUSADASI KORFEZI (EGE DENIZI)"},{"date":"2020.12.21","time":"02:07:45","latitude":"38.3112","longitude":"38.8740","depth":"2.9","md":"-.-","ml":"2.6","mw":"-.-","location":"CIGIRLI-PUTURGE (MALATYA)"},{"date":"2020.12.21","time":"01:51:24","latitude":"37.9228","longitude":"26.5745","depth":"13.8","md":"-.-","ml":"1.3","mw":"-.-","location":"EGE DENIZI"},{"date":"2020.12.21","time":"01:46:48","latitude":"37.8560","longitude":"26.3917","depth":"9.3","md":"-.-","ml":"2.5","mw":"-.-","location":"ONIKI ADALAR (AKDENIZ)"},{"date":"2020.12.21","time":"01:29:41","latitude":"37.9200","longitude":"26.5372","depth":"13.7","md":"-.-","ml":"1.5","mw":"-.-","location":"EGE DENIZI"},{"date":"2020.12.21","time":"01:23:11","latitude":"40.4218","longitude":"28.9193","depth":"10.8","md":"-.-","ml":"1.5","mw":"-.-","location":"GEMLIK KORFEZI (MARMARA DENIZI)"},{"date":"2020.12.21","time":"01:15:11","latitude":"39.4615","longitude":"40.5898","depth":"4.3","md":"-.-","ml":"3.1","mw":"3.1","location":"KARACA-CAT (ERZURUM)"},{"date":"2020.12.21","time":"01:06:17","latitude":"38.3398","longitude":"38.8935","depth":"5.2","md":"-.-","ml":"1.8","mw":"-.-","location":"UZUNHUSEYIN-KALE (MALATYA)"},{"date":"2020.12.21","time":"01:02:55","latitude":"37.8602","longitude":"26.8937","depth":"5.2","md":"-.-","ml":"1.4","mw":"-.-","location":"KUSADASI KORFEZI (EGE DENIZI)"},{"date":"2020.12.21","time":"00:56:54","latitude":"37.8308","longitude":"26.3895","depth":"9.1","md":"-.-","ml":"1.4","mw":"-.-","location":"ONIKI ADALAR (AKDENIZ)"},{"date":"2020.12.21","time":"00:42:59","latitude":"35.6828","longitude":"26.9280","depth":"5.0","md":"-.-","ml":"2.1","mw":"-.-","location":"AKDENIZ"},{"date":"2020.12.21","time":"00:38:21","latitude":"36.7428","longitude":"27.6250","depth":"13.8","md":"-.-","ml":"1.3","mw":"-.-","location":"KARAKOY-DATCA (MUGLA)"},{"date":"2020.12.21","time":"00:27:39","latitude":"37.8867","longitude":"26.7417","depth":"11.2","md":"-.-","ml":"1.7","mw":"-.-","location":"EGE DENIZI"},{"date":"2020.12.21","time":"00:02:45","latitude":"38.9550","longitude":"23.3567","depth":"11.8","md":"-.-","ml":"3.7","mw":"4.0","location":"YUNANISTAN"},{"date":"2020.12.20","time":"23:33:16","latitude":"40.4278","longitude":"28.9275","depth":"8.4","md":"-.-","ml":"1.4","mw":"-.-","location":"GEMLIK KORFEZI (MARMARA DENIZI)"},{"date":"2020.12.20","time":"23:27:38","latitude":"37.8907","longitude":"26.7613","depth":"4.2","md":"-.-","ml":"1.4","mw":"-.-","location":"EGE DENIZI"},{"date":"2020.12.20","time":"21:54:18","latitude":"38.3492","longitude":"28.1805","depth":"5.1","md":"-.-","ml":"1.5","mw":"-.-","location":"CATAK-KIRAZ (IZMIR)"},{"date":"2020.12.20","time":"21:34:32","latitude":"40.4962","longitude":"34.2858","depth":"5.0","md":"-.-","ml":"2.4","mw":"-.-","location":"KARAKISIK-UGURLUDAG (CORUM)"},{"date":"2020.12.20","time":"21:11:05","latitude":"40.4282","longitude":"28.9343","depth":"5.4","md":"-.-","ml":"2.8","mw":"-.-","location":"GEMLIK KORFEZI (MARMARA DENIZI)"},{"date":"2020.12.20","time":"20:42:39","latitude":"40.4247","longitude":"28.9233","depth":"6.8","md":"-.-","ml":"2.8","mw":"-.-","location":"GEMLIK KORFEZI (MARMARA DENIZI)"},{"date":"2020.12.20","time":"19:49:52","latitude":"39.9497","longitude":"40.1813","depth":"2.8","md":"-.-","ml":"2.0","mw":"-.-","location":"CATAKSU-CAYIRLI (ERZINCAN)"},{"date":"2020.12.20","time":"18:44:13","latitude":"38.4355","longitude":"39.1785","depth":"2.6","md":"-.-","ml":"2.7","mw":"-.-","location":"KAVAKKOY-SIVRICE (ELAZIG)"},{"date":"2020.12.20","time":"18:42:59","latitude":"38.2963","longitude":"38.6677","depth":"5.1","md":"-.-","ml":"2.0","mw":"-.-","location":"KAMISTAS (MALATYA)"},{"date":"2020.12.20","time":"18:07:37","latitude":"37.8758","longitude":"26.9543","depth":"9.4","md":"-.-","ml":"1.9","mw":"-.-","location":"KUSADASI KORFEZI (EGE DENIZI)"},{"date":"2020.12.20","time":"17:35:24","latitude":"39.3163","longitude":"27.9215","depth":"5.7","md":"-.-","ml":"2.6","mw":"-.-","location":"DEMIRTAS-KIRKAGAC (MANISA)"},{"date":"2020.12.20","time":"17:12:59","latitude":"38.3110","longitude":"38.9713","depth":"13.4","md":"-.-","ml":"1.9","mw":"-.-","location":"KOLDERE-DOGANYOL (MALATYA)"},{"date":"2020.12.20","time":"16:54:18","latitude":"37.7627","longitude":"26.4407","depth":"3.9","md":"-.-","ml":"1.4","mw":"-.-","location":"ONIKI ADALAR (AKDENIZ)"},{"date":"2020.12.20","time":"16:53:51","latitude":"38.2882","longitude":"31.0555","depth":"5.3","md":"-.-","ml":"1.4","mw":"-.-","location":"EYUPLER-YALVAC (ISPARTA)"},{"date":"2020.12.20","time":"16:45:37","latitude":"37.5837","longitude":"32.0563","depth":"12.0","md":"-.-","ml":"2.0","mw":"-.-","location":"MESUDIYE-SEYDISEHIR (KONYA)"},{"date":"2020.12.20","time":"16:27:00","latitude":"37.9015","longitude":"27.1100","depth":"5.1","md":"-.-","ml":"1.6","mw":"-.-","location":"KUSADASI KORFEZI (EGE DENIZI)"},{"date":"2020.12.20","time":"16:19:16","latitude":"38.2397","longitude":"37.2938","depth":"11.4","md":"-.-","ml":"1.5","mw":"-.-","location":"SOGUTLU-ELBISTAN (KAHRAMANMARAS)"},{"date":"2020.12.20","time":"16:11:15","latitude":"40.1100","longitude":"35.3703","depth":"8.6","md":"-.-","ml":"1.8","mw":"-.-","location":"CAYIROZU-CEKEREK (YOZGAT)"},{"date":"2020.12.20","time":"16:04:01","latitude":"40.6013","longitude":"29.0572","depth":"5.0","md":"-.-","ml":"1.3","mw":"-.-","location":"TESVIKIYE-CINARCIK (YALOVA)"},{"date":"2020.12.20","time":"15:41:02","latitude":"37.9345","longitude":"27.0803","depth":"5.3","md":"-.-","ml":"1.3","mw":"-.-","location":"KUSADASI KORFEZI (EGE DENIZI)"},{"date":"2020.12.20","time":"15:37:16","latitude":"38.3330","longitude":"38.8855","depth":"7.8","md":"-.-","ml":"3.1","mw":"3.1","location":"UZUNHUSEYIN-KALE (MALATYA)"},{"date":"2020.12.20","time":"15:29:59","latitude":"37.9463","longitude":"43.8668","depth":"2.6","md":"-.-","ml":"2.3","mw":"-.-","location":"KOPRUAGZI-BASKALE (VAN)"},{"date":"2020.12.20","time":"15:18:14","latitude":"38.3720","longitude":"38.9148","depth":"11.4","md":"-.-","ml":"1.8","mw":"-.-","location":"GELINDERE-SIVRICE (ELAZIG)"},{"date":"2020.12.20","time":"15:00:45","latitude":"38.1440","longitude":"26.1845","depth":"8.7","md":"-.-","ml":"1.9","mw":"-.-","location":"EGE DENIZI"},{"date":"2020.12.20","time":"14:48:05","latitude":"37.8482","longitude":"27.1635","depth":"5.2","md":"-.-","ml":"1.7","mw":"-.-","location":"KUSADASI KORFEZI (EGE DENIZI)"},{"date":"2020.12.20","time":"14:17:02","latitude":"37.7132","longitude":"27.0745","depth":"11.2","md":"-.-","ml":"1.4","mw":"-.-","location":"KUSADASI KORFEZI (EGE DENIZI)"},{"date":"2020.12.20","time":"14:11:31","latitude":"38.6577","longitude":"37.9440","depth":"5.0","md":"-.-","ml":"2.2","mw":"-.-","location":"ERECEK-YAZIHAN (MALATYA)"},{"date":"2020.12.20","time":"13:35:02","latitude":"38.3692","longitude":"25.9433","depth":"5.6","md":"-.-","ml":"2.1","mw":"-.-","location":"SAKIZ ADASI (EGE DENIZI)"},{"date":"2020.12.20","time":"13:30:00","latitude":"37.8438","longitude":"27.1583","depth":"6.2","md":"-.-","ml":"1.8","mw":"-.-","location":"KUSADASI KORFEZI (EGE DENIZI)"},{"date":"2020.12.20","time":"13:23:13","latitude":"37.9843","longitude":"26.1692","depth":"5.0","md":"-.-","ml":"2.4","mw":"-.-","location":"EGE DENIZI"},{"date":"2020.12.20","time":"13:16:45","latitude":"37.8122","longitude":"26.8785","depth":"13.2","md":"-.-","ml":"1.5","mw":"-.-","location":"SISAM ADASI (EGE DENIZI)"},{"date":"2020.12.20","time":"13:15:10","latitude":"37.8478","longitude":"27.1768","depth":"10.7","md":"-.-","ml":"1.4","mw":"-.-","location":"KUSADASI KORFEZI (EGE DENIZI)"},{"date":"2020.12.20","time":"13:11:44","latitude":"37.8727","longitude":"26.8935","depth":"5.2","md":"-.-","ml":"1.6","mw":"-.-","location":"KUSADASI KORFEZI (EGE DENIZI)"},{"date":"2020.12.20","time":"13:08:39","latitude":"38.6815","longitude":"43.2122","depth":"5.0","md":"-.-","ml":"1.6","mw":"-.-","location":"MOLLAKASIM (VAN)"},{"date":"2020.12.20","time":"12:51:01","latitude":"37.8415","longitude":"27.0332","depth":"4.3","md":"-.-","ml":"2.5","mw":"-.-","location":"KUSADASI KORFEZI (EGE DENIZI)"},{"date":"2020.12.20","time":"12:43:33","latitude":"36.5320","longitude":"36.8297","depth":"5.4","md":"-.-","ml":"1.7","mw":"-.-","location":"SURIYE"},{"date":"2020.12.20","time":"12:42:53","latitude":"38.1542","longitude":"27.6113","depth":"21.6","md":"-.-","ml":"1.4","mw":"-.-","location":"TOKATBASI-BAYINDIR (IZMIR)"},{"date":"2020.12.20","time":"12:22:29","latitude":"37.9095","longitude":"26.9617","depth":"22.6","md":"-.-","ml":"1.5","mw":"-.-","location":"KUSADASI KORFEZI (EGE DENIZI)"},{"date":"2020.12.20","time":"12:10:27","latitude":"40.6285","longitude":"29.0588","depth":"10.0","md":"-.-","ml":"1.8","mw":"-.-","location":"TESVIKIYE-CINARCIK (YALOVA)"},{"date":"2020.12.20","time":"11:52:06","latitude":"37.8028","longitude":"26.8577","depth":"4.8","md":"-.-","ml":"1.6","mw":"-.-","location":"SISAM ADASI (EGE DENIZI)"},{"date":"2020.12.20","time":"10:14:09","latitude":"37.9198","longitude":"43.8260","depth":"5.0","md":"-.-","ml":"2.9","mw":"-.-","location":"AYDEMIR-BASKALE (VAN)"},{"date":"2020.12.20","time":"10:12:39","latitude":"37.8605","longitude":"27.5270","depth":"3.9","md":"-.-","ml":"1.4","mw":"-.-","location":"TEKIN-GERMENCIK (AYDIN)"},{"date":"2020.12.20","time":"09:27:52","latitude":"37.9173","longitude":"27.0243","depth":"4.7","md":"-.-","ml":"1.8","mw":"-.-","location":"KUSADASI KORFEZI (EGE DENIZI)"},{"date":"2020.12.20","time":"08:47:02","latitude":"38.9927","longitude":"30.1293","depth":"2.2","md":"-.-","ml":"1.2","mw":"-.-","location":"OSMANIYE-ALTINTAS (KUTAHYA)"},{"date":"2020.12.20","time":"08:42:02","latitude":"39.6030","longitude":"33.2685","depth":"15.4","md":"-.-","ml":"1.2","mw":"-.-","location":"SEHRIBAN-BALA (ANKARA)"},{"date":"2020.12.20","time":"08:39:53","latitude":"38.9525","longitude":"30.0042","depth":"5.4","md":"-.-","ml":"1.3","mw":"-.-","location":"ALLIOREN-DUMLUPINAR (KUTAHYA)"},{"date":"2020.12.20","time":"07:47:50","latitude":"39.4305","longitude":"40.2033","depth":"10.7","md":"-.-","ml":"1.5","mw":"-.-","location":"SAMPASAKARADERBENDI-PULUMUR (TUNCELI)"},{"date":"2020.12.20","time":"07:45:28","latitude":"39.4893","longitude":"40.2102","depth":"4.9","md":"-.-","ml":"2.0","mw":"-.-","location":"SAMPASAKARADERBENDI-PULUMUR (TUNCELI)"},{"date":"2020.12.20","time":"07:32:52","latitude":"37.8967","longitude":"43.8062","depth":"5.0","md":"-.-","ml":"4.4","mw":"4.5","location":"AYDEMIR-BASKALE (VAN)"},{"date":"2020.12.20","time":"07:28:46","latitude":"39.5912","longitude":"33.2897","depth":"5.4","md":"-.-","ml":"1.3","mw":"-.-","location":"SEHRIBAN-BALA (ANKARA)"},{"date":"2020.12.20","time":"07:09:27","latitude":"37.8283","longitude":"26.8135","depth":"5.4","md":"-.-","ml":"2.1","mw":"-.-","location":"SISAM ADASI (EGE DENIZI)"},{"date":"2020.12.20","time":"07:01:21","latitude":"37.7130","longitude":"26.9940","depth":"5.5","md":"-.-","ml":"2.2","mw":"-.-","location":"SISAM ADASI (EGE DENIZI)"},{"date":"2020.12.20","time":"06:54:41","latitude":"37.8692","longitude":"26.9640","depth":"19.3","md":"-.-","ml":"1.4","mw":"-.-","location":"KUSADASI KORFEZI (EGE DENIZI)"},{"date":"2020.12.20","time":"06:31:43","latitude":"38.7122","longitude":"40.0488","depth":"8.8","md":"-.-","ml":"1.4","mw":"-.-","location":"DAMLAPINARI-PALU (ELAZIG)"},{"date":"2020.12.20","time":"06:18:41","latitude":"37.1158","longitude":"28.4525","depth":"23.0","md":"-.-","ml":"1.0","mw":"-.-","location":"ULA (MUGLA)"},{"date":"2020.12.20","time":"06:16:39","latitude":"37.0932","longitude":"28.5705","depth":"10.1","md":"-.-","ml":"3.4","mw":"3.4","location":"KIYRA-ULA (MUGLA)"},{"date":"2020.12.20","time":"06:14:39","latitude":"37.1260","longitude":"28.5738","depth":"10.8","md":"-.-","ml":"3.9","mw":"4.0","location":"ARICILAR-ULA (MUGLA)"},{"date":"2020.12.20","time":"06:12:13","latitude":"39.7920","longitude":"41.7432","depth":"12.6","md":"-.-","ml":"1.3","mw":"-.-","location":"YILANLI-KOPRUKOY (ERZURUM)"},{"date":"2020.12.20","time":"05:41:26","latitude":"36.4475","longitude":"25.4023","depth":"5.0","md":"-.-","ml":"2.1","mw":"-.-","location":"AKDENIZ"},{"date":"2020.12.20","time":"05:39:08","latitude":"35.9585","longitude":"36.4067","depth":"20.3","md":"-.-","ml":"2.1","mw":"-.-","location":"KOLCULAR-ALTINOZU (HATAY)"},{"date":"2020.12.20","time":"05:31:58","latitude":"37.8257","longitude":"26.4313","depth":"13.9","md":"-.-","ml":"1.3","mw":"-.-","location":"ONIKI ADALAR (AKDENIZ)"},{"date":"2020.12.20","time":"05:26:23","latitude":"38.2597","longitude":"38.7020","depth":"4.4","md":"-.-","ml":"1.5","mw":"-.-","location":"CAYKOY-PUTURGE (MALATYA)"},{"date":"2020.12.20","time":"05:24:03","latitude":"37.8670","longitude":"29.0975","depth":"8.8","md":"-.-","ml":"1.8","mw":"-.-","location":"CELTIKCI (DENIZLI)"},{"date":"2020.12.20","time":"05:04:01","latitude":"39.5085","longitude":"26.2510","depth":"4.9","md":"-.-","ml":"1.6","mw":"-.-","location":"KURUOBA-AYVACIK (CANAKKALE)"},{"date":"2020.12.20","time":"04:57:50","latitude":"37.7963","longitude":"27.3267","depth":"3.2","md":"-.-","ml":"1.7","mw":"-.-","location":"YAYLAKOY-KUSADASI (AYDIN)"},{"date":"2020.12.20","time":"04:56:29","latitude":"37.8123","longitude":"26.8885","depth":"19.5","md":"-.-","ml":"1.4","mw":"-.-","location":"SISAM ADASI (EGE DENIZI)"},{"date":"2020.12.20","time":"04:52:00","latitude":"37.9012","longitude":"29.2592","depth":"27.8","md":"-.-","ml":"1.2","mw":"-.-","location":"BAKLANCAKIRLAR-CAL (DENIZLI)"},{"date":"2020.12.20","time":"04:36:33","latitude":"37.9023","longitude":"27.0398","depth":"11.5","md":"-.-","ml":"1.2","mw":"-.-","location":"KUSADASI KORFEZI (EGE DENIZI)"},{"date":"2020.12.20","time":"04:31:50","latitude":"40.5665","longitude":"35.5375","depth":"4.8","md":"-.-","ml":"1.8","mw":"-.-","location":"KALEBOGAZI (AMASYA)"},{"date":"2020.12.20","time":"04:29:35","latitude":"38.7620","longitude":"26.5510","depth":"2.4","md":"-.-","ml":"1.7","mw":"-.-","location":"EGE DENIZI"},{"date":"2020.12.20","time":"04:10:46","latitude":"37.7930","longitude":"27.3180","depth":"4.7","md":"-.-","ml":"1.5","mw":"-.-","location":"YAYLAKOY-KUSADASI (AYDIN)"},{"date":"2020.12.20","time":"04:02:06","latitude":"38.0070","longitude":"26.2370","depth":"8.5","md":"-.-","ml":"1.2","mw":"-.-","location":"EGE DENIZI"},{"date":"2020.12.20","time":"03:45:07","latitude":"36.2332","longitude":"28.1677","depth":"25.0","md":"-.-","ml":"1.7","mw":"-.-","location":"AKDENIZ"},{"date":"2020.12.20","time":"03:35:05","latitude":"39.0560","longitude":"27.8335","depth":"4.3","md":"-.-","ml":"1.8","mw":"-.-","location":"MUSALAR-AKHISAR (MANISA)"},{"date":"2020.12.20","time":"03:29:51","latitude":"40.6182","longitude":"29.0910","depth":"11.8","md":"-.-","ml":"1.4","mw":"-.-","location":"TESVIKIYE-CINARCIK (YALOVA)"},{"date":"2020.12.20","time":"03:08:15","latitude":"37.8778","longitude":"29.0910","depth":"5.0","md":"-.-","ml":"1.5","mw":"-.-","location":"CELTIKCI (DENIZLI)"},{"date":"2020.12.20","time":"03:02:38","latitude":"39.5003","longitude":"26.2635","depth":"5.4","md":"-.-","ml":"1.5","mw":"-.-","location":"KURUOBA-AYVACIK (CANAKKALE)"},{"date":"2020.12.20","time":"02:53:39","latitude":"41.3705","longitude":"24.7385","depth":"5.3","md":"-.-","ml":"2.1","mw":"-.-","location":"YUNANISTAN"},{"date":"2020.12.20","time":"02:53:29","latitude":"38.7435","longitude":"30.7183","depth":"6.7","md":"-.-","ml":"1.1","mw":"-.-","location":"CAVDARLI (AFYONKARAHISAR)"},{"date":"2020.12.20","time":"02:50:03","latitude":"40.6305","longitude":"29.0638","depth":"10.4","md":"-.-","ml":"2.2","mw":"-.-","location":"TESVIKIYE-CINARCIK (YALOVA)"},{"date":"2020.12.20","time":"02:49:20","latitude":"37.8092","longitude":"29.4640","depth":"12.1","md":"-.-","ml":"1.4","mw":"-.-","location":"SAPACA-HONAZ (DENIZLI)"},{"date":"2020.12.20","time":"02:45:14","latitude":"37.7840","longitude":"26.9792","depth":"5.3","md":"-.-","ml":"1.6","mw":"-.-","location":"KUSADASI KORFEZI (EGE DENIZI)"},{"date":"2020.12.20","time":"02:31:29","latitude":"35.6677","longitude":"26.2553","depth":"5.1","md":"-.-","ml":"1.6","mw":"-.-","location":"AKDENIZ"},{"date":"2020.12.20","time":"02:25:35","latitude":"37.0453","longitude":"27.8933","depth":"7.2","md":"-.-","ml":"1.7","mw":"-.-","location":"TURKEVLERI-MILAS (MUGLA)"},{"date":"2020.12.20","time":"01:40:38","latitude":"37.9677","longitude":"27.1048","depth":"7.6","md":"-.-","ml":"1.7","mw":"-.-","location":"KUSADASI KORFEZI (EGE DENIZI)"},{"date":"2020.12.20","time":"01:37:23","latitude":"37.9400","longitude":"26.9785","depth":"5.4","md":"-.-","ml":"1.7","mw":"-.-","location":"KUSADASI KORFEZI (EGE DENIZI)"},{"date":"2020.12.20","time":"01:13:11","latitude":"34.4740","longitude":"23.9492","depth":"9.0","md":"-.-","ml":"2.6","mw":"-.-","location":"GIRIT ADASI ACIKLARI (AKDENIZ)"},{"date":"2020.12.20","time":"01:10:41","latitude":"34.5700","longitude":"23.9630","depth":"5.0","md":"-.-","ml":"2.4","mw":"-.-","location":"GIRIT ADASI ACIKLARI (AKDENIZ)"},{"date":"2020.12.20","time":"01:01:15","latitude":"37.0223","longitude":"28.4758","depth":"2.6","md":"-.-","ml":"0.7","mw":"-.-","location":"SARAYYANI-ULA (MUGLA)"},{"date":"2020.12.20","time":"00:58:39","latitude":"37.8468","longitude":"26.8738","depth":"21.7","md":"-.-","ml":"1.2","mw":"-.-","location":"KUSADASI KORFEZI (EGE DENIZI)"},{"date":"2020.12.20","time":"00:55:01","latitude":"37.8180","longitude":"26.8028","depth":"5.2","md":"-.-","ml":"1.6","mw":"-.-","location":"SISAM ADASI (EGE DENIZI)"},{"date":"2020.12.20","time":"00:24:25","latitude":"37.8925","longitude":"26.6048","depth":"14.0","md":"-.-","ml":"2.5","mw":"-.-","location":"EGE DENIZI"},{"date":"2020.12.20","time":"00:20:06","latitude":"36.4782","longitude":"28.7435","depth":"5.0","md":"-.-","ml":"1.8","mw":"-.-","location":"AKDENIZ"},{"date":"2020.12.19","time":"23:54:35","latitude":"38.4647","longitude":"26.8115","depth":"10.0","md":"-.-","ml":"1.2","mw":"-.-","location":"IZMIR KORFEZI (EGE DENIZI)"},{"date":"2020.12.19","time":"23:42:59","latitude":"38.0690","longitude":"41.6545","depth":"2.2","md":"-.-","ml":"0.9","mw":"-.-","location":"ATABAGI-BAYKAN (SIIRT)"},{"date":"2020.12.19","time":"23:27:11","latitude":"37.9008","longitude":"26.9653","depth":"5.1","md":"-.-","ml":"1.7","mw":"-.-","location":"KUSADASI KORFEZI (EGE DENIZI)"}]
